~VERSION INFORMATION
 VERS.                 2.0:   CWLS LOG ASCII STANDARD - VERSION 2.0
 WRAP.                  NO:   SINGLE LINE PER DEPTH STEP
 CREA.                 9/4/2023 1:15:45 PM
#CREATED USING DSPetro VERSION 10ep.4.05.01 BY C4372838 ON 9/4/2023 1:15:45 PM
~WELL INFORMATION
#MNEM.UNIT       DATA                          DESCRIPTION MNEMONIC
#---------      ---------------------------   --------------------------
 STRT    .FT        2599.0000                 : START DEPTH
 STOP    .FT        3150.0000                 : STOP DEPTH
 STEP    .FT        0.5000                    : STEP VALUE
 NULL    .      -999.0000                     : NULL VALUE
 DATE    .      9/4/2023                      : LAS file Creation Date
 WELL   .      ABANICO-19                   : Well Name
 COMP   .      Kappa Resources Colombia,Ltd : Company
 FLD    .      UNKNOWN                      : Field
 STATE  .      UNKNOWN                      : State
 COUNT  .      Colombia                     : Country
 UWI    .      ABAN0019                     : Unique Well Identifier (UWI)
 LOC    .      UNKNOWN                      : Location
 PDAT   .      GROUND LEVEL                 : Permanent Datum
 EPDAT  .      1039.000000                  : Elevation of Permanent Datum
 LGMEA  .      DRILL FLOOR                  : Log Measured from
 APDAT  .      12.000000                    : Elevation Above Permanent Datum
 KB     .      1052.00000                   : KB Elevation
 DF     .      1051.00000                   : DF Elevation
 RWS    .      -999                         : Def_Rw
 WST    .      -999                         : Def_Rwt
 CNTY   .      UNKNOWN                      : County
 PROV   .      TOLIMA                       : Province
 SRVC   .      UNKNOWN                      : Contractor
 GDAT   .      WGS 84                       : Geodatum
 LONG   .      0.252833333280351            : Longitude
 LATI   .      0.26609722243415             : Latitude
 COORDIN.                                   : Grid System
 XCOORD .      910201.721945                : X or East-West Coordinate
 YCOORD .      958010.866493                : Y or North-South Coordinate
~CURVE INFORMATION
#MNEM                 UNIT       API CODE   Curve Type Comments
#----------     --------------- ----------  ---------- -----------
 DEPTH         .FT                        : Depth       
 GRGC          .API                       : GammaRay    GR:UNKNOWN:r1:0001:v1
 GRGC          .API                       : GammaRay    GR:UNKNOWN:r1:0001:v1
 HCGR          .GAPI                      :             HNGS Computed Gamma Ray {F13.2}
 SP            .MV                        : SP          Spontaneous Potential {F13.2}
 K_CORE_2023   .                          :             
 PDPE          .B/E                       : PEF         PEFZ:UNKNOWN:rC:NONE:v0 (auto-composite)
 POR_CORE_2023 .                          :             
 DEN           .g/cm3                     : Density     RHOZ:UNKNOWN:rC:NONE:v0 (auto-composite)
 PHIE          .Dec                       : Phi         
 SWT           .Dec                       : Sw          
 VCLmix        .Dec                       : Vcl         
 DCAL          .IN                        :             Differential Caliper {F13.2}
 AHT20         .OHMM                      : MedRes      Array Induction Two Foot Resistivity A20 {F13.2}
 AHT10         .OHMM                      : ShalRes     Array Induction Two Foot Resistivity A10 {F13.2}
 AHT30         .OHMM                      : MedRes      Array Induction Two Foot Resistivity A30 {F13.2}
 AHT60         .ohm.m                     : MedRes      AHT60:UNKNOWN:rC:NONE:v0 (auto-composite)
 AHT90         .ohm.m                     : DeepRes     AHT90:UNKNOWN:rC:NONE:v0 (auto-composite)
 BS            .IN                        : BitSize     Bit Size {F13.2}
 DTCO          .us/ft                     : Sonic       DTCO:UNKNOWN:rC:NONE:v0 (auto-composite)
 GR            .API                       : GammaRay    GR:UNKNOWN:rC:NONE:v0 (auto-composite)
 HCAL          .inch                      : Caliper     HCAL:UNKNOWN:rC:NONE:v0 (auto-composite)
 HDRA          .G/C3                      : Drho        HRDD Density Correction {F13.2}
 HTHO          .PPM                       :             HNGS Formation Thorium Concentration {F13.2}
 HTPR          .                          :             HNGS Thorium/Potassium Ratio {F13.2}
 HTUR          .                          :             HNGS Thorium/Uranium Ratio {F13.2}
 HUPR          .                          :             HNGS Uranium/Potassium Ratio {F13.2}
 HURA          .PPM                       :             HNGS Formation Uranium Concentration {F13.2}
 PEFZ          .B/E                       : PEF         PEFZ:UNKNOWN:rC:NONE:v0 (auto-composite)
 RHOZ          .g/cm3                     : Density     RHOZ:UNKNOWN:rC:NONE:v0 (auto-composite)
 RXOZ          .OHMM                      : MicroRes    MCFL Standard Resolution Invaded Zone Resistivity {F13.2}
 SP            .MV                        : SP          Spontaneous Potential {F13.2}
 TNPH          .dec                       : Neutron     TNPH:UNKNOWN:rC:NONE:v0 (auto-composite)
 CALI          .inch                      : Caliper     C1:UNKNOWN:rC:NONE:v0 (auto-composite)
 BS            .IN                        : BitSize     Bit Size {F13.2}
 HDRS          .ohm.m                     : DeepRes     Lateralog Deep Resistivity, ohmm
 NPHI          .dec                       : Neutron     TNPH:UNKNOWN:rC:NONE:v0 (auto-composite)
 PEF           .B/E                       : PEF         PEFZ:UNKNOWN:rC:NONE:v0 (auto-composite)
 CALI          .inch                      : Caliper     C1:UNKNOWN:rC:NONE:v0 (auto-composite)
 DRHO          .G/C3                      : Drho        HRDD Density Correction {F13.2}
 DT            .us/ft                     : Sonic       DTCO:UNKNOWN:rC:NONE:v0 (auto-composite)
 GR            .API                       : GammaRay    GR:UNKNOWN:r1:0001:v1
 HDRS          .ohm.m                     : DeepRes     Lateralog Deep Resistivity, ohmm
~A  DEPTH    GRGC      GRGC      HCGR       SP    K_CORE_2~    PDPE   POR_CORE~    DEN       PHIE      SWT      VCLmix     DCAL     AHT20     AHT10     AHT30     AHT60     AHT90       BS       DTCO       GR       HCAL      HDRA      HTHO      HTPR      HTUR      HUPR      HURA      PEFZ      RHOZ      RXOZ       SP       TNPH      CALI       BS       HDRS      NPHI      PEF       CALI      DRHO       DT        GR       HDRS   
# ...
2732.0000   53.9400   53.9400   24.0300   51.4400 -999.0000    2.1000 -999.0000    2.3100    0.2128    0.7431    0.1403   -0.1400   11.7300    8.9300   13.3300   16.9500   17.9800    8.5000   87.7525   53.9400    8.3585   -0.0100    3.3200    4.4500    1.2300    3.6100    2.6900    2.1000    2.3100    6.4400   51.4400    0.2800    8.2270    8.5000    1.7400    0.2800    2.1000    8.2270   -0.0100   87.7525   53.9400    1.7400 
2732.5000   53.9300   53.9300   23.4400   51.2500 -999.0000    2.1100 -999.0000    2.3100    0.2076    0.7686    0.1344   -0.1800   11.7400    8.8100   13.4300   16.9900   17.9600    8.5000   87.8469   53.9300    8.3201   -0.0100    2.9900    3.8900    1.2400    3.1300    2.4100    2.1100    2.3100    6.5100   51.2500    0.2600    8.2270    8.5000    1.9050    0.2600    2.1100    8.2270   -0.0100   87.8469   53.9300    1.9050 
2733.0000   54.4100   54.4100   24.6500   51.2500 -999.0000    2.1000 -999.0000    2.3300    0.1945    0.8063    0.1465   -0.2000   11.8700    8.7600   13.5100   17.0100   18.1600    8.5000   87.7556   54.4100    8.3010   -0.0100    3.1000    3.8000    1.3500    2.8200    2.3000    2.1000    2.3300    6.3000   51.2500    0.2500    8.2270    8.5000    2.0700    0.2500    2.1000    8.2270   -0.0100   87.7556   54.4100    2.0700 
2733.5000   50.0500   50.0500   23.9800   51.0000 -999.0000    2.0800 -999.0000    2.3200    0.1992    0.7796    0.1398   -0.1400   12.2000    9.1000   13.8300   17.2700   18.3000    8.5000   87.6707   50.0500    8.3585   -0.0100    2.9100    3.5900    1.3200    2.7100    2.2000    2.0800    2.3200    6.4400   51.0000    0.2500    8.2270    8.5000    1.8400    0.2500    2.0800    8.2270   -0.0100   87.6707   50.0500    1.8400 
2734.0000   48.2000   48.2000   23.8400   51.0600   10.5830    2.0500    0.2444    2.3100    0.2028    0.7550    0.1384   -0.1600   12.6700    9.4200   14.3500   17.7600   19.0500    8.5000   87.7804   48.2000    8.3355   -0.0100    2.8700    3.5400    1.2900    2.7400    2.2200    2.0500    2.3100    6.6400   51.0600    0.2500    8.2392    8.5000    1.6100    0.2500    2.0500    8.2392   -0.0100   87.7804   48.2000    1.6100 
2734.5000   43.3700   43.3700   23.9200   51.0600  251.3900    2.0600    0.2280    2.3000    0.2094    0.7282    0.1392   -0.1500   12.7200    9.5500   14.3600   18.1100   18.9900    8.5000   88.0482   43.3700    8.3508   -0.0100    2.8300    3.4500    1.2500    2.7500    2.2600    2.0600    2.3000    6.7200   51.0600    0.2600    8.2514    8.5000    1.4100    0.2600    2.0600    8.2514   -0.0100   88.0482   43.3700    1.4100 
2735.0000   45.8800   45.8800   23.2300   51.0600 -999.0000    2.0700 -999.0000    2.3000    0.2109    0.7226    0.1323   -0.1300   12.7800    9.7000   14.3800   17.9600   18.4500    8.5000   87.7433   45.8800    8.3661   -0.0100    2.6200    3.1900    1.1500    2.7700    2.2800    2.0700    2.3000    6.8900   51.0600    0.2600    8.2270    8.5000    1.2100    0.2600    2.0700    8.2270   -0.0100   87.7433   45.8800    1.2100 
2735.5000   46.8200   46.8200   23.6900   50.8800 -999.0000    2.0700 -999.0000    2.3200    0.2025    0.7336    0.1369   -0.1400   13.2700   10.0000   14.9700   18.5000   18.8400    8.5000   88.0309   46.8200    8.3585   -0.0100    2.6100    3.0800    1.1500    2.6700    2.2600    2.0700    2.3200    7.3400   50.8800    0.2600    8.2270    8.5000    1.0950    0.2600    2.0700    8.2270   -0.0100   88.0309   46.8200    1.0950 
2736.0000   46.4900   46.4900   25.8700   50.7500 -999.0000    2.0700 -999.0000    2.3400    0.1868    0.7538    0.1587   -0.1300   13.5700   10.3600   15.3100   18.8400   18.9500    8.5000   88.4482   46.4900    8.3661   -0.0100    2.9600    3.2600    1.4300    2.2900    2.0700    2.0700    2.3400    7.6400   50.7500    0.2500    8.2025    8.5000    0.9800    0.2500    2.0700    8.2025   -0.0100   88.4482   46.4900    0.9800 
2736.5000   47.9700   47.9700   25.5700   50.6300 -999.0000    2.0800 -999.0000    2.3500    0.1874    0.7559    0.1557   -0.1600   13.6600   10.3200   15.3400   18.8900   18.8400    8.5000   90.2793   47.9700    8.3355   -0.0100    2.8000    3.0600    1.1900    2.5700    2.3600    2.0800    2.3500    8.4600   50.6300    0.2600    8.2025    8.5000    1.1000    0.2600    2.0800    8.2025   -0.0100   90.2793   47.9700    1.1000 
2737.0000   47.8400   47.8400   26.4600   50.6300 -999.0000    2.1200 -999.0000    2.3400    0.1885    0.7285    0.1646   -0.1500   14.5900   10.7600   16.6000   20.8100   20.3300    8.5000   90.5823   47.8400    8.3508   -0.0100    2.6800    2.7100    1.1000    2.4600    2.4300    2.1200    2.3400    9.0600   50.6300    0.2600    8.2025    8.5000    1.2200    0.2600    2.1200    8.2025   -0.0100   90.5823   47.8400    1.2200 
2737.5000   53.6300   53.6300   26.7400   50.5600 -999.0000    2.1600 -999.0000    2.3200    0.1976    0.6687    0.1674   -0.1300   15.9000   11.6500   18.2000   22.2400   21.2200    8.5000   90.7472   53.6300    8.3700   -0.0100    2.8700    2.9600    1.3100    2.2700    2.2000    2.1600    2.3200    9.4200   50.5600    0.2700    8.2270    8.5000    1.3900    0.2700    2.1600    8.2270   -0.0100   90.7472   53.6300    1.3900 
2738.0000   54.5000   54.5000   24.0600   50.5600 -999.0000    2.1500 -999.0000    2.3000    0.2138    0.6322    0.1406   -0.1300   16.4100   11.9900   18.5000   23.2600   21.9600    8.5000   90.9816   54.5000    8.3738   -0.0100    2.6800    3.1400    1.2000    2.6200    2.2400    2.1500    2.3000    9.9700   50.5600    0.2800    8.2270    8.5000    1.5600    0.2800    2.1500    8.2270   -0.0100   90.9816   54.5000    1.5600 
2738.5000   57.8800   57.8800   25.6800   50.5600 -999.0000    2.0900 -999.0000    2.3000    0.2037    0.6511    0.1568   -0.1800   16.4700   11.9000   19.1500   24.5300   22.8000    8.5000   92.1411   57.8800    8.3240   -0.0100    2.9900    3.3600    1.4200    2.3700    2.1100    2.0900    2.3000    9.4500   50.5600    0.2600    8.2270    8.5000    1.5950    0.2600    2.0900    8.2270   -0.0100   92.1411   57.8800    1.5950 
2739.0000   58.1300   58.1300   26.5200   50.6900 -999.0000    2.0700 -999.0000    2.2900    0.2061    0.6666    0.1652   -0.1800   15.0500   11.0400   17.4900   23.1200   21.7700    8.5000   92.4142   58.1300    8.3240   -0.0100    3.2200    3.5800    1.4300    2.5000    2.2500    2.0700    2.2900    8.8800   50.6900    0.2600    8.2270    8.5000    1.6300    0.2600    2.0700    8.2270   -0.0100   92.4142   58.1300    1.6300 
2739.5000   58.4700   58.4700   31.8500   50.6900 -999.0000    2.0900 -999.0000    2.2800    0.2120    0.6712    0.1565   -0.1500   13.8200   10.5900   15.8300   20.2700   20.0100    8.5000   94.3370   58.4700    8.3508   -0.0100    4.2200    4.1500    1.9200    2.1600    2.2000    2.0900    2.2800    7.7800   50.6900    0.2600    8.2025    8.5000    1.6300    0.2600    2.0900    8.2025   -0.0100   94.3370   58.4700    1.6300 
2740.0000   60.9100   60.9100   31.2400   50.8800 -999.0000    2.1000 -999.0000    2.2600    0.2227    0.6445    0.1722   -0.1400   13.3400   10.3000   15.5100   19.6900   19.8600    8.5000   94.8115   60.9100    8.3585   -0.0100    4.2500    4.3500    1.9600    2.2200    2.1700    2.1000    2.2600    7.2000   50.8800    0.2800    8.2270    8.5000    1.6300    0.2800    2.1000    8.2270   -0.0100   94.8115   60.9100    1.6300 
2740.5000   59.9200   59.9200   30.4000   50.8800 -999.0000    2.0900 -999.0000    2.2600    0.2234    0.6592    0.1545   -0.1600   12.8500   10.1000   14.8900   19.3900   20.3600    8.5000   95.6392   59.9200    8.3355   -0.0100    4.0600    4.2000    1.7300    2.4300    2.3400    2.0900    2.2600    6.9900   50.8800    0.2700    8.2270    8.5000    1.5500    0.2700    2.0900    8.2270   -0.0100   95.6392   59.9200    1.5500 
2741.0000   63.2500   63.2500   30.0700   50.7500 -999.0000    2.0800 -999.0000    2.2900    0.2061    0.6980    0.1841   -0.1400   12.3700    9.8100   14.2000   18.5100   20.2100    8.5000   95.7666   63.2500    8.3585   -0.0100    4.0400    4.2500    1.5000    2.8400    2.7000    2.0800    2.2900    6.5000   50.7500    0.2700    8.2025    8.5000    1.4700    0.2700    2.0800    8.2025   -0.0100   95.7666   63.2500    1.4700 
