~VERSION INFORMATION
 VERS.                 2.0:   CWLS LOG ASCII STANDARD - VERSION 2.0
 WRAP.                  NO:   SINGLE LINE PER DEPTH STEP
 CREA.                 9/4/2023 1:15:44 PM
#CREATED USING DSPetro VERSION 10ep.4.05.01 BY C4372838 ON 9/4/2023 1:15:44 PM
~WELL INFORMATION
#MNEM.UNIT       DATA                          DESCRIPTION MNEMONIC
#---------      ---------------------------   --------------------------
 STRT    .FT        2533.0000                 : START DEPTH
 STOP    .FT        3150.0000                 : STOP DEPTH
 STEP    .FT        0.5000                    : STEP VALUE
 NULL    .      -999.0000                     : NULL VALUE
 DATE    .      9/4/2023                      : LAS file Creation Date
 WELL   .      ABANICO-2                    : Well Name
 COMP   .      Kappa Resources Colombia,Ltd : Company
 FLD    .      UNKNOWN                      : Field
 STATE  .      UNKNOWN                      : State
 COUNT  .      Colombia                     : Country
 UWI    .      ABAN0002                     : Unique Well Identifier (UWI)
 LOC    .      UNKNOWN                      : Location
 RWS    .      -999                         : Def_Rw
 WST    .      -999                         : Def_Rwt
 CNTY   .      UNKNOWN                      : County
 PROV   .                                   : Province
 SRVC   .      UNKNOWN                      : Contractor
 GDAT   .      WGS 84                       : Geodatum
 LONG   .      0                            : Longitude
 LATI   .      0                            : Latitude
 COORDIN.                                   : Grid System
 XCOORD .      910597.860948                : X or East-West Coordinate
 YCOORD .      957980.305104                : Y or North-South Coordinate
~CURVE INFORMATION
#MNEM                 UNIT       API CODE   Curve Type Comments
#----------     --------------- ----------  ---------- -----------
 DEPTH         .FT                        : Depth       
 GRGC          .API                       : GammaRay    GR:UNKNOWN:r1:MAIN:v1
 GRGC          .API                       : GammaRay    GR:UNKNOWN:r1:MAIN:v1
 SP            .mV                        : SP          SP:UNKNOWN:r1:MAIN:v1
 K_CORE_2023   .                          :             
 PDPE          .b/elec                    : PEF         PEF:UNKNOWN:r1:MAIN:v1
 POR_CORE_2023 .                          :             
 DEN           .g/cm3                     : Density     RHOB:PETROPHYSIC:rC:NONE:v0 (auto-composite)
 PHIE          .Dec                       : Phi         
 SWT           .Dec                       : Sw          
 VCLmix        .Dec                       : Vcl         
 AHT60         .ohm.m                     : DeepRes     HDRS:UNKNOWN:r1:MAIN:v1
 BS            .inches                    : BitSize     BS:UNKNOWN:r1:MAIN:v1
 DTCO          .uSec/ft                   : Sonic       DT:UNKNOWN:rC:NONE:v0 (auto-composite)
 GR            .API                       : GammaRay    GR:PETROPHYSIC:rC:NONE:v0 (auto-composite)
 HDRA          .g/cm3                     : Drho        DRHO:UNKNOWN:r1:MAIN:v1
 PEFZ          .b/elec                    : PEF         PEF:UNKNOWN:r1:MAIN:v1
 RHOZ          .g/cm3                     : Density     RHOB:PETROPHYSIC:rC:NONE:v0 (auto-composite)
 RXOZ          .ohm.m                     : MicroRes    MSFL:UNKNOWN:r1:MAIN:v1
 SP            .mV                        : SP          SP:UNKNOWN:r1:MAIN:v1
 TNPH          .v/v_decimal               : Neutron     NPHI:UNKNOWN:r1:MAIN:v1
 CALI          .inches                    : Caliper     CALI:PETROPHYSIC:rC:NONE:v0 (auto-composite)
 BS            .inches                    : BitSize     BS:UNKNOWN:r1:MAIN:v1
 HDRS          .ohm.m                     : DeepRes     HDRS:PETROPHYSIC:rC:NONE:v0 (auto-composite)
 HMRS          .ohm.m                     :             HMRS:PETROPHYSIC:rC:NONE:v0 (auto-composite)
 NPHI          .v/v_decimal               : Neutron     NPHI:UNKNOWN:r1:MAIN:v1
 PEF           .b/elec                    : PEF         PEF:UNKNOWN:r1:MAIN:v1
 CALI          .inches                    : Caliper     CALI:UNKNOWN:r1:MAIN:v1
 DRHO          .g/cm3                     : Drho        DRHO:UNKNOWN:r1:MAIN:v1
 DT            .us/ft                     : Sonic       DT:UNKNOWN:r1:MAIN:v1
 GR            .API                       : GammaRay    GR:UNKNOWN:r1:MAIN:v1
 HDRS          .ohm.m                     : DeepRes     HDRS:UNKNOWN:r1:MAIN:v1
 HMRS          .UNKNOWN                   :             HMRS:UNKNOWN:r1:MAIN:v1
~A  DEPTH    GRGC      GRGC       SP    K_CORE_2~    PDPE   POR_CORE~    DEN       PHIE      SWT      VCLmix    AHT60       BS       DTCO       GR       HDRA      PEFZ      RHOZ      RXOZ       SP       TNPH      CALI       BS       HDRS      HMRS      NPHI      PEF       CALI      DRHO       DT        GR       HDRS      HMRS   
# ...
2920.5000  117.7624  117.7624  -29.5133 -999.0000    2.4014 -999.0000    2.2868    0.1714    0.4032    0.3299   51.0179    8.5000  182.5022  162.1951   -0.0187    2.4014    2.2868   14.4318  -29.5133    0.2397 -999.0000    8.5000   51.0179   52.5598    0.2397    2.4014    9.9050   -0.0187   75.1078  117.7624   51.0179   52.5598 
2921.0000  112.8141  112.8141  -29.3067 -999.0000    2.5227 -999.0000    2.2631    0.1764    0.4444    0.4023   41.6513    8.5000  184.2425  148.0323    0.0106    2.5227    2.2631   12.8921  -29.3067    0.2673 -999.0000    8.5000   41.6513   39.9175    0.2673    2.5227    9.9307    0.0106   73.3547  112.8141   41.6513   39.9175 
2921.5000  112.7128  112.7128  -31.4400 -999.0000    2.5295 -999.0000    2.2241    0.1822    0.5089    0.5385   31.8741    8.5000  168.0262  129.0502    0.0599    2.5295    2.2241   14.7644  -31.4400    0.3162 -999.0000    8.5000   31.8741   29.1337    0.3162    2.5295   10.0088    0.0599   87.1250  112.7128   31.8741   29.1337 
2922.0000  109.4692  109.4692  -34.3667 -999.0000    2.4268 -999.0000    2.1805    0.1986    0.5821    0.5034   25.7559    8.5000  125.2670  112.9892    0.1073    2.4268    2.1805   14.2214  -34.3667    0.3588 -999.0000    8.5000   25.7559   22.4829    0.3588    2.4268   10.1367    0.1073  119.7094  109.4692   25.7559   22.4829 
2922.5000  104.3644  104.3644  -37.7200 -999.0000    2.3191 -999.0000    2.1699    0.2330    0.5825    0.4174   24.4695    8.5000  124.5391   99.2134    0.1292    2.3191    2.1699   11.9662  -37.7200    0.3553 -999.0000    8.5000   24.4695   20.6899    0.3553    2.3191   10.2262    0.1292  130.9797  104.3644   24.4695   20.6899 
2923.0000  101.1945  101.1945  -38.4333 -999.0000    2.2652 -999.0000    2.2124    0.2226    0.5328    0.3991   29.9787    8.5000  131.4067   96.1081    0.1217    2.2652    2.2124    8.9798  -38.4333    0.3304 -999.0000    8.5000   29.9787   25.2523    0.3304    2.2652   10.1421    0.1217  109.9938  101.1945   29.9787   25.2523 
2923.5000   93.3714   93.3714  -37.2733 -999.0000    2.2792 -999.0000    2.2962    0.1619    0.4817    0.4289   46.0518    8.5000  138.7134   97.4534    0.1066    2.2792    2.2962   13.1154  -37.2733    0.2835 -999.0000    8.5000   46.0518   41.0467    0.2835    2.2792   10.0116    0.1066  100.7484   93.3714   46.0518   41.0467 
2924.0000   86.3314   86.3314  -35.3133 -999.0000    2.3176 -999.0000    2.3810    0.1166    0.5903    0.4791   60.8560    8.5000  117.0206   96.9743    0.1051    2.3176    2.3810   26.3924  -35.3133    0.2596 -999.0000    8.5000   60.8560   60.0890    0.2596    2.3176    9.9187    0.1051   90.0953   86.3314   60.8560   60.0890 
2924.5000   89.6671   89.6671  -34.1933 -999.0000    2.3344 -999.0000    2.4346    0.1001    0.6400    0.5079   62.8697    8.5000   79.4052   90.1647    0.1117    2.3344    2.4346   37.5549  -34.1933    0.2624 -999.0000    8.5000   62.8697   60.2314    0.2624    2.3344    9.8919    0.1117   84.7844   89.6671   62.8697   60.2314 
2925.0000   93.0765   93.0765  -33.3733 -999.0000    2.3206 -999.0000    2.4438    0.0001    1.0000    0.5289   68.1122    8.5000   79.2155   86.3499    0.1086    2.3206    2.4438   47.3865  -33.3733    0.2675 -999.0000    8.5000   68.1122   58.0868    0.2675    2.3206    9.8805    0.1086   80.2562   93.0765   68.1122   58.0868 
2925.5000  102.7334  102.7334  -32.1933 -999.0000    2.3290 -999.0000    2.4297    0.0001    1.0000    0.5591   73.9629    8.5000   78.1427   90.5609    0.0929    2.3290    2.4297   34.7593  -32.1933    0.2785 -999.0000    8.5000   73.9629   58.9192    0.2785    2.3290    9.8805    0.0929   75.7891  102.7334   73.9629   58.9192 
2926.0000  115.9379  115.9379  -32.0933 -999.0000    2.3412 -999.0000    2.4197    0.1046    0.6531    0.5617   77.7275    8.5000   72.3463  100.9181    0.0711    2.3412    2.4197   26.5455  -32.0933    0.2874 -999.0000    8.5000   77.7275   65.9813    0.2874    2.3412    9.8816    0.0711   76.6906  115.9379   77.7275   65.9813 
2926.5000  117.7716  117.7716  -33.0600 -999.0000    2.3705 -999.0000    2.4094    0.1133    0.6242    0.5369   84.2174    8.5000   71.2633  105.6728    0.0575    2.3705    2.4094   43.5798  -33.0600    0.2903 -999.0000    8.5000   84.2174   80.5964    0.2903    2.3705    9.8843    0.0575   76.9906  117.7716   84.2174   80.5964 
2927.0000  112.9431  112.9431  -34.5600   89.2000    2.4684    0.2424    2.4032    0.1180    0.5969    0.4985   92.8715    8.5000   71.4668  107.9949    0.0538    2.4684    2.4032  100.8947  -34.5600    0.2803 -999.0000    8.5000   92.8715   88.1799    0.2803    2.4684    9.8892    0.0538   72.2063  112.9431   92.8715   88.1799 
2927.5000  104.9080  104.9080  -35.8800 -999.0000    2.6325 -999.0000    2.3992    0.1207    0.5744    0.4646   93.8291    8.5000   78.7489  104.5855    0.0526    2.6325    2.3992   92.5821  -35.8800    0.2698 -999.0000    8.5000   93.8291   80.4082    0.2698    2.6325    9.8810    0.0526   76.5062  104.9080   93.8291   80.4082 
2928.0000   89.1419   89.1419  -37.1400 -999.0000    2.8291 -999.0000    2.3935    0.1291    0.5401    0.4323   83.0871    8.5000   85.5174   93.0581    0.0531    2.8291    2.3935   93.3225  -37.1400    0.2698 -999.0000    8.5000   83.0871   69.1441    0.2698    2.8291    9.8695    0.0531   82.5266   89.1419   83.0871   69.1441 
2928.5000   77.4854   77.4854  -38.3133 -999.0000    2.9174 -999.0000    2.3923    0.1336    0.5136    0.4022   72.4083    8.5000   84.9924   85.1796    0.0537    2.9174    2.3923  123.8915  -38.3133    0.2653 -999.0000    8.5000   72.4083   61.6814    0.2653    2.9174    9.8564    0.0537   83.1609   77.4854   72.4083   61.6814 
2929.0000   73.0163   73.0163  -38.8533 -999.0000    2.7847 -999.0000    2.3896    0.1303    0.5110    0.3884   70.4772    8.5000   86.3362   80.0932    0.0532    2.7847    2.3896  141.4730  -38.8533    0.2536 -999.0000    8.5000   70.4772   59.8180    0.2536    2.7847    9.8477    0.0532   82.4125   73.0163   70.4772   59.8180 
2929.5000   68.6394   68.6394  -38.5667 -999.0000    2.5376 -999.0000    2.3778    0.1198    0.5366    0.3957   74.4591    8.5000   87.7030   76.4534    0.0529    2.5376    2.3778  130.2235  -38.5667    0.2344 -999.0000    8.5000   74.4591   61.1923    0.2344    2.5376    9.8439    0.0529   80.8562   68.6394   74.4591   61.1923 
2930.0000   67.8193   67.8193  -36.6000 -999.0000    2.3695 -999.0000    2.3810    0.1075    0.5927    0.4462   76.4362    8.5000   85.4306   90.2569    0.0619    2.3695    2.3810  123.5118  -36.6000    0.2245 -999.0000    8.5000   76.4362   61.6910    0.2245    2.3695    9.8400    0.0619   80.0563   67.8193   76.4362   61.6910 
2930.5000   70.2243   70.2243  -33.5800 -999.0000    2.3830 -999.0000    2.4094    0.0001    1.0000    0.5236   73.4933    8.5000   76.8168  107.7093    0.0839    2.3830    2.4094   71.2237  -33.5800    0.2340 -999.0000    8.5000   73.4933   59.0270    0.2340    2.3830    9.8302    0.0839   76.4516   70.2243   73.4933   59.0270 
2931.0000   70.3441   70.3441  -30.0600 -999.0000    2.5435 -999.0000    2.4646    0.0001    1.0000    0.6138   68.6828    8.5000   74.1079  119.3565    0.1156    2.5435    2.4646   37.4056  -30.0600    0.2500 -999.0000    8.5000   68.6828   55.3325    0.2500    2.5435    9.8291    0.1156   72.5219   70.3441   68.6828   55.3325 
2931.5000   70.9523   70.9523  -26.3600 -999.0000    2.6710 -999.0000    2.5256    0.0001    1.0000    0.7087   63.8359    8.5000   70.9912  126.6084    0.1379    2.6710    2.5256   25.8258  -26.3600    0.2721 -999.0000    8.5000   63.8359   52.4719    0.2721    2.6710    9.8297    0.1379   69.8219   70.9523   63.8359   52.4719 
2932.0000   69.4319   69.4319  -23.9133 -999.0000    2.6629 -999.0000    2.5600    0.0001    1.0000    0.7715   58.9097    8.5000   68.3125  128.4882    0.1331    2.6629    2.5600   23.6200  -23.9133    0.2988 -999.0000    8.5000   58.9097   49.6025    0.2988    2.6629    9.8379    0.1331   69.6875   69.4319   58.9097   49.6025 
2932.5000   65.7368   65.7368  -22.4400 -999.0000    2.5562 -999.0000    2.5578    0.0001    1.0000    0.8092   53.8748    8.5000   68.7439  119.1261    0.1096    2.5562    2.5578   22.9757  -22.4400    0.3084 -999.0000    8.5000   53.8748   45.8755    0.3084    2.5562    9.8657    0.1096   71.5500   65.7368   53.8748   45.8755 
