~VERSION INFORMATION
 VERS.                 2.0:   CWLS LOG ASCII STANDARD - VERSION 2.0
 WRAP.                  NO:   SINGLE LINE PER DEPTH STEP
 CREA.                 9/4/2023 1:15:45 PM
#CREATED USING DSPetro VERSION 10ep.4.05.01 BY C4372838 ON 9/4/2023 1:15:45 PM
~WELL INFORMATION
#MNEM.UNIT       DATA                          DESCRIPTION MNEMONIC
#---------      ---------------------------   --------------------------
 STRT    .FT        2599.0000                 : START DEPTH
 STOP    .FT        3150.0000                 : STOP DEPTH
 STEP    .FT        0.5000                    : STEP VALUE
 NULL    .      -999.0000                     : NULL VALUE
 DATE    .      9/4/2023                      : LAS file Creation Date
 WELL   .      ABANICO-19                   : Well Name
 COMP   .      Kappa Resources Colombia,Ltd : Company
 FLD    .      UNKNOWN                      : Field
 STATE  .      UNKNOWN                      : State
 COUNT  .      Colombia                     : Country
 UWI    .      ABAN0019                     : Unique Well Identifier (UWI)
 LOC    .      UNKNOWN                      : Location
 PDAT   .      GROUND LEVEL                 : Permanent Datum
 EPDAT  .      1039.000000                  : Elevation of Permanent Datum
 LGMEA  .      DRILL FLOOR                  : Log Measured from
 APDAT  .      12.000000                    : Elevation Above Permanent Datum
 KB     .      1052.00000                   : KB Elevation
 DF     .      1051.00000                   : DF Elevation
 RWS    .      -999                         : Def_Rw
 WST    .      -999                         : Def_Rwt
 CNTY   .      UNKNOWN                      : County
 PROV   .      TOLIMA                       : Province
 SRVC   .      UNKNOWN                      : Contractor
 GDAT   .      WGS 84                       : Geodatum
 LONG   .      0.252833333280351            : Longitude
 LATI   .      0.26609722243415             : Latitude
 COORDIN.                                   : Grid System
 XCOORD .      910201.721945                : X or East-West Coordinate
 YCOORD .      958010.866493                : Y or North-South Coordinate
~CURVE INFORMATION
#MNEM                 UNIT       API CODE   Curve Type Comments
#----------     --------------- ----------  ---------- -----------
 DEPTH         .FT                        : Depth       
 GRGC          .API                       : GammaRay    GR:UNKNOWN:r1:0001:v1
 GRGC          .API                       : GammaRay    GR:UNKNOWN:r1:0001:v1
 HCGR          .GAPI                      :             HNGS Computed Gamma Ray {F13.2}
 SP            .MV                        : SP          Spontaneous Potential {F13.2}
 K_CORE_2023   .                          :             
 PDPE          .B/E                       : PEF         PEFZ:UNKNOWN:rC:NONE:v0 (auto-composite)
 POR_CORE_2023 .                          :             
 DEN           .g/cm3                     : Density     RHOZ:UNKNOWN:rC:NONE:v0 (auto-composite)
 PHIE          .Dec                       : Phi         
 SWT           .Dec                       : Sw          
 VCLmix        .Dec                       : Vcl         
 DCAL          .IN                        :             Differential Caliper {F13.2}
 AHT20         .OHMM                      : MedRes      Array Induction Two Foot Resistivity A20 {F13.2}
 AHT10         .OHMM                      : ShalRes     Array Induction Two Foot Resistivity A10 {F13.2}
 AHT30         .OHMM                      : MedRes      Array Induction Two Foot Resistivity A30 {F13.2}
 AHT60         .ohm.m                     : MedRes      AHT60:UNKNOWN:rC:NONE:v0 (auto-composite)
 AHT90         .ohm.m                     : DeepRes     AHT90:UNKNOWN:rC:NONE:v0 (auto-composite)
 BS            .IN                        : BitSize     Bit Size {F13.2}
 DTCO          .us/ft                     : Sonic       DTCO:UNKNOWN:rC:NONE:v0 (auto-composite)
 GR            .API                       : GammaRay    GR:UNKNOWN:rC:NONE:v0 (auto-composite)
 HCAL          .inch                      : Caliper     HCAL:UNKNOWN:rC:NONE:v0 (auto-composite)
 HDRA          .G/C3                      : Drho        HRDD Density Correction {F13.2}
 HTHO          .PPM                       :             HNGS Formation Thorium Concentration {F13.2}
 HTPR          .                          :             HNGS Thorium/Potassium Ratio {F13.2}
 HTUR          .                          :             HNGS Thorium/Uranium Ratio {F13.2}
 HUPR          .                          :             HNGS Uranium/Potassium Ratio {F13.2}
 HURA          .PPM                       :             HNGS Formation Uranium Concentration {F13.2}
 PEFZ          .B/E                       : PEF         PEFZ:UNKNOWN:rC:NONE:v0 (auto-composite)
 RHOZ          .g/cm3                     : Density     RHOZ:UNKNOWN:rC:NONE:v0 (auto-composite)
 RXOZ          .OHMM                      : MicroRes    MCFL Standard Resolution Invaded Zone Resistivity {F13.2}
 SP            .MV                        : SP          Spontaneous Potential {F13.2}
 TNPH          .dec                       : Neutron     TNPH:UNKNOWN:rC:NONE:v0 (auto-composite)
 CALI          .inch                      : Caliper     C1:UNKNOWN:rC:NONE:v0 (auto-composite)
 BS            .IN                        : BitSize     Bit Size {F13.2}
 HDRS          .ohm.m                     : DeepRes     Lateralog Deep Resistivity, ohmm
 NPHI          .dec                       : Neutron     TNPH:UNKNOWN:rC:NONE:v0 (auto-composite)
 PEF           .B/E                       : PEF         PEFZ:UNKNOWN:rC:NONE:v0 (auto-composite)
 CALI          .inch                      : Caliper     C1:UNKNOWN:rC:NONE:v0 (auto-composite)
 DRHO          .G/C3                      : Drho        HRDD Density Correction {F13.2}
 DT            .us/ft                     : Sonic       DTCO:UNKNOWN:rC:NONE:v0 (auto-composite)
 GR            .API                       : GammaRay    GR:UNKNOWN:r1:0001:v1
 HDRS          .ohm.m                     : DeepRes     Lateralog Deep Resistivity, ohmm
~A  DEPTH    GRGC      GRGC      HCGR       SP    K_CORE_2~    PDPE   POR_CORE~    DEN       PHIE      SWT      VCLmix     DCAL     AHT20     AHT10     AHT30     AHT60     AHT90       BS       DTCO       GR       HCAL      HDRA      HTHO      HTPR      HTUR      HUPR      HURA      PEFZ      RHOZ      RXOZ       SP       TNPH      CALI       BS       HDRS      NPHI      PEF       CALI      DRHO       DT        GR       HDRS   
# ...
2637.0000   51.3100   51.3100   34.7900   56.5600 -999.0000    2.2400 -999.0000    2.3600    0.1541    0.9814    0.2706    0.0300    9.7400    9.5600   10.5500   11.6900   11.9500    8.5000   83.4535   51.3100    8.5348   -0.0100    6.2900    7.6300    6.0600    1.2600    1.0400    2.2400    2.3600    7.0500   56.5600    0.2700    8.3859    8.5000    2.9800    0.2700    2.2400    8.3859   -0.0100   83.4535   51.3100    2.9800 
2637.5000   55.3700   55.3700   34.7500   56.7500 -999.0000    2.2500 -999.0000    2.3700    0.1543    0.9891    0.2702    0.0300    9.6100    9.3200   10.3200   11.4200   11.9200    8.5000   83.4790   55.3700    8.5310   -0.0100    6.1600    7.2800    5.3500    1.3600    1.1500    2.2500    2.3700    6.9400   56.7500    0.2800    8.3615    8.5000    2.8750    0.2800    2.2500    8.3615   -0.0100   83.4790   55.3700    2.8750 
2638.0000   53.1900   53.1900   37.6900   56.8100 -999.0000    2.3400 -999.0000    2.3800    0.1426    1.0000    0.2999    0.0100    9.4000    9.0000   10.1200   11.0100   11.4400    8.5000   83.0043   53.1900    8.5080   -0.0100    6.7900    7.5600    8.3900    0.9000    0.8100    2.3400    2.3800    7.0000   56.8100    0.2800    8.2759    8.5000    2.7700    0.2800    2.3400    8.2759   -0.0100   83.0043   53.1900    2.7700 
2638.5000   53.6700   53.6700   39.1600   56.7500 -999.0000    2.4400 -999.0000    2.3800    0.1385    1.0000    0.3147   -0.0600    9.2600    8.6100    9.6000   10.6300   10.8300    8.5000   82.9507   53.6700    8.4428   -0.0100    7.0100    7.4600    9.1900    0.8100    0.7600    2.4400    2.3800    7.4900   56.7500    0.2800    8.2759    8.5000    2.7050    0.2800    2.4400    8.2759   -0.0100   82.9507   53.6700    2.7050 
2639.0000   52.3200   52.3200   38.4900   56.6300    0.9630    2.4800    0.1860    2.3700    0.1480    1.0000    0.3080   -0.0600    8.9800    8.1600    9.2200   10.0300   10.1400    8.5000   82.7315   52.3200    8.4428   -0.0100    7.1200    8.0500    8.5000    0.9500    0.8400    2.4800    2.3700    7.3400   56.6300    0.2900    8.2759    8.5000    2.6400    0.2900    2.4800    8.2759   -0.0100   82.7315   52.3200    2.6400 
2639.5000   52.5600   52.5600   36.6000   56.6300 -999.0000    2.4300 -999.0000    2.3600    0.1533    1.0000    0.2889   -0.0600    8.4900    7.8000    9.0600    9.9900    9.8600    8.5000   82.8990   52.5600    8.4390   -0.0100    6.7000    7.8500    5.6500    1.3900    1.1900    2.4300    2.3600    6.8100   56.6300    0.2800    8.2759    8.5000    2.6200    0.2800    2.4300    8.2759   -0.0100   82.8990   52.5600    2.6200 
2640.0000   55.9900   55.9900   37.0300   56.5600 -999.0000    2.4100 -999.0000    2.3400    0.1635    1.0000    0.2800   -0.0500    8.3600    7.7200    8.8600    9.9500    9.7000    8.5000   83.2285   55.9900    8.4505   -0.0100    6.8200    7.9500    6.2200    1.2800    1.1000    2.4100    2.3400    5.7500   56.5600    0.2800    8.2759    8.5000    2.6000    0.2800    2.4100    8.2759   -0.0100   83.2285   55.9900    2.6000 
2640.5000   56.3600   56.3600   37.9800   56.6300 -999.0000    2.5300 -999.0000    2.3300    0.1687    0.9891    0.2887   -0.0500    8.0800    7.6000    8.4900    9.3600    9.1000    8.5000   83.1027   56.3600    8.4505   -0.0100    7.0500    8.1000    6.5100    1.2500    1.0800    2.5300    2.3300    5.2000   56.6300    0.2900    8.2759    8.5000    2.6600    0.2900    2.5300    8.2759   -0.0100   83.1027   56.3600    2.6600 
2641.0000   55.8500   55.8500   37.2000   56.8100 -999.0000    2.7300 -999.0000    2.3400    0.1633    1.0000    0.2949   -0.0700    7.7900    7.4900    8.2500    9.0900    8.5900    8.5000   82.8777   55.8500    8.4275   -0.0100    6.7600    7.7300    5.1200    1.5100    1.3200    2.7300    2.3400    5.2400   56.8100    0.2900    8.2759    8.5000    2.7200    0.2900    2.7300    8.2759   -0.0100   82.8777   55.8500    2.7200 
2641.5000   53.8900   53.8900   37.7400   56.6300 -999.0000    2.9600 -999.0000    2.3400    0.1688    0.9846    0.3004   -0.0500    7.7800    7.5600    8.0300    8.6400    8.7000    8.5000   82.8169   53.8900    8.4505   -0.0200    6.9300    7.9100    4.7600    1.6600    1.4600    2.9600    2.3400    5.3800   56.6300    0.3100    8.2759    8.5000    2.7700    0.3100    2.9600    8.2759   -0.0200   82.8169   53.8900    2.7700 
2642.0000   54.3800   54.3800   38.7200   56.6300 -999.0000    3.0800 -999.0000    2.3400    0.1629    0.9976    0.3103    0.0300    7.7900    7.6800    7.9400    8.6000    8.5200    8.5000   82.7106   54.3800    8.5271   -0.0100    6.9900    7.5900    4.8100    1.5800    1.4500    3.0800    2.3400    6.0700   56.6300    0.3000    8.2759    8.5000    2.8200    0.3000    3.0800    8.2759   -0.0100   82.7106   54.3800    2.8200 
2642.5000   57.4600   57.4600   38.0800   56.5000 -999.0000    3.1700 -999.0000    2.3400    0.1644    0.9909    0.3038    0.0400    7.7300    7.7700    7.9100    8.3900    8.4400    8.5000   83.3279   57.4600    8.5425   -0.0100    6.9100    7.6900    4.5900    1.6800    1.5100    3.1700    2.3400    5.8500   56.5000    0.3000    8.2759    8.5000    2.9250    0.3000    3.1700    8.2759   -0.0100   83.3279   57.4600    2.9250 
2643.0000   58.2500   58.2500   37.9800   56.5600 -999.0000    3.1800 -999.0000    2.3400    0.1620    1.0000    0.2997    0.0400    7.5200    7.2500    7.7600    8.2300    8.2500    8.5000   83.9417   58.2500    8.5425   -0.0100    7.0600    8.1500    4.3600    1.8700    1.6200    3.1800    2.3400    6.3200   56.5600    0.2900    8.2759    8.5000    3.0300    0.2900    3.1800    8.2759   -0.0100   83.9417   58.2500    3.0300 
2643.5000   61.8200   61.8200   35.8600   56.5000 -999.0000    3.0900 -999.0000    2.3400    0.1669    1.0000    0.2814    0.0700    7.3500    6.8800    7.7400    8.1500    7.9800    8.5000   84.3056   61.8200    8.5655   -0.0100    6.4700    7.5800    3.9800    1.9000    1.6200    3.0900    2.3400    5.8000   56.5000    0.2900    8.2759    8.5000    3.1400    0.2900    3.0900    8.2759   -0.0100   84.3056   61.8200    3.1400 
2644.0000   60.9300   60.9300   36.9000   56.4400 -999.0000    2.9000 -999.0000    2.3000    0.1872    0.9606    0.2754    0.0700    7.5300    6.8300    7.2000    7.7900    7.5600    8.5000   85.3132   60.9300    8.5655    0.0000    6.7700    7.8900    4.5000    1.7500    1.5000    2.9000    2.3000    5.3900   56.4400    0.3000    8.3248    8.5000    3.2500    0.3000    2.9000    8.3248    0.0000   85.3132   60.9300    3.2500 
2644.5000   62.3500   62.3500   36.6500   56.5000 -999.0000    2.7200 -999.0000    2.2300    0.2311    0.8565    0.2181    0.0900    7.2600    6.4200    7.3100    7.7700    7.3300    8.5000   86.3023   62.3500    8.5885    0.0300    6.5200    7.3500    5.2700    1.3900    1.2400    2.7200    2.2300    3.5700   56.5000    0.3100    8.3859    8.5000    3.4000    0.3100    2.7200    8.3859    0.0300   86.3023   62.3500    3.4000 
2645.0000   61.5700   61.5700   38.2800   56.5000 -999.0000    2.6100 -999.0000    2.1300    0.2920    0.7259    0.1474    0.2000    7.4600    6.1300    7.0800    7.5400    6.9400    8.5000   87.6501   61.5700    8.7035    0.0700    6.8300    7.4000    5.9900    1.2400    1.1400    2.6100    2.1300    1.8200   56.5000    0.3300    8.5448    8.5000    3.5500    0.3300    2.6100    8.5448    0.0700   87.6501   61.5700    3.5500 
2645.5000   58.9200   58.9200   37.3500   56.5000 -999.0000    2.5500 -999.0000    2.1100    0.3027    0.6930    0.1452    0.4600    6.8200    6.3300    7.1800    8.1600    7.3700    8.5000   88.8534   58.9200    8.9565    0.1000    6.5800    7.1800    5.2600    1.3700    1.2500    2.5500    2.1100    1.3800   56.5000    0.3400    8.5448    8.5000    3.7200    0.3400    2.5500    8.5448    0.1000   88.8534   58.9200    3.7200 
2646.0000   58.1500   58.1500   39.6900   56.4400 -999.0000    2.4900 -999.0000    2.1600    0.2689    0.7437    0.2200    0.4900    6.1600    6.7000    6.1600    6.6700    6.1300    8.5000   89.3745   58.1500    8.9948    0.0900    7.1800    7.6200    5.7800    1.3200    1.2400    2.4900    2.1600    1.4200   56.4400    0.3500    8.5448    8.5000    3.8900    0.3500    2.4900    8.5448    0.0900   89.3745   58.1500    3.8900 
