~VERSION INFORMATION
 VERS.                 2.0:   CWLS LOG ASCII STANDARD - VERSION 2.0
 WRAP.                  NO:   SINGLE LINE PER DEPTH STEP
 CREA.                 9/4/2023 1:15:46 PM
#CREATED USING DSPetro VERSION 10ep.4.05.01 BY C4372838 ON 9/4/2023 1:15:46 PM
~WELL INFORMATION
#MNEM.UNIT       DATA                          DESCRIPTION MNEMONIC
#---------      ---------------------------   --------------------------
 STRT    .FT        2741.0000                 : START DEPTH
 STOP    .FT        3159.5000                 : STOP DEPTH
 STEP    .FT        0.5000                    : STEP VALUE
 NULL    .      -999.0000                     : NULL VALUE
 DATE    .      9/4/2023                      : LAS file Creation Date
 WELL   .      ABANICO-34              : Well Name
 COMP   .      PACIFIC RUBIALES ENERGY : Company
 FLD    .      ABANICO                 : Field
 STATE  .      UNKNOWN                 : State
 COUNT  .      COLOMBIA                : Country
 API    .      ABAN0034                : API Number
 UWI    .      ABAN0034                : Unique Well Identifier (UWI)
 LOC    .      N                       : Location
 EPDAT  .      1017.000                : Elevation of Permanent Datum
 GL     .      1017.000                : GL Elevation
 RWS    .      -999                    : Def_Rw
 WST    .      -999                    : Def_Rwt
 CNTY   .      TOLIMA                  : County
 PROV   .      UNKNOWN                 : Province
 SRVC   .      WEATHERFORD             : Contractor
 GDAT   .      WGS 84                  : Geodatum
 LONG   .      -74.873885111279        : Longitude
 LATI   .      4.22623405562507        : Latitude
 COORDIN.                              : Grid System
 XCOORD .      911584.313002           : X or East-West Coordinate
 YCOORD .      959134.088873           : Y or North-South Coordinate
~CURVE INFORMATION
#MNEM                 UNIT       API CODE   Curve Type Comments
#----------     --------------- ----------  ---------- -----------
 DEPTH         .FT                        : Depth       
 GRGC          .GAPI                      : GammaRay    Gamma Ray
 GRGC          .GAPI                      : GammaRay    Gamma Ray
 SP            .MV                        : SP          Spontaneous Potential
 K_CORE_2023   .                          :             
 NPRS          .V/V                       :             Sandstone Neutron Por.
 PDPE          .B/E                       : PEF         PE
 POR_CORE_2023 .                          :             
 R85O          .OHMM                      :             Array Ind One Res 85
 R60O          .OHMM                      :             Array Ind One Res 60
 R40O          .OHMM                      :             Array Ind One Res 40
 R30O          .OHMM                      :             Array Ind One Res 30
 R20O          .OHMM                      :             Array Ind One Res 20
 DT46          .US/F                      : Sonic       4-6' Compensated Sonic
 DEN           .G/C3                      : Density     Compensated Density
 PHIE          .Dec                       : Phi         
 SWT           .Dec                       : Sw          
 VCLmix        .Dec                       : Vcl         
 BS            .inches                    : BitSize     Bit size
 DTCO          .US/F                      : Sonic       4-6' Compensated Sonic
 GR            .GAPI                      : GammaRay    Gamma Ray
 HDRA          .G/C3                      : Drho        Density Correction
 PEFZ          .B/E                       : PEF         PE
 RHOZ          .G/C3                      : Density     Compensated Density
 SP            .MV                        : SP          Spontaneous Potential
 TNPH          .V/V                       : Neutron     Neutron Posrosity
 BS            .inches                    : BitSize     Bit size
 NPHI          .V/V                       : Neutron     Neutron Posrosity
 PEF           .B/E                       : PEF         PE
 DRHO          .G/C3                      : Drho        Density Correction
 DT            .US/F                      : Sonic       4-6' Compensated Sonic
 GR            .GAPI                      : GammaRay    Gamma Ray
~A  DEPTH    GRGC      GRGC       SP    K_CORE_2~    NPRS      PDPE   POR_CORE~    R85O      R60O      R40O      R30O      R20O      DT46      DEN       PHIE      SWT      VCLmix      BS       DTCO       GR       HDRA      PEFZ      RHOZ       SP       TNPH       BS       NPHI      PEF       DRHO       DT        GR    
# ...
2766.0000   31.1000   31.1000    4.3990 -999.0000    0.2310    2.3430 -999.0000    7.6890 -999.0000    8.3500    9.1750   10.6570   94.9390    2.3750    0.1813    0.9328    0.0842    8.5000   94.9390   31.1000    0.1340    2.3430    2.3750    4.3990    0.2310    8.5000    0.2310    2.3430    0.1340   94.9390   31.1000 
2766.5000   31.8630   31.8630    5.1680 -999.0000    0.2280    2.3490 -999.0000    7.4820 -999.0000    8.1160    8.9060   10.3160   96.8580    2.3800    0.1764    0.9604    0.0906    8.5000   96.8580   31.8630    0.1410    2.3490    2.3800    5.1680    0.2280    8.5000    0.2280    2.3490    0.1410   96.8580   31.8630 
2767.0000   32.8570   32.8570    5.8040 -999.0000    0.2210    2.3850 -999.0000    6.8990 -999.0000    7.4720    8.1850    9.4510   94.4720    2.3900    0.1677    1.0000    0.0989    8.5000   94.4720   32.8570    0.1410    2.3850    2.3900    5.8040    0.2210    8.5000    0.2210    2.3850    0.1410   94.4720   32.8570 
2767.5000   33.6100   33.6100    6.1500 -999.0000    0.2180    2.4330 -999.0000    7.6050 -999.0000    8.2130    8.9940   10.3600   88.8190    2.3930    0.1635    0.9917    0.1052    8.5000   88.8190   33.6100    0.1310    2.4330    2.3930    6.1500    0.2180    8.5000    0.2180    2.4330    0.1310   88.8190   33.6100 
2768.0000   34.3400   34.3400    6.1230 -999.0000    0.2210    2.4710 -999.0000    7.9580 -999.0000    8.5790    9.3740   10.7590   84.1230    2.3960    0.1613    0.9657    0.1113    8.5000   84.1230   34.3400    0.1180    2.4710    2.3960    6.1230    0.2210    8.5000    0.2210    2.4710    0.1180   84.1230   34.3400 
2768.5000   36.4250   36.4250    5.9960 -999.0000    0.2240    2.5160 -999.0000    8.1410 -999.0000    8.7520    9.5520   10.9330   83.3640    2.4000    0.1553    0.9509    0.1286    8.5000   83.3640   36.4250    0.1080    2.5160    2.4000    5.9960    0.2240    8.5000    0.2240    2.5160    0.1080   83.3640   36.4250 
2769.0000   38.1150   38.1150    5.8410 -999.0000    0.2240    2.5290 -999.0000    8.2980 -999.0000    8.9000    9.7020   11.0760   86.2420    2.3980    0.1514    0.9323    0.1427    8.5000   86.2420   38.1150    0.1050    2.5290    2.3980    5.8410    0.2240    8.5000    0.2240    2.5290    0.1050   86.2420   38.1150 
2769.5000   37.1880   37.1880    5.8970 -999.0000    0.2260    2.4760 -999.0000    7.9720 -999.0000    8.5340    9.2880   10.5720   91.2410    2.3920    0.1570    0.9424    0.1350    8.5000   91.2410   37.1880    0.1140    2.4760    2.3920    5.8970    0.2260    8.5000    0.2260    2.4760    0.1140   91.2410   37.1880 
2770.0000   33.0460   33.0460    5.9470 -999.0000    0.2280    2.4150 -999.0000    8.4640 -999.0000    9.0440    9.8390   11.1830   95.5820    2.3750    0.1747    0.8862    0.1005    8.5000   95.5820   33.0460    0.1230    2.4150    2.3750    5.9470    0.2280    8.5000    0.2280    2.4150    0.1230   95.5820   33.0460 
2770.5000   28.3130   28.3130    5.9480 -999.0000    0.2290    2.4160 -999.0000    8.0570 -999.0000    8.6030    9.3460   10.6040  100.4510    2.3560    0.1947    0.8849    0.0610    8.5000  100.4510   28.3130    0.1260    2.4160    2.3560    5.9480    0.2290    8.5000    0.2290    2.4160    0.1260  100.4510   28.3130 
2771.0000   27.5010   27.5010    5.4930 -999.0000    0.2270    2.4530 -999.0000    8.3160 -999.0000    8.8700    9.6330   10.9170  108.6610    2.3530    0.1972    0.8693    0.0542    8.5000  108.6610   27.5010    0.1260    2.4530    2.3530    5.4930    0.2270    8.5000    0.2270    2.4530    0.1260  108.6610   27.5010 
2771.5000   29.2190   29.2190    4.8520 -999.0000    0.2270    2.4470 -999.0000    8.6340 -999.0000    9.2070    9.9970   11.3250  117.5160    2.3490    0.1940    0.8430    0.0685    8.5000  117.5160   29.2190    0.1270    2.4470    2.3490    4.8520    0.2270    8.5000    0.2270    2.4470    0.1270  117.5160   29.2190 
2772.0000   31.6290   31.6290    4.2660 -999.0000    0.2300    2.3990 -999.0000    7.5520 -999.0000    8.0530    8.7340    9.8840  123.7580    2.3140    0.2023    0.8441    0.0886    8.5000  123.7580   31.6290    0.1300    2.3990    2.3140    4.2660    0.2300    8.5000    0.2300    2.3990    0.1300  123.7580   31.6290 
2772.5000   33.8780   33.8780    3.8770 -999.0000    0.2350    2.3770 -999.0000    6.5960 -999.0000    7.0330    7.6280    8.6310  123.2630    2.2710    0.2153    0.8352    0.1074    8.5000  123.2630   33.8780    0.1400    2.3770    2.2710    3.8770    0.2350    8.5000    0.2350    2.3770    0.1400  123.2630   33.8780 
2773.0000   35.6510   35.6510    3.7180 -999.0000    0.2360    2.4320 -999.0000    6.1480 -999.0000    6.5570    7.1060    8.0360  120.4310    2.2570    0.2224    0.8467    0.1042    8.5000  120.4310   35.6510    0.1490    2.4320    2.2570    3.7180    0.2360    8.5000    0.2360    2.4320    0.1490  120.4310   35.6510 
2773.5000   39.1960   39.1960    3.3720 -999.0000    0.2310    2.5020 -999.0000    7.3510 -999.0000    7.8390    8.4890    9.5930  121.7370    2.2830    0.2041    0.8050    0.1234    8.5000  121.7370   39.1960    0.1610    2.5020    2.2830    3.3720    0.2310    8.5000    0.2310    2.5020    0.1610  121.7370   39.1960 
2774.0000   42.8070   42.8070    3.1050 -999.0000    0.2260    2.5120 -999.0000    7.7690 -999.0000    8.2840    8.9690   10.1320  128.8010    2.3250    0.1742    0.8378    0.1607    8.5000  128.8010   42.8070    0.1730    2.5120    2.3250    3.1050    0.2260    8.5000    0.2260    2.5120    0.1730  128.8010   42.8070 
2774.5000   43.7500   43.7500    2.4680 -999.0000    0.2230    2.5010 -999.0000    6.9730 -999.0000    7.4340    8.0380    9.0680  138.7830    2.3450    0.1605    0.9289    0.1773    8.5000  138.7830   43.7500    0.1770    2.5010    2.3450    2.4680    0.2230    8.5000    0.2230    2.5010    0.1770  138.7830   43.7500 
2775.0000   41.4220   41.4220    1.9740 -999.0000    0.2240    2.5080 -999.0000    7.6750 -999.0000    8.1790    8.8400    9.9670  148.3050    2.3460    0.1624    0.8778    0.1703    8.5000  148.3050   41.4220    0.1670    2.5080    2.3460    1.9740    0.2240    8.5000    0.2240    2.5080    0.1670  148.3050   41.4220 
2775.5000   37.5740   37.5740    1.3320 -999.0000    0.2270    2.5330 -999.0000    7.4670 -999.0000    7.9580    8.5910    9.6730  154.2600    2.3480    0.1730    0.8983    0.1382    8.5000  154.2600   37.5740    0.1480    2.5330    2.3480    1.3320    0.2270    8.5000    0.2270    2.5330    0.1480  154.2600   37.5740 
2776.0000   34.0790   34.0790    1.0300 -999.0000    0.2300    2.5570 -999.0000    6.9340 -999.0000    7.3860    7.9650    8.9530  155.6870    2.3530    0.1815    0.9456    0.1091    8.5000  155.6870   34.0790    0.1350    2.5570    2.3530    1.0300    0.2300    8.5000    0.2300    2.5570    0.1350  155.6870   34.0790 
2776.5000   31.1230   31.1230    1.1090 -999.0000    0.2340    2.5190 -999.0000    6.5760 -999.0000    7.0040    7.5470    8.4720  153.4480    2.3650    0.1864    0.9910    0.0844    8.5000  153.4480   31.1230    0.1390    2.5190    2.3650    1.1090    0.2340    8.5000    0.2340    2.5190    0.1390  153.4480   31.1230 
2777.0000   27.6130   27.6130    1.3110 -999.0000    0.2390    2.4520 -999.0000    6.1590 -999.0000    6.5590    7.0560    7.9040  145.7400    2.3750    0.2002    1.0000    0.0552    8.5000  145.7400   27.6130    0.1480    2.4520    2.3750    1.3110    0.2390    8.5000    0.2390    2.4520    0.1480  145.7400   27.6130 
2777.5000   25.2120   25.2120    1.5760 -999.0000    0.2450    2.3970 -999.0000    5.8940 -999.0000    6.2750    6.7420    7.5370  135.3720    2.3710    0.2136    0.9947    0.0351    8.5000  135.3720   25.2120    0.1440    2.3970    2.3710    1.5760    0.2450    8.5000    0.2450    2.3970    0.1440  135.3720   25.2120 
2778.0000   27.2790   27.2790    1.7550 -999.0000    0.2510    2.3730 -999.0000    6.2530 -999.0000    6.6570    7.1420    7.9680  122.2120    2.3650    0.2109    0.9514    0.0524    8.5000  122.2120   27.2790    0.1340    2.3730    2.3650    1.7550    0.2510    8.5000    0.2510    2.3730    0.1340  122.2120   27.2790 
