~VERSION INFORMATION
 VERS.                 2.0:   CWLS LOG ASCII STANDARD - VERSION 2.0
 WRAP.                  NO:   SINGLE LINE PER DEPTH STEP
 CREA.                 9/4/2023 1:15:45 PM
#CREATED USING DSPetro VERSION 10ep.4.05.01 BY C4372838 ON 9/4/2023 1:15:45 PM
~WELL INFORMATION
#MNEM.UNIT       DATA                          DESCRIPTION MNEMONIC
#---------      ---------------------------   --------------------------
 STRT    .FT        2599.0000                 : START DEPTH
 STOP    .FT        3150.0000                 : STOP DEPTH
 STEP    .FT        0.5000                    : STEP VALUE
 NULL    .      -999.0000                     : NULL VALUE
 DATE    .      9/4/2023                      : LAS file Creation Date
 WELL   .      ABANICO-19                   : Well Name
 COMP   .      Kappa Resources Colombia,Ltd : Company
 FLD    .      UNKNOWN                      : Field
 STATE  .      UNKNOWN                      : State
 COUNT  .      Colombia                     : Country
 UWI    .      ABAN0019                     : Unique Well Identifier (UWI)
 LOC    .      UNKNOWN                      : Location
 PDAT   .      GROUND LEVEL                 : Permanent Datum
 EPDAT  .      1039.000000                  : Elevation of Permanent Datum
 LGMEA  .      DRILL FLOOR                  : Log Measured from
 APDAT  .      12.000000                    : Elevation Above Permanent Datum
 KB     .      1052.00000                   : KB Elevation
 DF     .      1051.00000                   : DF Elevation
 RWS    .      -999                         : Def_Rw
 WST    .      -999                         : Def_Rwt
 CNTY   .      UNKNOWN                      : County
 PROV   .      TOLIMA                       : Province
 SRVC   .      UNKNOWN                      : Contractor
 GDAT   .      WGS 84                       : Geodatum
 LONG   .      0.252833333280351            : Longitude
 LATI   .      0.26609722243415             : Latitude
 COORDIN.                                   : Grid System
 XCOORD .      910201.721945                : X or East-West Coordinate
 YCOORD .      958010.866493                : Y or North-South Coordinate
~CURVE INFORMATION
#MNEM                 UNIT       API CODE   Curve Type Comments
#----------     --------------- ----------  ---------- -----------
 DEPTH         .FT                        : Depth       
 GRGC          .API                       : GammaRay    GR:UNKNOWN:r1:0001:v1
 GRGC          .API                       : GammaRay    GR:UNKNOWN:r1:0001:v1
 HCGR          .GAPI                      :             HNGS Computed Gamma Ray {F13.2}
 SP            .MV                        : SP          Spontaneous Potential {F13.2}
 K_CORE_2023   .                          :             
 PDPE          .B/E                       : PEF         PEFZ:UNKNOWN:rC:NONE:v0 (auto-composite)
 POR_CORE_2023 .                          :             
 DEN           .g/cm3                     : Density     RHOZ:UNKNOWN:rC:NONE:v0 (auto-composite)
 PHIE          .Dec                       : Phi         
 SWT           .Dec                       : Sw          
 VCLmix        .Dec                       : Vcl         
 DCAL          .IN                        :             Differential Caliper {F13.2}
 AHT20         .OHMM                      : MedRes      Array Induction Two Foot Resistivity A20 {F13.2}
 AHT10         .OHMM                      : ShalRes     Array Induction Two Foot Resistivity A10 {F13.2}
 AHT30         .OHMM                      : MedRes      Array Induction Two Foot Resistivity A30 {F13.2}
 AHT60         .ohm.m                     : MedRes      AHT60:UNKNOWN:rC:NONE:v0 (auto-composite)
 AHT90         .ohm.m                     : DeepRes     AHT90:UNKNOWN:rC:NONE:v0 (auto-composite)
 BS            .IN                        : BitSize     Bit Size {F13.2}
 DTCO          .us/ft                     : Sonic       DTCO:UNKNOWN:rC:NONE:v0 (auto-composite)
 GR            .API                       : GammaRay    GR:UNKNOWN:rC:NONE:v0 (auto-composite)
 HCAL          .inch                      : Caliper     HCAL:UNKNOWN:rC:NONE:v0 (auto-composite)
 HDRA          .G/C3                      : Drho        HRDD Density Correction {F13.2}
 HTHO          .PPM                       :             HNGS Formation Thorium Concentration {F13.2}
 HTPR          .                          :             HNGS Thorium/Potassium Ratio {F13.2}
 HTUR          .                          :             HNGS Thorium/Uranium Ratio {F13.2}
 HUPR          .                          :             HNGS Uranium/Potassium Ratio {F13.2}
 HURA          .PPM                       :             HNGS Formation Uranium Concentration {F13.2}
 PEFZ          .B/E                       : PEF         PEFZ:UNKNOWN:rC:NONE:v0 (auto-composite)
 RHOZ          .g/cm3                     : Density     RHOZ:UNKNOWN:rC:NONE:v0 (auto-composite)
 RXOZ          .OHMM                      : MicroRes    MCFL Standard Resolution Invaded Zone Resistivity {F13.2}
 SP            .MV                        : SP          Spontaneous Potential {F13.2}
 TNPH          .dec                       : Neutron     TNPH:UNKNOWN:rC:NONE:v0 (auto-composite)
 CALI          .inch                      : Caliper     C1:UNKNOWN:rC:NONE:v0 (auto-composite)
 BS            .IN                        : BitSize     Bit Size {F13.2}
 HDRS          .ohm.m                     : DeepRes     Lateralog Deep Resistivity, ohmm
 NPHI          .dec                       : Neutron     TNPH:UNKNOWN:rC:NONE:v0 (auto-composite)
 PEF           .B/E                       : PEF         PEFZ:UNKNOWN:rC:NONE:v0 (auto-composite)
 CALI          .inch                      : Caliper     C1:UNKNOWN:rC:NONE:v0 (auto-composite)
 DRHO          .G/C3                      : Drho        HRDD Density Correction {F13.2}
 DT            .us/ft                     : Sonic       DTCO:UNKNOWN:rC:NONE:v0 (auto-composite)
 GR            .API                       : GammaRay    GR:UNKNOWN:r1:0001:v1
 HDRS          .ohm.m                     : DeepRes     Lateralog Deep Resistivity, ohmm
~A  DEPTH    GRGC      GRGC      HCGR       SP    K_CORE_2~    PDPE   POR_CORE~    DEN       PHIE      SWT      VCLmix     DCAL     AHT20     AHT10     AHT30     AHT60     AHT90       BS       DTCO       GR       HCAL      HDRA      HTHO      HTPR      HTUR      HUPR      HURA      PEFZ      RHOZ      RXOZ       SP       TNPH      CALI       BS       HDRS      NPHI      PEF       CALI      DRHO       DT        GR       HDRS   
# ...
2808.0000  163.4000  163.4000   40.0000   48.9400 -999.0000    1.9600 -999.0000    2.2500    0.2340    0.5051    0.1293   -0.1200   36.8800   24.3200   47.0400   78.2800   75.7600    8.5000   95.9888  163.4000    8.3815   -0.0100    6.9100    6.8700    0.5800   11.7500   11.8100    1.9600    2.2500   11.1400   48.9400    0.2900    8.4226    8.5000    1.9900    0.2900    1.9600    8.4226   -0.0100   95.9888  163.4000    1.9900 
2808.5000  159.4600  159.4600   39.9400   49.1900 -999.0000    1.9800 -999.0000    2.2400    0.2423    0.5013    0.1099   -0.1000   35.6600   22.2100   42.8500   77.7000   79.7300    8.5000   97.5316  159.4600    8.3968   -0.0100    7.0100    7.1300    0.6000   11.9400   11.7400    1.9800    2.2400   10.0300   49.1900    0.2900    8.4348    8.5000    1.9250    0.2900    1.9800    8.4348   -0.0100   97.5316  159.4600    1.9250 
2809.0000  149.9200  149.9200   40.1600   49.5600 -999.0000    2.0100 -999.0000    2.2600    0.2240    0.5749    0.1766   -0.1600   31.4400   20.1000   39.4500   72.4000   77.1400    8.5000   98.4270  149.9200    8.3355   -0.0100    7.1500    7.3600    0.6300   11.6600   11.3400    2.0100    2.2600    8.6700   49.5600    0.3000    8.4226    8.5000    1.8600    0.3000    2.0100    8.4226   -0.0100   98.4270  149.9200    1.8600 
2809.5000  146.7200  146.7200   38.9700   49.6300 -999.0000    2.0700 -999.0000    2.2600    0.2245    0.5915    0.1766   -0.1800   29.2000   18.4700   34.3700   65.0500   73.2200    8.5000   99.1218  146.7200    8.3201   -0.0100    7.2800    8.2100    0.7000   11.7500   10.4100    2.0700    2.2600    6.8600   49.6300    0.3000    8.3737    8.5000    1.9200    0.3000    2.0700    8.3737   -0.0100   99.1218  146.7200    1.9200 
2810.0000  138.1000  138.1000   34.8900   49.6300   68.2360    2.0700    0.2481    2.2300    0.2479    0.6351    0.1688   -0.1500   25.4700   16.7100   29.7500   57.5800   62.7400    8.5000  100.1116  138.1000    8.3508   -0.0100    6.1800    7.2600    0.6600   11.0400    9.3900    2.0700    2.2300    5.6400   49.6300    0.3100    8.3737    8.5000    1.9800    0.3100    2.0700    8.3737   -0.0100  100.1116  138.1000    1.9800 
2810.5000  130.4800  130.4800   30.9400   49.5600 -999.0000    2.0300 -999.0000    2.2000    0.2666    0.6249    0.1315   -0.1800   28.0600   17.8800   33.5500   60.4300   72.9600    8.5000  100.9594  130.4800    8.3201   -0.0100    5.0500    6.1100    0.5900   10.2800    8.5100    2.0300    2.2000    5.1200   49.5600    0.3100    8.3737    8.5000    2.0400    0.3100    2.0300    8.3737   -0.0100  100.9594  130.4800    2.0400 
2811.0000  117.8900  117.8900   31.4600   49.6300  701.0000    2.0100    0.2992    2.1800    0.2760    0.6008    0.1364   -0.1500   30.0100   17.8400   34.4100   59.4100   74.9300    8.5000  101.0520  117.8900    8.3508   -0.0200    4.9700    5.7300    0.7000    8.1900    7.1100    2.0100    2.1800    5.2000   49.6300    0.3200    8.3737    8.5000    2.1000    0.3200    2.0100    8.3737   -0.0200  101.0520  117.8900    2.1000 
2811.5000  103.4800  103.4800   30.7200   49.9400 -999.0000    2.0400 -999.0000    2.2000    0.2671    0.6314    0.1294   -0.1600   30.3900   17.7200   35.3800   59.0200   74.0100    8.5000  101.0388  103.4800    8.3355   -0.0200    4.7000    5.3800    0.7200    7.4800    6.5500    2.0400    2.2000    5.6600   49.9400    0.3100    8.3737    8.5000    2.0450    0.3100    2.0400    8.3737   -0.0200  101.0388  103.4800    2.0450 
2812.0000   98.8400   98.8400   32.2900   50.1900 -999.0000    2.1200 -999.0000    2.2200    0.2558    0.6102    0.1442   -0.1800   30.9100   18.4100   36.0400   57.1500   71.1600    8.5000  100.8947   98.8400    8.3201   -0.0200    5.1100    5.7300    0.7900    7.2200    6.4400    2.1200    2.2200    5.7000   50.1900    0.3100    8.3737    8.5000    1.9900    0.3100    2.1200    8.3737   -0.0200  100.8947   98.8400    1.9900 
2812.5000   97.0300   97.0300   29.1600   50.1900 -999.0000    2.1900 -999.0000    2.2400    0.2556    0.6688    0.1147   -0.1700   29.0300   18.1100   32.9700   50.8100   59.1400    8.5000  103.0682   97.0300    8.3278   -0.0100    4.4600    5.3600    0.7100    7.5500    6.2800    2.1900    2.2400    5.9500   50.1900    0.3100    8.3737    8.5000    1.7150    0.3100    2.1900    8.3737   -0.0100  103.0682   97.0300    1.7150 
2813.0000   93.5300   93.5300   29.6400   50.3100 -999.0000    2.1900 -999.0000    2.2300    0.2618    0.6721    0.1192   -0.2300   27.5100   17.2300   30.7800   45.6400   47.9800    8.5000  102.3098   93.5300    8.2665   -0.0100    4.4600    5.2000    0.7400    7.0800    6.0700    2.1900    2.2300    6.0000   50.3100    0.3200    8.3737    8.5000    1.4400    0.3200    2.1900    8.3737   -0.0100  102.3098   93.5300    1.4400 
2813.5000   88.6100   88.6100   26.9400   50.3800  334.6900    2.0800    0.2834    2.2200    0.2759    0.6818    0.0938   -0.2100   26.4900   17.2500   31.4700   42.7700   40.1600    8.5000  101.6707   88.6100    8.2895   -0.0100    4.3500    5.9700    0.7200    8.2600    6.0200    2.0800    2.2200    7.4600   50.3800    0.3300    8.3737    8.5000    1.2150    0.3300    2.0800    8.3737   -0.0100  101.6707   88.6100    1.2150 
2814.0000   89.5900   89.5900   30.2700   50.6300 -999.0000    1.9900 -999.0000    2.2200    0.2683    0.6949    0.1252   -0.1900   23.0900   15.6700   27.4000   35.5800   32.8800    8.5000  101.3957   89.5900    8.3125   -0.0100    4.6800    5.4700    0.7400    7.3700    6.3000    1.9900    2.2200    8.6100   50.6300    0.3300    8.3737    8.5000    0.9900    0.3300    1.9900    8.3737   -0.0100  101.3957   89.5900    0.9900 
2814.5000   97.9800   97.9800   30.1800   50.5000  243.6400    1.9700    0.2701    2.2200    0.2708    0.7727    0.1243   -0.1500   18.1700   13.2800   21.0700   26.8500   24.1700    8.5000  101.9377   97.9800    8.3470   -0.0100    4.7600    5.6900    0.7000    8.1500    6.8100    1.9700    2.2200    6.5700   50.5000    0.3300    8.3737    8.5000    0.9550    0.3300    1.9700    8.3737   -0.0100  101.9377   97.9800    0.9550 
2815.0000  101.4200  101.4200   31.8800   50.3100 -999.0000    2.0000 -999.0000    2.2100    0.2712    0.7597    0.1404   -0.1600   17.1700   12.9900   20.3900   24.7900   22.1100    8.5000  102.0499  101.4200    8.3355   -0.0100    4.8700    5.3400    0.7300    7.2800    6.6300    2.0000    2.2100    5.8000   50.3100    0.3300    8.3737    8.5000    0.9200    0.3300    2.0000    8.3737   -0.0100  102.0499  101.4200    0.9200 
2815.5000  100.4100  100.4100   29.9800   50.5600  666.0000    2.0200    0.2986    2.2200    0.2785    0.7198    0.1225   -0.1300   18.9400   14.3500   23.7600   27.9400   23.1900    8.5000  102.1252  100.4100    8.3700   -0.0100    4.6200    5.4500    0.6800    8.0500    6.8300    2.0200    2.2200    6.6800   50.5600    0.3500    8.3737    8.5000    1.0250    0.3500    2.0200    8.3737   -0.0100  102.1252  100.4100    1.0250 
2816.0000  102.9100  102.9100   29.7500   50.7500  171.0000    2.0300    0.2780    2.2400    0.2595    0.7307    0.1203   -0.1200   21.2600   15.4100   27.5500   32.8900   24.9600    8.5000  102.3217  102.9100    8.3815   -0.0100    4.9000    6.2100    0.6400    9.6800    7.6400    2.0300    2.2400   10.2100   50.7500    0.3200    8.3737    8.5000    1.1300    0.3200    2.0300    8.3737   -0.0100  102.3217  102.9100    1.1300 
2816.5000  116.7700  116.7700   31.9900   51.2500 -999.0000    2.0900 -999.0000    2.2800    0.2360    0.7124    0.1414   -0.1200   24.2200   16.5900   31.4400   37.7700   27.1800    8.5000  100.9267  116.7700    8.3815   -0.0100    5.4400    6.6400    0.6100   10.9100    8.9300    2.0900    2.2800   11.3600   51.2500    0.3100    8.3981    8.5000    1.4050    0.3100    2.0900    8.3981   -0.0100  100.9267  116.7700    1.4050 
2817.0000  145.2500  145.2500   40.3900   51.3800 -999.0000    2.1800 -999.0000    2.3100    0.2040    0.6692    0.2207   -0.1200   23.2900   15.7600   32.9400   41.1200   27.9300    8.5000   99.2198  145.2500    8.3815   -0.0100    6.7400    6.3900    0.6000   10.6300   11.2100    2.1800    2.3100    8.7300   51.3800    0.3000    8.3737    8.5000    1.6800    0.3000    2.1800    8.3737   -0.0100   99.2198  145.2500    1.6800 
