~VERSION INFORMATION
 VERS.                 2.0:   CWLS LOG ASCII STANDARD - VERSION 2.0
 WRAP.                  NO:   SINGLE LINE PER DEPTH STEP
 CREA.                 9/4/2023 1:15:44 PM
#CREATED USING DSPetro VERSION 10ep.4.05.01 BY C4372838 ON 9/4/2023 1:15:44 PM
~WELL INFORMATION
#MNEM.UNIT       DATA                          DESCRIPTION MNEMONIC
#---------      ---------------------------   --------------------------
 STRT    .FT        2533.0000                 : START DEPTH
 STOP    .FT        3150.0000                 : STOP DEPTH
 STEP    .FT        0.5000                    : STEP VALUE
 NULL    .      -999.0000                     : NULL VALUE
 DATE    .      9/4/2023                      : LAS file Creation Date
 WELL   .      ABANICO-2                    : Well Name
 COMP   .      Kappa Resources Colombia,Ltd : Company
 FLD    .      UNKNOWN                      : Field
 STATE  .      UNKNOWN                      : State
 COUNT  .      Colombia                     : Country
 UWI    .      ABAN0002                     : Unique Well Identifier (UWI)
 LOC    .      UNKNOWN                      : Location
 RWS    .      -999                         : Def_Rw
 WST    .      -999                         : Def_Rwt
 CNTY   .      UNKNOWN                      : County
 PROV   .                                   : Province
 SRVC   .      UNKNOWN                      : Contractor
 GDAT   .      WGS 84                       : Geodatum
 LONG   .      0                            : Longitude
 LATI   .      0                            : Latitude
 COORDIN.                                   : Grid System
 XCOORD .      910597.860948                : X or East-West Coordinate
 YCOORD .      957980.305104                : Y or North-South Coordinate
~CURVE INFORMATION
#MNEM                 UNIT       API CODE   Curve Type Comments
#----------     --------------- ----------  ---------- -----------
 DEPTH         .FT                        : Depth       
 GRGC          .API                       : GammaRay    GR:UNKNOWN:r1:MAIN:v1
 GRGC          .API                       : GammaRay    GR:UNKNOWN:r1:MAIN:v1
 SP            .mV                        : SP          SP:UNKNOWN:r1:MAIN:v1
 K_CORE_2023   .                          :             
 PDPE          .b/elec                    : PEF         PEF:UNKNOWN:r1:MAIN:v1
 POR_CORE_2023 .                          :             
 DEN           .g/cm3                     : Density     RHOB:PETROPHYSIC:rC:NONE:v0 (auto-composite)
 PHIE          .Dec                       : Phi         
 SWT           .Dec                       : Sw          
 VCLmix        .Dec                       : Vcl         
 AHT60         .ohm.m                     : DeepRes     HDRS:UNKNOWN:r1:MAIN:v1
 BS            .inches                    : BitSize     BS:UNKNOWN:r1:MAIN:v1
 DTCO          .uSec/ft                   : Sonic       DT:UNKNOWN:rC:NONE:v0 (auto-composite)
 GR            .API                       : GammaRay    GR:PETROPHYSIC:rC:NONE:v0 (auto-composite)
 HDRA          .g/cm3                     : Drho        DRHO:UNKNOWN:r1:MAIN:v1
 PEFZ          .b/elec                    : PEF         PEF:UNKNOWN:r1:MAIN:v1
 RHOZ          .g/cm3                     : Density     RHOB:PETROPHYSIC:rC:NONE:v0 (auto-composite)
 RXOZ          .ohm.m                     : MicroRes    MSFL:UNKNOWN:r1:MAIN:v1
 SP            .mV                        : SP          SP:UNKNOWN:r1:MAIN:v1
 TNPH          .v/v_decimal               : Neutron     NPHI:UNKNOWN:r1:MAIN:v1
 CALI          .inches                    : Caliper     CALI:PETROPHYSIC:rC:NONE:v0 (auto-composite)
 BS            .inches                    : BitSize     BS:UNKNOWN:r1:MAIN:v1
 HDRS          .ohm.m                     : DeepRes     HDRS:PETROPHYSIC:rC:NONE:v0 (auto-composite)
 HMRS          .ohm.m                     :             HMRS:PETROPHYSIC:rC:NONE:v0 (auto-composite)
 NPHI          .v/v_decimal               : Neutron     NPHI:UNKNOWN:r1:MAIN:v1
 PEF           .b/elec                    : PEF         PEF:UNKNOWN:r1:MAIN:v1
 CALI          .inches                    : Caliper     CALI:UNKNOWN:r1:MAIN:v1
 DRHO          .g/cm3                     : Drho        DRHO:UNKNOWN:r1:MAIN:v1
 DT            .us/ft                     : Sonic       DT:UNKNOWN:r1:MAIN:v1
 GR            .API                       : GammaRay    GR:UNKNOWN:r1:MAIN:v1
 HDRS          .ohm.m                     : DeepRes     HDRS:UNKNOWN:r1:MAIN:v1
 HMRS          .UNKNOWN                   :             HMRS:UNKNOWN:r1:MAIN:v1
~A  DEPTH    GRGC      GRGC       SP    K_CORE_2~    PDPE   POR_CORE~    DEN       PHIE      SWT      VCLmix    AHT60       BS       DTCO       GR       HDRA      PEFZ      RHOZ      RXOZ       SP       TNPH      CALI       BS       HDRS      HMRS      NPHI      PEF       CALI      DRHO       DT        GR       HDRS      HMRS   
# ...
2595.5000   92.2103   92.2103  -48.8067    0.5200    1.8806    0.2520    2.1741    0.2519    0.8638    0.2177    4.2360    8.5000  100.3523   77.0800    0.0304    1.8806    2.1741   32.8676  -48.8067    0.3414 -999.0000    8.5000    4.2360    3.9676    0.3414    1.8806   10.0837    0.0304  101.7359   92.2103    4.2360    3.9676 
2596.0000  102.7242  102.7242  -47.9533 -999.0000    1.8825 -999.0000    2.1857    0.2448    0.8923    0.2330    4.0581    8.5000   97.5805   84.0831    0.0374    1.8825    2.1857   25.7957  -47.9533    0.3427 -999.0000    8.5000    4.0581    3.8565    0.3427    1.8825   10.0924    0.0374   98.8375  102.7242    4.0581    3.8565 
2596.5000  113.6527  113.6527  -47.1133    2.3900    1.8857    0.2760    2.1930    0.2372    0.9175    0.2480    3.9370    8.5000  100.5437   83.0787    0.0383    1.8857    2.1930   23.9168  -47.1133    0.3406 -999.0000    8.5000    3.9370    3.8042    0.3406    1.8857   10.0973    0.0383   99.8203  113.6527    3.9370    3.8042 
2597.0000  125.4197  125.4197  -46.2600 -999.0000    1.8935 -999.0000    2.1997    0.2258    0.9287    0.2632    4.0676    8.5000   98.9337   78.7570    0.0343    1.8935    2.1997   21.9947  -46.2600    0.3271 -999.0000    8.5000    4.0676    3.9853    0.3271    1.8935   10.1028    0.0343  101.4719  125.4197    4.0676    3.9853 
2597.5000  131.5197  131.5197  -45.3933 -999.0000    1.9045 -999.0000    2.2126    0.2125    0.9214    0.2676    4.5430    8.5000   95.3564   73.7627    0.0296    1.9045    2.2126   21.7748  -45.3933    0.3039 -999.0000    8.5000    4.5430    4.4540    0.3039    1.9045   10.1126    0.0296   99.0344  131.5197    4.5430    4.4540 
2598.0000  125.8528  125.8528  -45.1533    1.1200    1.9118    0.3160    2.2271    0.2128    0.8910    0.2240    5.2515    8.5000   89.8401   62.5762    0.0256    1.9118    2.2271   21.9455  -45.1533    0.2845 -999.0000    8.5000    5.2515    5.0785    0.2845    1.9118   10.1055    0.0256   93.6266  125.8528    5.2515    5.0785 
2598.5000  114.8506  114.8506  -44.9933 -999.0000    1.9157 -999.0000    2.2355    0.2157    0.8421    0.2048    5.9673    8.5000   87.0777   57.6464    0.0277    1.9157    2.2355   22.5019  -44.9933    0.2915 -999.0000    8.5000    5.9673    5.6882    0.2915    1.9157   10.1252    0.0277   87.4484  114.8506    5.9673    5.6882 
2599.0000  115.1731  115.1731  -45.0333 -999.0000    1.9223 -999.0000    2.2372    0.2219    0.7812    0.2152    6.5371    8.5000   88.6743   60.3095    0.0352    1.9223    2.2372   22.6176  -45.0333    0.3175 -999.0000    8.5000    6.5371    6.2207    0.3175    1.9223   10.1569    0.0352   85.7203  115.1731    6.5371    6.2207 
2599.5000  114.4912  114.4912  -44.6733    0.6800    1.9487    0.2990    2.2403    0.2186    0.7745    0.2168    6.8020    8.5000   91.9480   60.7241    0.0498    1.9487    2.2403   20.1511  -44.6733    0.3142 -999.0000    8.5000    6.8020    6.5019    0.3142    1.9487   10.1694    0.0498   89.2844  114.4912    6.8020    6.5019 
2600.0000  118.3060  118.3060  -44.8000 -999.0000    1.9934 -999.0000    2.2492    0.2154    0.7920    0.2175    6.6485    8.5000   95.3291   60.9084    0.0673    1.9934    2.2492   19.6343  -44.8000    0.3120 -999.0000    8.5000    6.6485    6.3286    0.3120    1.9934   10.1662    0.0673   93.2188  118.3060    6.6485    6.3286 
2600.5000  129.1884  129.1884  -44.4667 -999.0000    2.0601 -999.0000    2.2622    0.2049    0.8376    0.2343    6.2470    8.5000   94.0277   65.2116    0.0875    2.0601    2.2622   14.5252  -44.4667    0.3059 -999.0000    8.5000    6.2470    5.8922    0.3059    2.0601   10.1492    0.0875   94.4922  129.1884    6.2470    5.8922 
2601.0000  140.2459  140.2459  -44.0400    0.5500    2.1309    0.2850    2.2752    0.1906    0.8992    0.2628    5.7380    8.5000   90.8701   72.5464    0.1056    2.1309    2.2752   16.3591  -44.0400    0.3032 -999.0000    8.5000    5.7380    5.3955    0.3032    2.1309   10.1285    0.1056   91.8578  140.2459    5.7380    5.3955 
2601.5000  143.4065  143.4065  -44.2867    0.7600    2.1957    0.2400    2.2788    0.1858    0.9474    0.2965    5.0123    8.5000   87.3204   81.2081    0.1168    2.1957    2.2788   18.1524  -44.2867    0.3148 -999.0000    8.5000    5.0123    4.7557    0.3148    2.1957   10.1050    0.1168   87.2484  143.4065    5.0123    4.7557 
2602.0000  145.0836  145.0836  -44.5933 -999.0000    2.2507 -999.0000    2.2726    0.2063    0.9504    0.2930    4.2534    8.5000   92.8536   94.9286    0.1166    2.2507    2.2726   16.8121  -44.5933    0.3469 -999.0000    8.5000    4.2534    4.0937    0.3469    2.2507   10.1099    0.1166   87.5844  145.0836    4.2534    4.0937 
2602.5000  142.8168  142.8168  -44.3333    0.6600    2.2829    0.2800    2.2672    0.2111    0.9739    0.2976    3.8488    8.5000  105.9710  105.6636    0.1021    2.2829    2.2672   15.7285  -44.3333    0.3558 -999.0000    8.5000    3.8488    3.7440    0.3558    2.2829   10.1093    0.1021   97.9703  142.8168    3.8488    3.7440 
2603.0000  137.5276  137.5276  -43.4000 -999.0000    2.3047 -999.0000    2.2546    0.2066    0.9652    0.3143    3.9463    8.5000  103.1300  110.5566    0.0766    2.3047    2.2546   23.2378  -43.4000    0.3525 -999.0000    8.5000    3.9463    3.8327    0.3525    2.3047   10.0875    0.0766  105.1266  137.5276    3.9463    3.8327 
2603.5000  124.5443  124.5443  -42.3667    0.5900    2.3082    0.2810    2.2487    0.1949    0.9431    0.3327    4.4103    8.5000   95.4080  111.6992    0.0563    2.3082    2.2487   30.3145  -42.3667    0.3405 -999.0000    8.5000    4.4103    4.2147    0.3405    2.3082   10.0678    0.0563   99.9703  124.5443    4.4103    4.2147 
2604.0000  111.5886  111.5886  -41.3667 -999.0000    2.2954 -999.0000    2.2459    0.1930    0.9024    0.3506    4.7918    8.5000   94.5509  110.1143    0.0411    2.2954    2.2459   21.9188  -41.3667    0.3485 -999.0000    8.5000    4.7918    4.4660    0.3485    2.2954   10.0635    0.0411   93.2625  111.5886    4.7918    4.4660 
2604.5000   97.8957   97.8957  -39.7867 -999.0000    2.2649 -999.0000    2.2479    0.1819    0.9224    0.3788    4.7311    8.5000   96.8034  108.7874    0.0353    2.2649    2.2479   13.0608  -39.7867    0.3460 -999.0000    8.5000    4.7311    4.3447    0.3460    2.2649   10.0859    0.0353   94.7125   97.8957    4.7311    4.3447 
2605.0000   85.7325   85.7325  -38.8200 -999.0000    2.2274 -999.0000    2.2578    0.1784    0.9503    0.3776    4.5521    8.5000   98.2342  102.0423    0.0319    2.2274    2.2578    9.6279  -38.8200    0.3408 -999.0000    8.5000    4.5521    4.2008    0.3408    2.2274   10.0891    0.0319   98.9437   85.7325    4.5521    4.2008 
2605.5000   76.6192   76.6192  -38.8200    0.4200    2.2128    0.2570    2.2640    0.1797    0.9619    0.3399    4.6969    8.5000   95.2895   92.3670    0.0322    2.2128    2.2640   11.2858  -38.8200    0.3239 -999.0000    8.5000    4.6969    4.4117    0.3239    2.2128   10.0684    0.0322   97.2719   76.6192    4.6969    4.4117 
2606.0000   73.0348   73.0348  -39.6933 -999.0000    2.2274 -999.0000    2.2684    0.1751    0.9358    0.3241    5.3353    8.5000   89.9508   88.2941    0.0396    2.2274    2.2684   19.3247  -39.6933    0.3095 -999.0000    8.5000    5.3353    5.0771    0.3095    2.2274   10.0389    0.0396   92.7469   73.0348    5.3353    5.0771 
2606.5000   74.5275   74.5275  -40.2667    2.7000    2.2701    0.2340    2.2701    0.1706    0.8787    0.3248    6.3209    8.5000   86.5256   88.4784    0.0541    2.2701    2.2701   35.1238  -40.2667    0.3048 -999.0000    8.5000    6.3209    5.9589    0.3048    2.2701   10.0241    0.0541   88.2109   74.5275    6.3209    5.9589 
2607.0000   82.3784   82.3784  -40.6933 -999.0000    2.3232 -999.0000    2.2701    0.1658    0.8450    0.3503    6.7994    8.5000   85.8337   95.0392    0.0755    2.3232    2.2701   36.4326  -40.6933    0.3126 -999.0000    8.5000    6.7994    6.2879    0.3126    2.3232   10.0389    0.0755   85.6672   82.3784    6.7994    6.2879 
2607.5000   88.5798   88.5798  -41.3200    0.5900    2.3629    0.2290    2.2706    0.1750    0.8507    0.3514    6.2421    8.5000   92.4639  106.9629    0.0896    2.3629    2.2706   19.5710  -41.3200    0.3289 -999.0000    8.5000    6.2421    5.7447    0.3289    2.3629   10.0618    0.0896   89.6891   88.5798    6.2421    5.7447 
