~VERSION INFORMATION
 VERS.                 2.0:   CWLS LOG ASCII STANDARD - VERSION 2.0
 WRAP.                  NO:   SINGLE LINE PER DEPTH STEP
 CREA.                 9/4/2023 1:15:44 PM
#CREATED USING DSPetro VERSION 10ep.4.05.01 BY C4372838 ON 9/4/2023 1:15:44 PM
~WELL INFORMATION
#MNEM.UNIT       DATA                          DESCRIPTION MNEMONIC
#---------      ---------------------------   --------------------------
 STRT    .FT        2533.0000                 : START DEPTH
 STOP    .FT        3150.0000                 : STOP DEPTH
 STEP    .FT        0.5000                    : STEP VALUE
 NULL    .      -999.0000                     : NULL VALUE
 DATE    .      9/4/2023                      : LAS file Creation Date
 WELL   .      ABANICO-2                    : Well Name
 COMP   .      Kappa Resources Colombia,Ltd : Company
 FLD    .      UNKNOWN                      : Field
 STATE  .      UNKNOWN                      : State
 COUNT  .      Colombia                     : Country
 UWI    .      ABAN0002                     : Unique Well Identifier (UWI)
 LOC    .      UNKNOWN                      : Location
 RWS    .      -999                         : Def_Rw
 WST    .      -999                         : Def_Rwt
 CNTY   .      UNKNOWN                      : County
 PROV   .                                   : Province
 SRVC   .      UNKNOWN                      : Contractor
 GDAT   .      WGS 84                       : Geodatum
 LONG   .      0                            : Longitude
 LATI   .      0                            : Latitude
 COORDIN.                                   : Grid System
 XCOORD .      910597.860948                : X or East-West Coordinate
 YCOORD .      957980.305104                : Y or North-South Coordinate
~CURVE INFORMATION
#MNEM                 UNIT       API CODE   Curve Type Comments
#----------     --------------- ----------  ---------- -----------
 DEPTH         .FT                        : Depth       
 GRGC          .API                       : GammaRay    GR:UNKNOWN:r1:MAIN:v1
 GRGC          .API                       : GammaRay    GR:UNKNOWN:r1:MAIN:v1
 SP            .mV                        : SP          SP:UNKNOWN:r1:MAIN:v1
 K_CORE_2023   .                          :             
 PDPE          .b/elec                    : PEF         PEF:UNKNOWN:r1:MAIN:v1
 POR_CORE_2023 .                          :             
 DEN           .g/cm3                     : Density     RHOB:PETROPHYSIC:rC:NONE:v0 (auto-composite)
 PHIE          .Dec                       : Phi         
 SWT           .Dec                       : Sw          
 VCLmix        .Dec                       : Vcl         
 AHT60         .ohm.m                     : DeepRes     HDRS:UNKNOWN:r1:MAIN:v1
 BS            .inches                    : BitSize     BS:UNKNOWN:r1:MAIN:v1
 DTCO          .uSec/ft                   : Sonic       DT:UNKNOWN:rC:NONE:v0 (auto-composite)
 GR            .API                       : GammaRay    GR:PETROPHYSIC:rC:NONE:v0 (auto-composite)
 HDRA          .g/cm3                     : Drho        DRHO:UNKNOWN:r1:MAIN:v1
 PEFZ          .b/elec                    : PEF         PEF:UNKNOWN:r1:MAIN:v1
 RHOZ          .g/cm3                     : Density     RHOB:PETROPHYSIC:rC:NONE:v0 (auto-composite)
 RXOZ          .ohm.m                     : MicroRes    MSFL:UNKNOWN:r1:MAIN:v1
 SP            .mV                        : SP          SP:UNKNOWN:r1:MAIN:v1
 TNPH          .v/v_decimal               : Neutron     NPHI:UNKNOWN:r1:MAIN:v1
 CALI          .inches                    : Caliper     CALI:PETROPHYSIC:rC:NONE:v0 (auto-composite)
 BS            .inches                    : BitSize     BS:UNKNOWN:r1:MAIN:v1
 HDRS          .ohm.m                     : DeepRes     HDRS:PETROPHYSIC:rC:NONE:v0 (auto-composite)
 HMRS          .ohm.m                     :             HMRS:PETROPHYSIC:rC:NONE:v0 (auto-composite)
 NPHI          .v/v_decimal               : Neutron     NPHI:UNKNOWN:r1:MAIN:v1
 PEF           .b/elec                    : PEF         PEF:UNKNOWN:r1:MAIN:v1
 CALI          .inches                    : Caliper     CALI:UNKNOWN:r1:MAIN:v1
 DRHO          .g/cm3                     : Drho        DRHO:UNKNOWN:r1:MAIN:v1
 DT            .us/ft                     : Sonic       DT:UNKNOWN:r1:MAIN:v1
 GR            .API                       : GammaRay    GR:UNKNOWN:r1:MAIN:v1
 HDRS          .ohm.m                     : DeepRes     HDRS:UNKNOWN:r1:MAIN:v1
 HMRS          .UNKNOWN                   :             HMRS:UNKNOWN:r1:MAIN:v1
~A  DEPTH    GRGC      GRGC       SP    K_CORE_2~    PDPE   POR_CORE~    DEN       PHIE      SWT      VCLmix    AHT60       BS       DTCO       GR       HDRA      PEFZ      RHOZ      RXOZ       SP       TNPH      CALI       BS       HDRS      HMRS      NPHI      PEF       CALI      DRHO       DT        GR       HDRS      HMRS   
# ...
2895.5000   61.8206   61.8206  -15.9133 -999.0000    3.1699 -999.0000    2.4559    0.1252    1.0000    0.3080   13.3753    8.5000   95.7426   55.7851    0.0057    3.1699    2.4559   12.8310  -15.9133    0.2792 -999.0000    8.5000   13.3753   12.7905    0.2792    3.1699   10.3164    0.0057   93.9484   61.8206   13.3753   12.7905 
2896.0000   64.9628   64.9628  -16.7000 -999.0000    3.1172 -999.0000    2.4425    0.1429    1.0000    0.2798   12.4510    8.5000   87.2031   54.4305    0.0043    3.1172    2.4425   14.8779  -16.7000    0.2871 -999.0000    8.5000   12.4510   11.9283    0.2871    3.1172   10.3841    0.0043   86.6594   64.9628   12.4510   11.9283 
2896.5000   67.9575   67.9575  -19.3200 -999.0000    3.0454 -999.0000    2.4201    0.1608    1.0000    0.2858   10.5910    8.5000   89.2123   54.7162    0.0043    3.0454    2.4201   12.8585  -19.3200    0.3128 -999.0000    8.5000   10.5910   10.1154    0.3128    3.0454   10.4584    0.0043   85.8500   67.9575   10.5910   10.1154 
2897.0000   69.2015   69.2015  -21.3600 -999.0000    2.9781 -999.0000    2.3974    0.1515    1.0000    0.3622    9.6148    8.5000   94.6206   58.3836    0.0036    2.9781    2.3974   10.3089  -21.3600    0.3342 -999.0000    8.5000    9.6148    9.1317    0.3342    2.9781   10.5103    0.0036   99.0656   69.2015    9.6148    9.1317 
2897.5000   73.1269   73.1269  -20.9333 -999.0000    2.9486 -999.0000    2.3783    0.1263    1.0000    0.4518   10.0524    8.5000   98.2938   62.6868    0.0033    2.9486    2.3783    8.4124  -20.9333    0.3340 -999.0000    8.5000   10.0524    9.5086    0.3340    2.9486   10.5360    0.0033  112.2047   73.1269   10.0524    9.5086 
2898.0000   72.1410   72.1410  -19.0867 -999.0000    2.9466 -999.0000    2.3658    0.1213    1.0000    0.4939   11.3682    8.5000  103.5665   64.7048    0.0129    2.9466    2.3658    9.6036  -19.0867    0.3298 -999.0000    8.5000   11.3682   10.6516    0.3298    2.9466   10.5289    0.0129  105.1641   72.1410   11.3682   10.6516 
2898.5000   68.2616   68.2616  -18.3000 -999.0000    2.9549 -999.0000    2.3538    0.1236    1.0000    0.5195   12.5347    8.5000  101.8479   67.4139    0.0350    2.9549    2.3538   11.2719  -18.3000    0.3393 -999.0000    8.5000   12.5347   11.6263    0.3393    2.9549   10.5185    0.0350   99.7953   68.2616   12.5347   11.6263 
2899.0000   69.5240   69.5240  -17.8733 -999.0000    2.9670 -999.0000    2.3360    0.1352    0.9770    0.5092   12.8536    8.5000   96.2187   66.9439    0.0584    2.9670    2.3360   11.6860  -17.8733    0.3449 -999.0000    8.5000   12.8536   11.8280    0.3449    2.9670   10.5251    0.0584  101.0188   69.5240   12.8536   11.8280 
2899.5000   71.7355   71.7355  -17.8400 -999.0000    2.9635 -999.0000    2.3120    0.1606    0.9739    0.4420   12.1616    8.5000   95.7110   62.2169    0.0761    2.9635    2.3120   11.9622  -17.8400    0.3447 -999.0000    8.5000   12.1616   11.1447    0.3447    2.9635   10.5425    0.0761  101.0766   71.7355   12.1616   11.1447 
2900.0000   67.5797   67.5797  -18.3400 -999.0000    2.9641 -999.0000    2.2976    0.1797    1.0000    0.3888   10.7880    8.5000   97.1795   59.6644    0.0802    2.9641    2.2976   11.1089  -18.3400    0.3482 -999.0000    8.5000   10.7880    9.9125    0.3482    2.9641   10.5573    0.0802   99.4000   67.5797   10.7880    9.9125 
2900.5000   66.7781   66.7781  -19.2467 -999.0000    2.9813 -999.0000    2.2937    0.1845    1.0000    0.3921    9.4903    8.5000   98.8795   59.8211    0.0856    2.9813    2.2937    8.7140  -19.2467    0.3637 -999.0000    8.5000    9.4903    8.8477    0.3637    2.9813   10.5513    0.0856  103.5156   66.7781    9.4903    8.8477 
2901.0000   66.0041   66.0041  -20.3133 -999.0000    2.9927 -999.0000    2.3156    0.1938    1.0000    0.3405    9.1178    8.5000  105.1939   57.3424    0.0968    2.9927    2.3156    7.8753  -20.3133    0.3633 -999.0000    8.5000    9.1178    8.5855    0.3633    2.9927   10.5677    0.0968  111.9453   66.0041    9.1178    8.5855 
2901.5000   67.9760   67.9760  -19.8933 -999.0000    2.9926 -999.0000    2.3454    0.1411    1.0000    0.4645    9.9532    8.5000  111.0181   63.2950    0.1001    2.9926    2.3454    7.4118  -19.8933    0.3461 -999.0000    8.5000    9.9532    9.3490    0.3461    2.9926   10.5759    0.1001  107.9031   67.9760    9.9532    9.3490 
2902.0000   70.7496   70.7496  -18.3267 -999.0000    2.9702 -999.0000    2.3769    0.1097    1.0000    0.5191   11.6265    8.5000  107.6737   67.5705    0.0946    2.9702    2.3769    8.3372  -18.3267    0.3267 -999.0000    8.5000   11.6265   10.8083    0.3267    2.9702   10.6021    0.0946   99.6750   70.7496   11.6265   10.8083 
2902.5000   72.6662   72.6662  -16.6000 -999.0000    2.9473 -999.0000    2.3980    0.0001    1.0000    0.5058   13.1624    8.5000   98.1163   65.2761    0.0780    2.9473    2.3980    9.3760  -16.6000    0.3146 -999.0000    8.5000   13.1624   12.1241    0.3146    2.9473   10.6654    0.0780   98.6531   72.6662   13.1624   12.1241 
2903.0000   70.6021   70.6021  -15.2800 -999.0000    2.9498 -999.0000    2.4120    0.0001    1.0000    0.5126   14.0182    8.5000   96.8682   66.0501    0.0757    2.9498    2.4120    9.4310  -15.2800    0.3052 -999.0000    8.5000   14.0182   12.8684    0.3052    2.9498   10.7381    0.0757   97.4172   70.6021   14.0182   12.8684 
2903.5000   64.0690   64.0690  -14.7800    0.3300    2.9843    0.2026    2.4270    0.0001    1.0000    0.4919   14.5779    8.5000   96.0448   64.6127    0.0868    2.9843    2.4270    8.7695  -14.7800    0.3039 -999.0000    8.5000   14.5779   13.2310    0.3039    2.9843   10.7791    0.0868   93.1000   64.0690   14.5779   13.2310 
2904.0000   59.6552   59.6552  -15.0067    2.8500    3.0452    0.1650    2.4392    0.0001    1.0000    0.4353   15.1563    8.5000   93.1341   61.8944    0.1096    3.0452    2.4392    8.2075  -15.0067    0.2985 -999.0000    8.5000   15.1563   13.4084    0.2985    3.0452   10.7337    0.1096   94.1844   59.6552   15.1563   13.4084 
2904.5000   58.7061   58.7061  -15.9000 -999.0000    3.0941 -999.0000    2.4488    0.0001    1.0000    0.4581   15.4829    8.5000   93.8302   62.9909    0.1264    3.0941    2.4488    9.1636  -15.9000    0.3132 -999.0000    8.5000   15.4829   13.4481    0.3132    3.0941   10.6627    0.1264   96.1406   58.7061   15.4829   13.4481 
2905.0000   63.2581   63.2581  -17.0733 -999.0000    3.1136 -999.0000    2.4427    0.0001    1.0000    0.4912   14.6953    8.5000   93.3569   64.5758    0.1292    3.1136    2.4427    9.3919  -17.0733    0.3261 -999.0000    8.5000   14.6953   12.9264    0.3261    3.1136   10.6267    0.1292   92.6297   63.2581   14.6953   12.9264 
2905.5000   79.8720   79.8720  -18.4333    0.2400    3.0932    0.2293    2.4296    0.1529    0.9694    0.4481   12.8649    8.5000   92.0301   64.0598    0.1200    3.0932    2.4296    8.3657  -18.4333    0.3260 -999.0000    8.5000   12.8649   11.6494    0.3260    3.0932   10.5879    0.1200   94.8516   79.8720   12.8649   11.6494 
2906.0000   98.8264   98.8264  -20.0800 -999.0000    3.0432 -999.0000    2.4122    0.1598    1.0000    0.4479   11.1549    8.5000   95.3033   64.0506    0.0965    3.0432    2.4122    7.4858  -20.0800    0.3288 -999.0000    8.5000   11.1549   10.3230    0.3288    3.0432   10.5300    0.0965   96.7719   98.8264   11.1549   10.3230 
2906.5000  113.1459  113.1459  -21.6267 -999.0000    3.0031 -999.0000    2.4033    0.1616    1.0000    0.4491   10.1249    8.5000  104.5304   64.1059    0.0717    3.0031    2.4033    7.8698  -21.6267    0.3291 -999.0000    8.5000   10.1249    9.4865    0.3291    3.0031   10.4535    0.0717  106.5328  113.1459   10.1249    9.4865 
2907.0000  129.1700  129.1700  -22.9000 -999.0000    2.9559 -999.0000    2.3995    0.1567    1.0000    0.4710    9.7005    8.5000  110.2162   65.1379    0.0471    2.9559    2.3995    8.9792  -22.9000    0.3279 -999.0000    8.5000    9.7005    9.2018    0.3279    2.9559   10.3705    0.0471  109.1391  129.1700    9.7005    9.2018 
2907.5000  135.8967  135.8967  -24.6400 -999.0000    2.8730 -999.0000    2.3939    0.1360    1.0000    0.5545    9.9395    8.5000  106.6616   69.0633    0.0327    2.8730    2.3939    9.3538  -24.6400    0.3237 -999.0000    8.5000    9.9395    9.5700    0.3237    2.8730   10.2978    0.0327  103.1297  135.8967    9.9395    9.5700 
