~VERSION INFORMATION
 VERS.                 2.0:   CWLS LOG ASCII STANDARD - VERSION 2.0
 WRAP.                  NO:   SINGLE LINE PER DEPTH STEP
 CREA.                 9/4/2023 1:15:46 PM
#CREATED USING DSPetro VERSION 10ep.4.05.01 BY C4372838 ON 9/4/2023 1:15:46 PM
~WELL INFORMATION
#MNEM.UNIT       DATA                          DESCRIPTION MNEMONIC
#---------      ---------------------------   --------------------------
 STRT    .FT        2741.0000                 : START DEPTH
 STOP    .FT        3159.5000                 : STOP DEPTH
 STEP    .FT        0.5000                    : STEP VALUE
 NULL    .      -999.0000                     : NULL VALUE
 DATE    .      9/4/2023                      : LAS file Creation Date
 WELL   .      ABANICO-34              : Well Name
 COMP   .      PACIFIC RUBIALES ENERGY : Company
 FLD    .      ABANICO                 : Field
 STATE  .      UNKNOWN                 : State
 COUNT  .      COLOMBIA                : Country
 API    .      ABAN0034                : API Number
 UWI    .      ABAN0034                : Unique Well Identifier (UWI)
 LOC    .      N                       : Location
 EPDAT  .      1017.000                : Elevation of Permanent Datum
 GL     .      1017.000                : GL Elevation
 RWS    .      -999                    : Def_Rw
 WST    .      -999                    : Def_Rwt
 CNTY   .      TOLIMA                  : County
 PROV   .      UNKNOWN                 : Province
 SRVC   .      WEATHERFORD             : Contractor
 GDAT   .      WGS 84                  : Geodatum
 LONG   .      -74.873885111279        : Longitude
 LATI   .      4.22623405562507        : Latitude
 COORDIN.                              : Grid System
 XCOORD .      911584.313002           : X or East-West Coordinate
 YCOORD .      959134.088873           : Y or North-South Coordinate
~CURVE INFORMATION
#MNEM                 UNIT       API CODE   Curve Type Comments
#----------     --------------- ----------  ---------- -----------
 DEPTH         .FT                        : Depth       
 GRGC          .GAPI                      : GammaRay    Gamma Ray
 GRGC          .GAPI                      : GammaRay    Gamma Ray
 SP            .MV                        : SP          Spontaneous Potential
 K_CORE_2023   .                          :             
 NPRS          .V/V                       :             Sandstone Neutron Por.
 PDPE          .B/E                       : PEF         PE
 POR_CORE_2023 .                          :             
 R85O          .OHMM                      :             Array Ind One Res 85
 R60O          .OHMM                      :             Array Ind One Res 60
 R40O          .OHMM                      :             Array Ind One Res 40
 R30O          .OHMM                      :             Array Ind One Res 30
 R20O          .OHMM                      :             Array Ind One Res 20
 DT46          .US/F                      : Sonic       4-6' Compensated Sonic
 DEN           .G/C3                      : Density     Compensated Density
 PHIE          .Dec                       : Phi         
 SWT           .Dec                       : Sw          
 VCLmix        .Dec                       : Vcl         
 BS            .inches                    : BitSize     Bit size
 DTCO          .US/F                      : Sonic       4-6' Compensated Sonic
 GR            .GAPI                      : GammaRay    Gamma Ray
 HDRA          .G/C3                      : Drho        Density Correction
 PEFZ          .B/E                       : PEF         PE
 RHOZ          .G/C3                      : Density     Compensated Density
 SP            .MV                        : SP          Spontaneous Potential
 TNPH          .V/V                       : Neutron     Neutron Posrosity
 BS            .inches                    : BitSize     Bit size
 NPHI          .V/V                       : Neutron     Neutron Posrosity
 PEF           .B/E                       : PEF         PE
 DRHO          .G/C3                      : Drho        Density Correction
 DT            .US/F                      : Sonic       4-6' Compensated Sonic
 GR            .GAPI                      : GammaRay    Gamma Ray
~A  DEPTH    GRGC      GRGC       SP    K_CORE_2~    NPRS      PDPE   POR_CORE~    R85O      R60O      R40O      R30O      R20O      DT46      DEN       PHIE      SWT      VCLmix      BS       DTCO       GR       HDRA      PEFZ      RHOZ       SP       TNPH       BS       NPHI      PEF       DRHO       DT        GR    
# ...
2791.0000  116.8200  116.8200    5.9490 -999.0000    0.3290    2.3990 -999.0000    2.3950 -999.0000    2.4820    2.6360    2.8630  136.5020    2.3080    0.1610    1.0000    0.3504    8.5000  136.5020  116.8200    0.0950    2.3990    2.3080    5.9490    0.3290    8.5000    0.3290    2.3990    0.0950  136.5020  116.8200 
2791.5000  115.9650  115.9650    8.2040 -999.0000    0.3270    2.3380 -999.0000    2.2140 -999.0000    2.2840    2.4190    2.6140  130.2060    2.3160    0.1555    1.0000    0.3553    8.5000  130.2060  115.9650    0.0940    2.3380    2.3160    8.2040    0.3270    8.5000    0.3270    2.3380    0.0940  130.2060  115.9650 
2792.0000  112.4820  112.4820   10.4620 -999.0000    0.3220    2.3180 -999.0000    2.7250 -999.0000    2.7970    2.9540    3.1760  128.4590    2.3300    0.1463    1.0000    0.3610    8.5000  128.4590  112.4820    0.0900    2.3180    2.3300   10.4620    0.3220    8.5000    0.3220    2.3180    0.0900  128.4590  112.4820 
2792.5000  108.4200  108.4200   12.5680 -999.0000    0.3110    2.3080 -999.0000    3.4730 -999.0000    3.5510    3.7390    4.0010  130.2120    2.3580    0.1281    1.0000    0.3704    8.5000  130.2120  108.4200    0.0860    2.3080    2.3580   12.5680    0.3110    8.5000    0.3110    2.3080    0.0860  130.2120  108.4200 
2793.0000  106.5620  106.5620   13.5230 -999.0000    0.2940    2.2880 -999.0000    4.3370 -999.0000    4.4170    4.6370    4.9410  135.6330    2.3920    0.1067    1.0000    0.3743    8.5000  135.6330  106.5620    0.0840    2.2880    2.3920   13.5230    0.2940    8.5000    0.2940    2.2880    0.0840  135.6330  106.5620 
2793.5000  109.9250  109.9250   13.6700 -999.0000    0.2770    2.3100 -999.0000    5.7100 -999.0000    5.7970    6.0710    6.4440  144.1410    2.4170    0.0001    1.0000    0.3681    8.5000  144.1410  109.9250    0.0850    2.3100    2.4170   13.6700    0.2770    8.5000    0.2770    2.3100    0.0850  144.1410  109.9250 
2794.0000  113.4700  113.4700   12.2950 -999.0000    0.2700    2.3890 -999.0000    7.2380 -999.0000    7.3320    7.6610    8.1080  156.8050    2.4110    0.0001    1.0000    0.3471    8.5000  156.8050  113.4700    0.0840    2.3890    2.4110   12.2950    0.2700    8.5000    0.2700    2.3890    0.0840  156.8050  113.4700 
2794.5000  107.3840  107.3840    9.8310 -999.0000    0.2700    2.4530 -999.0000   14.9160 -999.0000   15.0950   15.7470   16.6370  167.1700    2.3880    0.1127    0.4999    0.3211    8.5000  167.1700  107.3840    0.0810    2.4530    2.3880    9.8310    0.2700    8.5000    0.2700    2.4530    0.0810  167.1700  107.3840 
2795.0000   89.7020   89.7020    7.1880 -999.0000    0.2690    2.4050 -999.0000   23.0380 -999.0000   23.3190   24.3000   25.6570  169.2950    2.3670    0.1284    0.4466    0.2954    8.5000  169.2950   89.7020    0.0780    2.4050    2.3670    7.1880    0.2690    8.5000    0.2690    2.4050    0.0780  169.2950   89.7020 
2795.5000   70.7120   70.7120    4.9680 -999.0000    0.2630    2.2710 -999.0000   26.9450 -999.0000   27.3040   28.4380   30.0330  157.7330    2.3490    0.1432    0.3919    0.2629    8.5000  157.7330   70.7120    0.0750    2.2710    2.3490    4.9680    0.2630    8.5000    0.2630    2.2710    0.0750  157.7330   70.7120 
2796.0000   62.7150   62.7150    3.4650 -999.0000    0.2590    2.1740 -999.0000   22.0990 -999.0000   22.4430   23.3780   24.7200  136.5690    2.3290    0.1588    0.3392    0.2322    8.5000  136.5690   62.7150    0.0740    2.1740    2.3290    3.4650    0.2590    8.5000    0.2590    2.1740    0.0740  136.5690   62.7150 
2796.5000   73.4650   73.4650    2.3820 -999.0000    0.2640    2.1890 -999.0000   15.5580 -999.0000   15.8460   16.5140   17.4910  117.5650    2.3060    0.1743    0.3036    0.2163    8.5000  117.5650   73.4650    0.0720    2.1890    2.3060    2.3820    0.2640    8.5000    0.2640    2.1890    0.0720  117.5650   73.4650 
2797.0000   96.2270   96.2270    1.9260 -999.0000    0.2770    2.2610 -999.0000    8.5580 -999.0000    8.7450    9.1210    9.6810  106.0090    2.2910    0.1848    0.6636    0.2257    8.5000  106.0090   96.2270    0.0670    2.2610    2.2910    1.9260    0.2770    8.5000    0.2770    2.2610    0.0670  106.0090   96.2270 
2797.5000  117.1440  117.1440    2.5890 -999.0000    0.2920    2.3450 -999.0000    4.8760 -999.0000    5.0010    5.2210    5.5540  103.4500    2.2940    0.1808    0.9301    0.2595    8.5000  103.4500  117.1440    0.0650    2.3450    2.2940    2.5890    0.2920    8.5000    0.2920    2.3450    0.0650  103.4500  117.1440 
2798.0000  127.4600  127.4600    3.9970 -999.0000    0.3050    2.3980 -999.0000    3.6030 -999.0000    3.7090    3.8760    4.1330  103.1940    2.3060    0.1689    1.0000    0.2994    8.5000  103.1940  127.4600    0.0690    2.3980    2.3060    3.9970    0.3050    8.5000    0.3050    2.3980    0.0690  103.1940  127.4600 
2798.5000  120.4020  120.4020    5.7190 -999.0000    0.3150    2.3750 -999.0000    3.2230 -999.0000    3.3290    3.4840    3.7250  103.9100    2.3140    0.1602    1.0000    0.3287    8.5000  103.9100  120.4020    0.0780    2.3750    2.3140    5.7190    0.3150    8.5000    0.3150    2.3750    0.0780  103.9100  120.4020 
2799.0000  101.6720  101.6720    7.2980 -999.0000    0.3210    2.3030 -999.0000    3.0720 -999.0000    3.1820    3.3350    3.5730  107.3220    2.3180    0.1556    1.0000    0.3454    8.5000  107.3220  101.6720    0.0840    2.3030    2.3180    7.2980    0.3210    8.5000    0.3210    2.3030    0.0840  107.3220  101.6720 
2799.5000   80.3890   80.3890    8.2220 -999.0000    0.3180    2.2240 -999.0000    3.1470 -999.0000    3.2690    3.4310    3.6840  113.4240    2.3180    0.1564    1.0000    0.3393    8.5000  113.4240   80.3890    0.0830    2.2240    2.3180    8.2220    0.3180    8.5000    0.3180    2.2240    0.0830  113.4240   80.3890 
2800.0000   65.7600   65.7600    8.4530 -999.0000    0.3080    2.2210 -999.0000    3.6400 -999.0000    3.7880    3.9810    4.2850  118.4180    2.3180    0.1591    1.0000    0.3191    8.5000  118.4180   65.7600    0.0790    2.2210    2.3180    8.4530    0.3080    8.5000    0.3080    2.2210    0.0790  118.4180   65.7600 
2800.5000   62.4970   62.4970    8.4410  883.4700    0.2960    2.2820    0.3134    3.2530 -999.0000    3.3910    3.5700    3.8510  117.2330    2.3080    0.1698    1.0000    0.2834    8.5000  117.2330   62.4970    0.0760    2.2820    2.3080    8.4410    0.2960    8.5000    0.2960    2.2820    0.0760  117.2330   62.4970 
2801.0000   65.3070   65.3070    8.7300 -999.0000    0.2890    2.2960 -999.0000    2.9040 -999.0000    3.0320    3.1960    3.4560  111.0840    2.2970    0.1799    1.0000    0.2568    8.5000  111.0840   65.3070    0.0730    2.2960    2.2970    8.7300    0.2890    8.5000    0.2890    2.2960    0.0730  111.0840   65.3070 
2801.5000   69.7540   69.7540    9.7220    7.9000    0.2900    2.2630    0.2585    2.8020 -999.0000    2.9290    3.0920    3.3500  103.4340    2.2950    0.1812    1.0000    0.2566    8.5000  103.4340   69.7540    0.0700    2.2630    2.2950    9.7220    0.2900    8.5000    0.2900    2.2630    0.0700  103.4340   69.7540 
2802.0000   72.4980   72.4980   11.1200 -999.0000    0.2950    2.2060 -999.0000    2.9070 -999.0000    3.0400    3.2150    3.4900   98.4750    2.3040    0.1731    1.0000    0.2769    8.5000   98.4750   72.4980    0.0670    2.2060    2.3040   11.1200    0.2950    8.5000    0.2950    2.2060    0.0670   98.4750   72.4980 
2802.5000   74.1230   74.1230   12.3760 -999.0000    0.2980    2.1880 -999.0000    2.6030 -999.0000    2.7250    2.8850    3.1380   96.7550    2.3250    0.1565    1.0000    0.3067    8.5000   96.7550   74.1230    0.0680    2.1880    2.3250   12.3760    0.2980    8.5000    0.2980    2.1880    0.0680   96.7550   74.1230 
2803.0000   74.8610   74.8610   13.4820 -999.0000    0.2990    2.1910 -999.0000    2.4210 -999.0000    2.5360    2.6890    2.9300   95.5350    2.3400    0.1449    1.0000    0.3257    8.5000   95.5350   74.8610    0.0710    2.1910    2.3400   13.4820    0.2990    8.5000    0.2990    2.1910    0.0710   95.5350   74.8610 
