~VERSION INFORMATION
 VERS.                 2.0:   CWLS LOG ASCII STANDARD - VERSION 2.0
 WRAP.                  NO:   SINGLE LINE PER DEPTH STEP
 CREA.                 9/4/2023 1:15:44 PM
#CREATED USING DSPetro VERSION 10ep.4.05.01 BY C4372838 ON 9/4/2023 1:15:44 PM
~WELL INFORMATION
#MNEM.UNIT       DATA                          DESCRIPTION MNEMONIC
#---------      ---------------------------   --------------------------
 STRT    .FT        2533.0000                 : START DEPTH
 STOP    .FT        3150.0000                 : STOP DEPTH
 STEP    .FT        0.5000                    : STEP VALUE
 NULL    .      -999.0000                     : NULL VALUE
 DATE    .      9/4/2023                      : LAS file Creation Date
 WELL   .      ABANICO-2                    : Well Name
 COMP   .      Kappa Resources Colombia,Ltd : Company
 FLD    .      UNKNOWN                      : Field
 STATE  .      UNKNOWN                      : State
 COUNT  .      Colombia                     : Country
 UWI    .      ABAN0002                     : Unique Well Identifier (UWI)
 LOC    .      UNKNOWN                      : Location
 RWS    .      -999                         : Def_Rw
 WST    .      -999                         : Def_Rwt
 CNTY   .      UNKNOWN                      : County
 PROV   .                                   : Province
 SRVC   .      UNKNOWN                      : Contractor
 GDAT   .      WGS 84                       : Geodatum
 LONG   .      0                            : Longitude
 LATI   .      0                            : Latitude
 COORDIN.                                   : Grid System
 XCOORD .      910597.860948                : X or East-West Coordinate
 YCOORD .      957980.305104                : Y or North-South Coordinate
~CURVE INFORMATION
#MNEM                 UNIT       API CODE   Curve Type Comments
#----------     --------------- ----------  ---------- -----------
 DEPTH         .FT                        : Depth       
 GRGC          .API                       : GammaRay    GR:UNKNOWN:r1:MAIN:v1
 GRGC          .API                       : GammaRay    GR:UNKNOWN:r1:MAIN:v1
 SP            .mV                        : SP          SP:UNKNOWN:r1:MAIN:v1
 K_CORE_2023   .                          :             
 PDPE          .b/elec                    : PEF         PEF:UNKNOWN:r1:MAIN:v1
 POR_CORE_2023 .                          :             
 DEN           .g/cm3                     : Density     RHOB:PETROPHYSIC:rC:NONE:v0 (auto-composite)
 PHIE          .Dec                       : Phi         
 SWT           .Dec                       : Sw          
 VCLmix        .Dec                       : Vcl         
 AHT60         .ohm.m                     : DeepRes     HDRS:UNKNOWN:r1:MAIN:v1
 BS            .inches                    : BitSize     BS:UNKNOWN:r1:MAIN:v1
 DTCO          .uSec/ft                   : Sonic       DT:UNKNOWN:rC:NONE:v0 (auto-composite)
 GR            .API                       : GammaRay    GR:PETROPHYSIC:rC:NONE:v0 (auto-composite)
 HDRA          .g/cm3                     : Drho        DRHO:UNKNOWN:r1:MAIN:v1
 PEFZ          .b/elec                    : PEF         PEF:UNKNOWN:r1:MAIN:v1
 RHOZ          .g/cm3                     : Density     RHOB:PETROPHYSIC:rC:NONE:v0 (auto-composite)
 RXOZ          .ohm.m                     : MicroRes    MSFL:UNKNOWN:r1:MAIN:v1
 SP            .mV                        : SP          SP:UNKNOWN:r1:MAIN:v1
 TNPH          .v/v_decimal               : Neutron     NPHI:UNKNOWN:r1:MAIN:v1
 CALI          .inches                    : Caliper     CALI:PETROPHYSIC:rC:NONE:v0 (auto-composite)
 BS            .inches                    : BitSize     BS:UNKNOWN:r1:MAIN:v1
 HDRS          .ohm.m                     : DeepRes     HDRS:PETROPHYSIC:rC:NONE:v0 (auto-composite)
 HMRS          .ohm.m                     :             HMRS:PETROPHYSIC:rC:NONE:v0 (auto-composite)
 NPHI          .v/v_decimal               : Neutron     NPHI:UNKNOWN:r1:MAIN:v1
 PEF           .b/elec                    : PEF         PEF:UNKNOWN:r1:MAIN:v1
 CALI          .inches                    : Caliper     CALI:UNKNOWN:r1:MAIN:v1
 DRHO          .g/cm3                     : Drho        DRHO:UNKNOWN:r1:MAIN:v1
 DT            .us/ft                     : Sonic       DT:UNKNOWN:r1:MAIN:v1
 GR            .API                       : GammaRay    GR:UNKNOWN:r1:MAIN:v1
 HDRS          .ohm.m                     : DeepRes     HDRS:UNKNOWN:r1:MAIN:v1
 HMRS          .UNKNOWN                   :             HMRS:UNKNOWN:r1:MAIN:v1
~A  DEPTH    GRGC      GRGC       SP    K_CORE_2~    PDPE   POR_CORE~    DEN       PHIE      SWT      VCLmix    AHT60       BS       DTCO       GR       HDRA      PEFZ      RHOZ      RXOZ       SP       TNPH      CALI       BS       HDRS      HMRS      NPHI      PEF       CALI      DRHO       DT        GR       HDRS      HMRS   
# ...
2983.0000   52.8198   52.8198  -13.3467 -999.0000    2.8952 -999.0000    2.4562    0.0001    1.0000    0.6439   17.9138    8.5000   85.4000   73.2652    0.0217    2.8952    2.4562   19.1336  -13.3467    0.3145 -999.0000    8.5000   17.9138   16.7964    0.3145    2.8952    9.8215    0.0217   82.3000   52.8198   17.9138   16.7964 
2983.5000   48.8336   48.8336  -13.5000 -999.0000    2.9243 -999.0000    2.4574    0.0001    1.0000    0.6186   18.0206    8.5000   85.4000   72.0765    0.0378    2.9243    2.4574   20.0944  -13.5000    0.3163 -999.0000    8.5000   18.0206   16.7819    0.3163    2.9243    9.8100    0.0378   82.3000   48.8336   18.0206   16.7819 
2984.0000   47.7426   47.7426  -13.0533 -999.0000    3.0148 -999.0000    2.4708    0.0001    1.0000    0.6800   18.3573    8.5000   85.4000   74.9606    0.0648    3.0148    2.4708   22.0768  -13.0533    0.3120 -999.0000    8.5000   18.3573   17.0307    0.3120    3.0148    9.8122    0.0648   82.3000   47.7426   18.3573   17.0307 
2984.5000   47.0423   47.0423  -12.6800 -999.0000    3.1328 -999.0000    2.4883    0.0001    1.0000    0.6888   19.1203    8.5000   85.4000   75.3753    0.0817    3.1328    2.4883   24.1071  -12.6800    0.3057 -999.0000    8.5000   19.1203   17.6754    0.3057    3.1328    9.8324    0.0817   82.3000   47.0423   19.1203   17.6754 
2985.0000   46.6737   46.6737  -12.7400 -999.0000    3.2434 -999.0000    2.5072    0.0001    1.0000    0.6832   20.6356    8.5000   85.4000   75.1081    0.0807    3.2434    2.5072   31.6381  -12.7400    0.2903 -999.0000    8.5000   20.6356   19.2005    0.2903    3.2434    9.8455    0.0807   82.3000   46.6737   20.6356   19.2005 
2985.5000   46.2756   46.2756  -12.6000 -999.0000    3.3190 -999.0000    2.5190    0.0001    1.0000    0.6498   23.2670    8.5000   85.4000   73.5416    0.0550    3.3190    2.5190   41.4854  -12.6000    0.2675 -999.0000    8.5000   23.2670   22.4807    0.2675    3.3190    9.8466    0.0550   82.3000   46.2756   23.2670   22.4807 
2986.0000   46.0877   46.0877  -12.4933 -999.0000    3.3367 -999.0000    2.5180    0.0001    1.0000    0.6992   26.9884    8.5000   85.4000   75.8637    0.0216    3.3367    2.5180   54.1956  -12.4933    0.2478 -999.0000    8.5000   26.9884   26.9297    0.2478    3.3367    9.8428    0.0216   82.3000   46.0877   26.9884   26.9297 
2986.5000   46.3807   46.3807  -12.5667 -999.0000    3.2897 -999.0000    2.5157    0.0001    1.0000    0.7408   28.9110    8.5000   85.4000   77.8172    0.0010    3.2897    2.5157   57.2869  -12.5667    0.2443 -999.0000    8.5000   28.9110   28.1711    0.2443    3.2897    9.8510    0.0010   82.3000   46.3807   28.9110   28.1711 
2987.0000   46.8764   46.8764  -12.5533 -999.0000    3.1998 -999.0000    2.5091    0.0001    1.0000    0.7727   26.6281    8.5000   85.4000   79.3191   -0.0030    3.1998    2.5091   39.5394  -12.5533    0.2636 -999.0000    8.5000   26.6281   23.9238    0.2636    3.1998    9.8581   -0.0030   82.3000   46.8764   26.6281   23.9238 
2987.5000   47.8421   47.8421  -12.5800 -999.0000    3.0953 -999.0000    2.5000    0.0001    1.0000    0.8629   22.8367    8.5000   85.4000   83.5578    0.0090    3.0953    2.5000   29.3253  -12.5800    0.2930 -999.0000    8.5000   22.8367   19.5403    0.2930    3.0953    9.8663    0.0090   82.3000   47.8421   22.8367   19.5403 
2988.0000   47.4846   47.4846  -12.7933 -999.0000    3.0258 -999.0000    2.4871    0.0001    1.0000    1.0000   19.5256    8.5000   85.4000   91.2797    0.0242    3.0258    2.4871   25.2424  -12.7933    0.3225 -999.0000    8.5000   19.5256   16.5916    0.3225    3.0258    9.8652    0.0242   82.3000   47.4846   19.5256   16.5916 
2988.5000   46.4802   46.4802  -13.4000 -999.0000    2.9970 -999.0000    2.4718    0.0001    1.0000    1.0000   16.6982    8.5000   85.4000   92.7263    0.0382    2.9970    2.4718   19.1264  -13.4000    0.3423 -999.0000    8.5000   16.6982   14.3358    0.3423    2.9970    9.8641    0.0382   82.3000   46.4802   16.6982   14.3358 
2989.0000   46.8764   46.8764  -13.9800 -999.0000    2.9909 -999.0000    2.4581    0.0001    1.0000    1.0000   14.8604    8.5000   85.4000   93.8229    0.0540    2.9909    2.4581   12.9339  -13.9800    0.3646 -999.0000    8.5000   14.8604   12.9378    0.3646    2.9909    9.8663    0.0540   82.3000   46.8764   14.8604   12.9378 
2989.5000   45.6454   45.6454  -14.3933 -999.0000    2.9942 -999.0000    2.4432    0.0001    1.0000    1.0000   14.3006    8.5000   85.4000   97.6562    0.0700    2.9942    2.4432   10.4169  -14.3933    0.3899 -999.0000    8.5000   14.3006   12.6984    0.3899    2.9942    9.8657    0.0700   82.3000   45.6454   14.3006   12.6984 
2990.0000   44.9930   44.9930  -14.8400 -999.0000    3.0060 -999.0000    2.4360    0.0001    1.0000    1.0000   14.2201    8.5000   85.4000   99.7387    0.0910    3.0060    2.4360    9.6525  -14.8400    0.4118 -999.0000    8.5000   14.2201   12.9854    0.4118    3.0060    9.8674    0.0910   82.3000   44.9930   14.2201   12.9854 
2990.5000   45.6748   45.6748  -16.0867 -999.0000    3.0444 -999.0000    2.4395    0.0001    1.0000    0.9721   14.0980    8.5000   85.4000   98.1077    0.1138    3.0444    2.4395    9.2329  -16.0867    0.4268 -999.0000    8.5000   14.0980   13.1599    0.4268    3.0444    9.8679    0.1138   82.3000   45.6748   14.0980   13.1599 
2991.0000   45.6454   45.6454  -17.7000 -999.0000    3.1053 -999.0000    2.4517    0.0001    1.0000    0.9308   14.3012    8.5000   85.4000  101.4894    0.1264    3.1053    2.4517    9.0272  -17.7000    0.4225 -999.0000    8.5000   14.3012   13.3376    0.4225    3.1053    9.8745    0.1264   82.3000   45.6454   14.3012   13.3376 
2991.5000   45.3800   45.3800  -18.8333 -999.0000    3.1494 -999.0000    2.4638    0.0001    1.0000    0.9017   15.1946    8.5000   85.4000  105.1476    0.1271    3.1494    2.4638    8.9357  -18.8333    0.4107 -999.0000    8.5000   15.1946   13.8700    0.4107    3.1494    9.8816    0.1271   82.3000   45.3800   15.1946   13.8700 
2992.0000   45.3800   45.3800  -20.1000 -999.0000    3.1025 -999.0000    2.4574    0.0001    1.0000    0.8692   16.8635    8.5000   85.4000  108.1331    0.1161    3.1025    2.4574    8.9030  -20.1000    0.4180 -999.0000    8.5000   16.8635   14.7814    0.4180    3.1025    9.8865    0.1161   82.3000   45.3800   16.8635   14.7814 
2992.5000   45.3800   45.3800  -21.7667 -999.0000    2.9269 -999.0000    2.4298    0.0001    1.0000    0.8265   20.4820    8.5000   85.4000  105.3596    0.0983    2.9269    2.4298    8.9002  -21.7667    0.4164 -999.0000    8.5000   20.4820   16.7452    0.4164    2.9269    9.8854    0.0983   82.3000   45.3800   20.4820   16.7452 
2993.0000   45.3800   45.3800  -24.3467 -999.0000    2.6472 -999.0000    2.3844    0.0001    1.0000    0.7603   28.6958    8.5000   85.4000   95.0761    0.0804    2.6472    2.3844    8.9060  -24.3467    0.3757 -999.0000    8.5000   28.6958   20.9161    0.3757    2.6472    9.8881    0.0804   82.3000   45.3800   28.6958   20.9161 
2993.5000   45.3800   45.3800  -27.6467 -999.0000    2.3744 -999.0000    2.3407    0.0001    1.0000    0.6757   40.5440    8.5000   85.4000   81.7334    0.0610    2.3744    2.3407    8.9073  -27.6467    0.3149 -999.0000    8.5000   40.5440   27.2827    0.3149    2.3744    9.8876    0.0610   82.3000   45.3800   40.5440   27.2827 
2994.0000   45.3800   45.3800  -31.6800 -999.0000    2.2173 -999.0000    2.3095    0.1464    0.5322    0.4751   51.7278    8.5000   85.4000   65.3314    0.0444    2.2173    2.3095    8.9073  -31.6800    0.2735 -999.0000    8.5000   51.7278   36.0191    0.2735    2.2173    9.8876    0.0444   82.3000   45.3800   51.7278   36.0191 
2994.5000   45.3800   45.3800  -35.3267 -999.0000    2.1791 -999.0000    2.3008    0.2028    0.4645    0.1889   53.5002    8.5000   85.4000   51.8781    0.0348    2.1791    2.3008    8.9073  -35.3267    0.2515 -999.0000    8.5000   53.5002   46.0805    0.2515    2.1791    9.8876    0.0348   82.3000   45.3800   53.5002   46.0805 
2995.0000   45.3800   45.3800  -38.0400 -999.0000    2.2165 -999.0000    2.3112    0.2132    0.5153    0.0991   51.2308    8.5000   85.4000   47.6578    0.0342    2.2165    2.3112    8.9073  -38.0400    0.2399 -999.0000    8.5000   51.2308   51.8068    0.2399    2.2165    9.8876    0.0342   82.3000   45.3800   51.2308   51.8068 
