~VERSION INFORMATION
 VERS.                 2.0:   CWLS LOG ASCII STANDARD - VERSION 2.0
 WRAP.                  NO:   SINGLE LINE PER DEPTH STEP
 CREA.                 9/4/2023 1:15:45 PM
#CREATED USING DSPetro VERSION 10ep.4.05.01 BY C4372838 ON 9/4/2023 1:15:45 PM
~WELL INFORMATION
#MNEM.UNIT       DATA                          DESCRIPTION MNEMONIC
#---------      ---------------------------   --------------------------
 STRT    .FT        2599.0000                 : START DEPTH
 STOP    .FT        3150.0000                 : STOP DEPTH
 STEP    .FT        0.5000                    : STEP VALUE
 NULL    .      -999.0000                     : NULL VALUE
 DATE    .      9/4/2023                      : LAS file Creation Date
 WELL   .      ABANICO-19                   : Well Name
 COMP   .      Kappa Resources Colombia,Ltd : Company
 FLD    .      UNKNOWN                      : Field
 STATE  .      UNKNOWN                      : State
 COUNT  .      Colombia                     : Country
 UWI    .      ABAN0019                     : Unique Well Identifier (UWI)
 LOC    .      UNKNOWN                      : Location
 PDAT   .      GROUND LEVEL                 : Permanent Datum
 EPDAT  .      1039.000000                  : Elevation of Permanent Datum
 LGMEA  .      DRILL FLOOR                  : Log Measured from
 APDAT  .      12.000000                    : Elevation Above Permanent Datum
 KB     .      1052.00000                   : KB Elevation
 DF     .      1051.00000                   : DF Elevation
 RWS    .      -999                         : Def_Rw
 WST    .      -999                         : Def_Rwt
 CNTY   .      UNKNOWN                      : County
 PROV   .      TOLIMA                       : Province
 SRVC   .      UNKNOWN                      : Contractor
 GDAT   .      WGS 84                       : Geodatum
 LONG   .      0.252833333280351            : Longitude
 LATI   .      0.26609722243415             : Latitude
 COORDIN.                                   : Grid System
 XCOORD .      910201.721945                : X or East-West Coordinate
 YCOORD .      958010.866493                : Y or North-South Coordinate
~CURVE INFORMATION
#MNEM                 UNIT       API CODE   Curve Type Comments
#----------     --------------- ----------  ---------- -----------
 DEPTH         .FT                        : Depth       
 GRGC          .API                       : GammaRay    GR:UNKNOWN:r1:0001:v1
 GRGC          .API                       : GammaRay    GR:UNKNOWN:r1:0001:v1
 HCGR          .GAPI                      :             HNGS Computed Gamma Ray {F13.2}
 SP            .MV                        : SP          Spontaneous Potential {F13.2}
 K_CORE_2023   .                          :             
 PDPE          .B/E                       : PEF         PEFZ:UNKNOWN:rC:NONE:v0 (auto-composite)
 POR_CORE_2023 .                          :             
 DEN           .g/cm3                     : Density     RHOZ:UNKNOWN:rC:NONE:v0 (auto-composite)
 PHIE          .Dec                       : Phi         
 SWT           .Dec                       : Sw          
 VCLmix        .Dec                       : Vcl         
 DCAL          .IN                        :             Differential Caliper {F13.2}
 AHT20         .OHMM                      : MedRes      Array Induction Two Foot Resistivity A20 {F13.2}
 AHT10         .OHMM                      : ShalRes     Array Induction Two Foot Resistivity A10 {F13.2}
 AHT30         .OHMM                      : MedRes      Array Induction Two Foot Resistivity A30 {F13.2}
 AHT60         .ohm.m                     : MedRes      AHT60:UNKNOWN:rC:NONE:v0 (auto-composite)
 AHT90         .ohm.m                     : DeepRes     AHT90:UNKNOWN:rC:NONE:v0 (auto-composite)
 BS            .IN                        : BitSize     Bit Size {F13.2}
 DTCO          .us/ft                     : Sonic       DTCO:UNKNOWN:rC:NONE:v0 (auto-composite)
 GR            .API                       : GammaRay    GR:UNKNOWN:rC:NONE:v0 (auto-composite)
 HCAL          .inch                      : Caliper     HCAL:UNKNOWN:rC:NONE:v0 (auto-composite)
 HDRA          .G/C3                      : Drho        HRDD Density Correction {F13.2}
 HTHO          .PPM                       :             HNGS Formation Thorium Concentration {F13.2}
 HTPR          .                          :             HNGS Thorium/Potassium Ratio {F13.2}
 HTUR          .                          :             HNGS Thorium/Uranium Ratio {F13.2}
 HUPR          .                          :             HNGS Uranium/Potassium Ratio {F13.2}
 HURA          .PPM                       :             HNGS Formation Uranium Concentration {F13.2}
 PEFZ          .B/E                       : PEF         PEFZ:UNKNOWN:rC:NONE:v0 (auto-composite)
 RHOZ          .g/cm3                     : Density     RHOZ:UNKNOWN:rC:NONE:v0 (auto-composite)
 RXOZ          .OHMM                      : MicroRes    MCFL Standard Resolution Invaded Zone Resistivity {F13.2}
 SP            .MV                        : SP          Spontaneous Potential {F13.2}
 TNPH          .dec                       : Neutron     TNPH:UNKNOWN:rC:NONE:v0 (auto-composite)
 CALI          .inch                      : Caliper     C1:UNKNOWN:rC:NONE:v0 (auto-composite)
 BS            .IN                        : BitSize     Bit Size {F13.2}
 HDRS          .ohm.m                     : DeepRes     Lateralog Deep Resistivity, ohmm
 NPHI          .dec                       : Neutron     TNPH:UNKNOWN:rC:NONE:v0 (auto-composite)
 PEF           .B/E                       : PEF         PEFZ:UNKNOWN:rC:NONE:v0 (auto-composite)
 CALI          .inch                      : Caliper     C1:UNKNOWN:rC:NONE:v0 (auto-composite)
 DRHO          .G/C3                      : Drho        HRDD Density Correction {F13.2}
 DT            .us/ft                     : Sonic       DTCO:UNKNOWN:rC:NONE:v0 (auto-composite)
 GR            .API                       : GammaRay    GR:UNKNOWN:r1:0001:v1
 HDRS          .ohm.m                     : DeepRes     Lateralog Deep Resistivity, ohmm
~A  DEPTH    GRGC      GRGC      HCGR       SP    K_CORE_2~    PDPE   POR_CORE~    DEN       PHIE      SWT      VCLmix     DCAL     AHT20     AHT10     AHT30     AHT60     AHT90       BS       DTCO       GR       HCAL      HDRA      HTHO      HTPR      HTUR      HUPR      HURA      PEFZ      RHOZ      RXOZ       SP       TNPH      CALI       BS       HDRS      NPHI      PEF       CALI      DRHO       DT        GR       HDRS   
# ...
2874.5000   57.2000   57.2000   29.8300   54.3100 -999.0000    1.9200 -999.0000    2.2300    0.2599    1.0000    0.1293   -0.1900    7.3100    4.2600    9.7500   13.7300   12.2100    8.5000   91.0036   57.2000    8.3125   -0.0100    5.1000    6.7400    2.2100    3.0400    2.3100    1.9200    2.2300    2.8900   54.3100    0.2900    8.3737    8.5000    1.8900    0.2900    1.9200    8.3737   -0.0100   91.0036   57.2000    1.8900 
2875.0000   56.8300   56.8300   26.9700   54.1900 -999.0000    1.8900 -999.0000    2.2200    0.2722    1.0000    0.1037   -0.2000    8.2700    4.5400   11.5300   16.6900   13.4500    8.5000   91.2218   56.8300    8.3010   -0.0100    4.5300    6.4900    1.7100    3.8000    2.6600    1.8900    2.2200    3.0600   54.1900    0.3000    8.3737    8.5000    1.9000    0.3000    1.8900    8.3737   -0.0100   91.2218   56.8300    1.9000 
2875.5000   56.0200   56.0200   24.4500   54.1300 -999.0000    1.8600 -999.0000    2.2100    0.2805    1.0000    0.0811   -0.2100    9.1000    4.6200   13.3900   19.7300   14.6700    8.5000   91.3254   56.0200    8.2895   -0.0100    4.1500    6.6100    1.5900    4.1600    2.6100    1.8600    2.2100    3.2600   54.1300    0.3000    8.3737    8.5000    1.8950    0.3000    1.8600    8.3737   -0.0100   91.3254   56.0200    1.8950 
2876.0000   54.4300   54.4300   22.9400   54.1300 -999.0000    1.8700 -999.0000    2.2100    0.2796    1.0000    0.0676   -0.1900    9.2900    4.5800   13.9200   20.5000   13.5800    8.5000   91.2829   54.4300    8.3125   -0.0100    3.9600    6.8800    1.4600    4.7000    2.7100    1.8700    2.2100    3.1300   54.1300    0.2900    8.3737    8.5000    1.8900    0.2900    1.8700    8.3737   -0.0100   91.2829   54.4300    1.8900 
2876.5000   66.6200   66.6200   26.5800   54.5000 -999.0000    1.9500 -999.0000    2.2200    0.2693    1.0000    0.1002   -0.1900    9.2700    4.5300   14.5400   21.3300   13.0400    8.5000   91.2782   66.6200    8.3125   -0.0100    4.3100    6.0300    1.2500    4.8300    3.4600    1.9500    2.2200    3.0800   54.5000    0.2900    8.3737    8.5000    1.8550    0.2900    1.9500    8.3737   -0.0100   91.2782   66.6200    1.8550 
2877.0000   80.6500   80.6500   34.5900   55.0600 -999.0000    2.0700 -999.0000    2.2400    0.2515    1.0000    0.1720   -0.1900    9.4200    4.5300   16.4400   25.8800   14.7500    8.5000   91.3703   80.6500    8.3125   -0.0100    5.6900    6.2000    1.3500    4.6000    4.2200    2.0700    2.2400    3.2600   55.0600    0.3000    8.3859    8.5000    1.8200    0.3000    2.0700    8.3859   -0.0100   91.3703   80.6500    1.8200 
2877.5000   91.3600   91.3600   38.3600   55.7500 -999.0000    2.1200 -999.0000    2.2600    0.2406    1.0000    0.2057   -0.1600    7.7200    4.1700   12.3100   20.7000   13.8800    8.5000   90.6339   91.3600    8.3431   -0.0100    6.2700    6.1300    1.3800    4.4400    4.5400    2.1200    2.2600    2.9700   55.7500    0.3100    8.3737    8.5000    1.6800    0.3100    2.1200    8.3737   -0.0100   90.6339   91.3600    1.6800 
2878.0000   88.0100   88.0100   36.7100   55.8800 -999.0000    2.0700 -999.0000    2.2600    0.2433    1.0000    0.1909   -0.2100    6.2500    3.6000    9.3700   15.5800   10.6600    8.5000   89.9790   88.0100    8.2895   -0.0100    6.0500    6.2200    1.4200    4.3900    4.2700    2.0700    2.2600    2.6600   55.8800    0.3100    8.3737    8.5000    1.5400    0.3100    2.0700    8.3737   -0.0100   89.9790   88.0100    1.5400 
2878.5000   75.3300   75.3300   33.8100   55.9400 -999.0000    1.9800 -999.0000    2.2400    0.2493    1.0000    0.1650   -0.2000    5.7400    3.3900    8.7000   14.9200   11.0700    8.5000   88.7082   75.3300    8.2971   -0.0100    5.5900    6.2700    1.5800    3.9700    3.5400    1.9800    2.2400    2.4400   55.9400    0.2900    8.3737    8.5000    1.4800    0.2900    1.9800    8.3737   -0.0100   88.7082   75.3300    1.4800 
2879.0000   66.0900   66.0900   30.9400   55.8800  192.4100    1.9000    0.2604    2.2400    0.2505    1.0000    0.1392   -0.2000    6.0200    3.4400    9.6200   18.0700   14.5700    8.5000   87.5126   66.0900    8.3010   -0.0100    5.1600    6.3800    1.6400    3.8800    3.1400    1.9000    2.2400    2.4100   55.8800    0.2800    8.3737    8.5000    1.4200    0.2800    1.9000    8.3737   -0.0100   87.5126   66.0900    1.4200 
2879.5000   58.3100   58.3100   28.4300   55.8800 -999.0000    1.8600 -999.0000    2.2400    0.2547    1.0000    0.1168   -0.2100    6.1500    3.4000   10.2700   21.3000   19.5000    8.5000   87.4354   58.3100    8.2895   -0.0100    4.6100    6.0100    1.4900    4.0200    3.0800    1.8600    2.2400    2.3700   55.8800    0.2800    8.3737    8.5000    1.5600    0.2800    1.8600    8.3737   -0.0100   87.4354   58.3100    1.5600 
2880.0000   53.2700   53.2700   26.1500   55.8100 -999.0000    1.8600 -999.0000    2.2300    0.2625    1.0000    0.0963   -0.1900    5.8000    3.2200    9.4100   19.9000   20.9800    8.5000   89.1350   53.2700    8.3125   -0.0100    4.4300    6.5800    1.7200    3.8200    2.5700    1.8600    2.2300    2.1600   55.8100    0.2800    8.3737    8.5000    1.7000    0.2800    1.8600    8.3737   -0.0100   89.1350   53.2700    1.7000 
2880.5000   51.1500   51.1500   24.8500   55.8100 -999.0000    1.8900 -999.0000    2.2200    0.2687    1.0000    0.0847   -0.1900    5.4400    3.1200    8.4400   17.9200   21.7400    8.5000   93.6187   51.1500    8.3125   -0.0100    3.9400    5.7500    1.6800    3.4100    2.3400    1.8900    2.2200    2.0500   55.8100    0.2800    8.3981    8.5000    1.6500    0.2800    1.8900    8.3981   -0.0100   93.6187   51.1500    1.6500 
2881.0000   49.8500   49.8500   23.9000   55.6900 -999.0000    1.8900 -999.0000    2.2100    0.2779    1.0000    0.0762   -0.2000    5.2400    3.0200    8.1200   18.0000   24.2700    8.5000   94.5820   49.8500    8.2971   -0.0100    3.9700    6.3300    1.8700    3.3900    2.1300    1.8900    2.2100    1.9400   55.6900    0.2900    8.3859    8.5000    1.6000    0.2900    1.8900    8.3859   -0.0100   94.5820   49.8500    1.6000 
2881.5000   50.4700   50.4700   24.2500   55.5600 -999.0000    1.8700 -999.0000    2.2000    0.2848    1.0000    0.0793   -0.1900    5.1500    2.9800    7.9600   17.1500   26.1100    8.5000   96.2271   50.4700    8.3125   -0.0100    4.0700    6.4500    1.8800    3.4200    2.1600    1.8700    2.2000    1.8100   55.5600    0.3000    8.3737    8.5000    1.4700    0.3000    1.8700    8.3737   -0.0100   96.2271   50.4700    1.4700 
2882.0000   49.4900   49.4900   21.8400   55.4400 -999.0000    1.8500 -999.0000    2.2100    0.2851    1.0000    0.0577   -0.2000    5.1700    3.0100    7.9500   16.8000   27.7200    8.5000   97.9700   49.4900    8.3048   -0.0100    3.7100    6.6300    1.5600    4.2500    2.3800    1.8500    2.2100    1.7900   55.4400    0.3000    8.3737    8.5000    1.3400    0.3000    1.8500    8.3737   -0.0100   97.9700   49.4900    1.3400 
2882.5000   50.3400   50.3400   21.0500   55.5600 -999.0000    1.8500 -999.0000    2.2100    0.2902    1.0000    0.0506   -0.2100    5.3600    3.0800    8.1600   16.3200   27.4200    8.5000   99.1406   50.3400    8.2895   -0.0100    3.6800    7.0700    1.4100    5.0300    2.6200    1.8500    2.2100    1.7300   55.5600    0.3100    8.3737    8.5000    1.2450    0.3100    1.8500    8.3737   -0.0100   99.1406   50.3400    1.2450 
2883.0000   53.6500   53.6500   20.6700   55.3800 -999.0000    1.8700 -999.0000    2.2100    0.2872    1.0000    0.0472   -0.2000    5.2100    3.0500    7.7000   15.2800   24.2400    8.5000  100.1170   53.6500    8.3010   -0.0100    3.8000    7.9000    1.3300    5.9300    2.8500    1.8700    2.2100    1.8200   55.3800    0.3000    8.3737    8.5000    1.1500    0.3000    1.8700    8.3737   -0.0100  100.1170   53.6500    1.1500 
2883.5000   63.6400   63.6400   25.4000   55.1900 -999.0000    1.9100 -999.0000    2.2100    0.2823    1.0000    0.0896   -0.2000    5.0800    2.9600    7.0200   12.8200   21.4000    8.5000  100.1701   63.6400    8.3048   -0.0100    4.6900    8.0200    1.3300    6.0400    3.5400    1.9100    2.2100    1.8600   55.1900    0.3100    8.3737    8.5000    1.0900    0.3100    1.9100    8.3737   -0.0100  100.1701   63.6400    1.0900 
