~VERSION INFORMATION
 VERS.                 2.0:   CWLS LOG ASCII STANDARD - VERSION 2.0
 WRAP.                  NO:   SINGLE LINE PER DEPTH STEP
 CREA.                 9/4/2023 1:15:44 PM
#CREATED USING DSPetro VERSION 10ep.4.05.01 BY C4372838 ON 9/4/2023 1:15:44 PM
~WELL INFORMATION
#MNEM.UNIT       DATA                          DESCRIPTION MNEMONIC
#---------      ---------------------------   --------------------------
 STRT    .FT        2533.0000                 : START DEPTH
 STOP    .FT        3150.0000                 : STOP DEPTH
 STEP    .FT        0.5000                    : STEP VALUE
 NULL    .      -999.0000                     : NULL VALUE
 DATE    .      9/4/2023                      : LAS file Creation Date
 WELL   .      ABANICO-2                    : Well Name
 COMP   .      Kappa Resources Colombia,Ltd : Company
 FLD    .      UNKNOWN                      : Field
 STATE  .      UNKNOWN                      : State
 COUNT  .      Colombia                     : Country
 UWI    .      ABAN0002                     : Unique Well Identifier (UWI)
 LOC    .      UNKNOWN                      : Location
 RWS    .      -999                         : Def_Rw
 WST    .      -999                         : Def_Rwt
 CNTY   .      UNKNOWN                      : County
 PROV   .                                   : Province
 SRVC   .      UNKNOWN                      : Contractor
 GDAT   .      WGS 84                       : Geodatum
 LONG   .      0                            : Longitude
 LATI   .      0                            : Latitude
 COORDIN.                                   : Grid System
 XCOORD .      910597.860948                : X or East-West Coordinate
 YCOORD .      957980.305104                : Y or North-South Coordinate
~CURVE INFORMATION
#MNEM                 UNIT       API CODE   Curve Type Comments
#----------     --------------- ----------  ---------- -----------
 DEPTH         .FT                        : Depth       
 GRGC          .API                       : GammaRay    GR:UNKNOWN:r1:MAIN:v1
 GRGC          .API                       : GammaRay    GR:UNKNOWN:r1:MAIN:v1
 SP            .mV                        : SP          SP:UNKNOWN:r1:MAIN:v1
 K_CORE_2023   .                          :             
 PDPE          .b/elec                    : PEF         PEF:UNKNOWN:r1:MAIN:v1
 POR_CORE_2023 .                          :             
 DEN           .g/cm3                     : Density     RHOB:PETROPHYSIC:rC:NONE:v0 (auto-composite)
 PHIE          .Dec                       : Phi         
 SWT           .Dec                       : Sw          
 VCLmix        .Dec                       : Vcl         
 AHT60         .ohm.m                     : DeepRes     HDRS:UNKNOWN:r1:MAIN:v1
 BS            .inches                    : BitSize     BS:UNKNOWN:r1:MAIN:v1
 DTCO          .uSec/ft                   : Sonic       DT:UNKNOWN:rC:NONE:v0 (auto-composite)
 GR            .API                       : GammaRay    GR:PETROPHYSIC:rC:NONE:v0 (auto-composite)
 HDRA          .g/cm3                     : Drho        DRHO:UNKNOWN:r1:MAIN:v1
 PEFZ          .b/elec                    : PEF         PEF:UNKNOWN:r1:MAIN:v1
 RHOZ          .g/cm3                     : Density     RHOB:PETROPHYSIC:rC:NONE:v0 (auto-composite)
 RXOZ          .ohm.m                     : MicroRes    MSFL:UNKNOWN:r1:MAIN:v1
 SP            .mV                        : SP          SP:UNKNOWN:r1:MAIN:v1
 TNPH          .v/v_decimal               : Neutron     NPHI:UNKNOWN:r1:MAIN:v1
 CALI          .inches                    : Caliper     CALI:PETROPHYSIC:rC:NONE:v0 (auto-composite)
 BS            .inches                    : BitSize     BS:UNKNOWN:r1:MAIN:v1
 HDRS          .ohm.m                     : DeepRes     HDRS:PETROPHYSIC:rC:NONE:v0 (auto-composite)
 HMRS          .ohm.m                     :             HMRS:PETROPHYSIC:rC:NONE:v0 (auto-composite)
 NPHI          .v/v_decimal               : Neutron     NPHI:UNKNOWN:r1:MAIN:v1
 PEF           .b/elec                    : PEF         PEF:UNKNOWN:r1:MAIN:v1
 CALI          .inches                    : Caliper     CALI:UNKNOWN:r1:MAIN:v1
 DRHO          .g/cm3                     : Drho        DRHO:UNKNOWN:r1:MAIN:v1
 DT            .us/ft                     : Sonic       DT:UNKNOWN:r1:MAIN:v1
 GR            .API                       : GammaRay    GR:UNKNOWN:r1:MAIN:v1
 HDRS          .ohm.m                     : DeepRes     HDRS:UNKNOWN:r1:MAIN:v1
 HMRS          .UNKNOWN                   :             HMRS:UNKNOWN:r1:MAIN:v1
~A  DEPTH    GRGC      GRGC       SP    K_CORE_2~    PDPE   POR_CORE~    DEN       PHIE      SWT      VCLmix    AHT60       BS       DTCO       GR       HDRA      PEFZ      RHOZ      RXOZ       SP       TNPH      CALI       BS       HDRS      HMRS      NPHI      PEF       CALI      DRHO       DT        GR       HDRS      HMRS   
# ...
3020.5000   45.3800   45.3800  -34.9600 -999.0000    2.7123 -999.0000    2.4634    0.1716    1.0000    0.0642   10.2209    8.5000   85.4000   46.0169    0.0641    2.7123    2.4634    8.9073  -34.9600    0.2051 -999.0000    8.5000   10.2209   28.6658    0.2051    2.7123    9.8876    0.0641   82.3000   45.3800   10.2209   28.6658 
3021.0000   45.3800   45.3800  -37.1667 -999.0000    2.7470 -999.0000    2.4824    0.1687    1.0000    0.0642    7.3954    8.5000   85.4000   46.0169    0.0612    2.7470    2.4824    8.9073  -37.1667    0.2053 -999.0000    8.5000    7.3954   33.5119    0.2053    2.7470    9.8876    0.0612   82.3000   45.3800    7.3954   33.5119 
3021.5000   45.3800   45.3800  -39.4800 -999.0000    2.6455 -999.0000    2.4714    0.1706    1.0000    0.0642    5.7516    8.5000   85.4000   46.0169    0.0516    2.6455    2.4714    8.9073  -39.4800    0.2055 -999.0000    8.5000    5.7516   45.0142    0.2055    2.6455    9.8876    0.0516   82.3000   45.3800    5.7516   45.0142 
3022.0000   45.3800   45.3800  -41.7133 -999.0000    2.5140 -999.0000    2.4417    0.1760    1.0000    0.0642    4.6941    8.5000   85.4000   46.0169    0.0377    2.5140    2.4417    8.9073  -41.7133    0.2063 -999.0000    8.5000    4.6941   67.9943    0.2063    2.5140    9.8876    0.0377   82.3000   45.3800    4.6941   67.9943 
3022.5000   45.3800   45.3800  -44.0733 -999.0000    2.4027 -999.0000    2.4095    0.1809    1.0000    0.0642    3.9639    8.5000   85.4000   46.0169    0.0339    2.4027    2.4095    8.9073  -44.0733    0.2055 -999.0000    8.5000    3.9639   73.2230    0.2055    2.4027    9.8876    0.0339   82.3000   45.3800    3.9639   73.2230 
3023.0000   45.3800   45.3800  -45.7200 -999.0000    2.3389 -999.0000    2.4013    0.1818    1.0000    0.0642    3.4218    8.5000   85.4000   46.0169    0.0389    2.3389    2.4013    8.9073  -45.7200    0.2048 -999.0000    8.5000    3.4218   36.6060    0.2048    2.3389    9.8876    0.0389   82.3000   45.3800    3.4218   36.6060 
3023.5000   45.3800   45.3800  -46.3933 -999.0000    2.2824 -999.0000    2.4075    0.1810    1.0000    0.0642    2.9930    8.5000   85.4000   46.0169    0.0463    2.2824    2.4075    8.9073  -46.3933    0.2052 -999.0000    8.5000    2.9930   15.9035    0.2052    2.2824    9.8876    0.0463   82.3000   45.3800    2.9930   15.9035 
3024.0000   45.3800   45.3800  -46.7667 -999.0000    2.2218 -999.0000    2.4185    0.1792    1.0000    0.0642    2.6455    8.5000   85.4000   46.0169    0.0506    2.2218    2.4185    8.9073  -46.7667    0.2053 -999.0000    8.5000    2.6455    8.2519    0.2053    2.2218    9.8876    0.0506   82.3000   45.3800    2.6455    8.2519 
3024.5000   45.3800   45.3800  -46.6200 -999.0000    2.1655 -999.0000    2.4184    0.1785    1.0000    0.0642    2.3564    8.5000   85.4000   46.0169    0.0448    2.1655    2.4184    8.9073  -46.6200    0.2043 -999.0000    8.5000    2.3564    5.1360    0.2043    2.1655    9.8876    0.0448   82.3000   45.3800    2.3564    5.1360 
3025.0000 -999.0000 -999.0000  -46.7800 -999.0000    2.1294 -999.0000    2.4085    0.1806    1.0000    0.0642    2.1037    8.5000   85.4000   46.0169    0.0354    2.1294    2.4085    8.9073  -46.7800    0.2048 -999.0000    8.5000    2.1037    3.5238    0.2048    2.1294    9.8876    0.0354   82.3000 -999.0000    2.1037    3.5238 
3025.5000 -999.0000 -999.0000  -46.7667 -999.0000    2.1116 -999.0000    2.3943    0.1843    1.0000    0.0642    1.9696    8.5000   85.4000   46.0169    0.0251    2.1116    2.3943    8.9073  -46.7667    0.2067 -999.0000    8.5000    1.9696    2.8006    0.2067    2.1116    9.8876    0.0251   82.3000 -999.0000    1.9696    2.8006 
3026.0000 -999.0000 -999.0000  -47.1000 -999.0000    2.1086 -999.0000    2.3867    0.1852    1.0000    0.0642    2.5718    8.5000   85.4000   46.0169    0.0188    2.1086    2.3867    8.9073  -47.1000    0.2061 -999.0000    8.5000    2.5718    3.3595    0.2061    2.1086    9.8876    0.0188   82.3000 -999.0000    2.5718    3.3595 
3026.5000 -999.0000 -999.0000  -46.7533 -999.0000    2.1133 -999.0000    2.3829    0.1860    1.0000    0.0642    5.7837    8.5000   85.4000   46.0169    0.0166    2.1133    2.3829    8.9073  -46.7533    0.2062 -999.0000    8.5000    5.7837    7.8857    0.2062    2.1133    9.8876    0.0166   82.3000 -999.0000    5.7837    7.8857 
3027.0000 -999.0000 -999.0000  -46.5133 -999.0000    2.1189 -999.0000    2.3836 -999.0000 -999.0000    0.0642 -999.0000    8.5000   85.4000   46.0169    0.0165    2.1189    2.3836    8.9073  -46.5133    0.2071 -999.0000    8.5000 -999.0000 -999.0000    0.2071    2.1189    9.8876    0.0165   82.3000 -999.0000 -999.0000 -999.0000 
3027.5000 -999.0000 -999.0000  -46.6600 -999.0000    2.1200 -999.0000    2.3833 -999.0000 -999.0000    0.0642 -999.0000    8.5000   85.4000   46.0169    0.0148    2.1200    2.3833    8.9073  -46.6600    0.2065 -999.0000    8.5000 -999.0000 -999.0000    0.2065    2.1200    9.8876    0.0148   82.3000 -999.0000 -999.0000 -999.0000 
3028.0000 -999.0000 -999.0000  -46.9400 -999.0000    2.1291 -999.0000    2.3764 -999.0000 -999.0000    0.0642 -999.0000    8.5000   85.4000   46.0169    0.0116    2.1291    2.3764    8.9073  -46.9400    0.2064 -999.0000    8.5000 -999.0000 -999.0000    0.2064    2.1291    9.8876    0.0116   82.3000 -999.0000 -999.0000 -999.0000 
3028.5000 -999.0000 -999.0000  -46.9000 -999.0000    2.1502 -999.0000    2.3560 -999.0000 -999.0000    0.0642 -999.0000    8.5000   85.4000   46.0169    0.0146    2.1502    2.3560    8.9073  -46.9000    0.2082 -999.0000    8.5000 -999.0000 -999.0000    0.2082    2.1502    9.8876    0.0146   82.3000 -999.0000 -999.0000 -999.0000 
3029.0000 -999.0000 -999.0000  -46.9000 -999.0000    2.1828 -999.0000    2.3301 -999.0000 -999.0000    0.0642 -999.0000    8.5000   85.4000   46.0169    0.0288    2.1828    2.3301    8.9073  -46.9000    0.2213 -999.0000    8.5000 -999.0000 -999.0000    0.2213    2.1828    9.8876    0.0288   82.3000 -999.0000 -999.0000 -999.0000 
3029.5000 -999.0000 -999.0000  -46.9000 -999.0000    2.2128 -999.0000    2.3048 -999.0000 -999.0000    0.0642 -999.0000    8.5000   85.4000   46.0169    0.0557    2.2128    2.3048    8.9073  -46.9000    0.2217 -999.0000    8.5000 -999.0000 -999.0000    0.2217    2.2128    9.8876    0.0557   82.3000 -999.0000 -999.0000 -999.0000 
3030.0000 -999.0000 -999.0000  -46.9000 -999.0000    2.2279 -999.0000    2.2955 -999.0000 -999.0000    0.0642 -999.0000    8.5000   85.4000   46.0169    0.0871    2.2279    2.2955    8.9073  -46.9000    0.2219 -999.0000    8.5000 -999.0000 -999.0000    0.2219    2.2279    9.8876    0.0871   82.3000 -999.0000 -999.0000 -999.0000 
3030.5000 -999.0000 -999.0000  -46.9000 -999.0000    2.2322 -999.0000    2.2984 -999.0000 -999.0000    0.0642 -999.0000    8.5000   85.4000   46.0169    0.1120    2.2322    2.2984    8.9073  -46.9000    0.2220 -999.0000    8.5000 -999.0000 -999.0000    0.2220    2.2322    9.8876    0.1120   82.3000 -999.0000 -999.0000 -999.0000 
3031.0000 -999.0000 -999.0000  -46.9000 -999.0000    2.2404 -999.0000    2.3055 -999.0000 -999.0000    0.0642 -999.0000    8.5000   85.4000   46.0169    0.1282    2.2404    2.3055    8.9073  -46.9000    0.2220 -999.0000    8.5000 -999.0000 -999.0000    0.2220    2.2404    9.8876    0.1282   82.3000 -999.0000 -999.0000 -999.0000 
3031.5000 -999.0000 -999.0000  -46.9000 -999.0000    2.2475 -999.0000    2.3132 -999.0000 -999.0000    0.0642 -999.0000    8.5000   85.4000   46.0169    0.1339    2.2475    2.3132    8.9073  -46.9000    0.2220 -999.0000    8.5000 -999.0000 -999.0000    0.2220    2.2475    9.8876    0.1339   82.3000 -999.0000 -999.0000 -999.0000 
3032.0000 -999.0000 -999.0000  -46.9000 -999.0000    2.2530 -999.0000    2.3139 -999.0000 -999.0000    0.0642 -999.0000    8.5000   85.4000   46.0169    0.1357    2.2530    2.3139    8.9073  -46.9000    0.2221 -999.0000    8.5000 -999.0000 -999.0000    0.2221    2.2530    9.8876    0.1357   82.3000 -999.0000 -999.0000 -999.0000 
3032.5000 -999.0000 -999.0000  -46.9000 -999.0000 -999.0000 -999.0000    2.3131 -999.0000 -999.0000    0.0642 -999.0000 -999.0000   85.4000   46.0169 -999.0000 -999.0000    2.3131    8.9073  -46.9000 -999.0000 -999.0000 -999.0000 -999.0000 -999.0000 -999.0000 -999.0000    9.8876 -999.0000   82.3000 -999.0000 -999.0000 -999.0000 
