~VERSION INFORMATION
 VERS.                 2.0:   CWLS LOG ASCII STANDARD - VERSION 2.0
 WRAP.                  NO:   SINGLE LINE PER DEPTH STEP
 CREA.                 9/4/2023 1:15:46 PM
#CREATED USING DSPetro VERSION 10ep.4.05.01 BY C4372838 ON 9/4/2023 1:15:46 PM
~WELL INFORMATION
#MNEM.UNIT       DATA                          DESCRIPTION MNEMONIC
#---------      ---------------------------   --------------------------
 STRT    .FT        2741.0000                 : START DEPTH
 STOP    .FT        3159.5000                 : STOP DEPTH
 STEP    .FT        0.5000                    : STEP VALUE
 NULL    .      -999.0000                     : NULL VALUE
 DATE    .      9/4/2023                      : LAS file Creation Date
 WELL   .      ABANICO-34              : Well Name
 COMP   .      PACIFIC RUBIALES ENERGY : Company
 FLD    .      ABANICO                 : Field
 STATE  .      UNKNOWN                 : State
 COUNT  .      COLOMBIA                : Country
 API    .      ABAN0034                : API Number
 UWI    .      ABAN0034                : Unique Well Identifier (UWI)
 LOC    .      N                       : Location
 EPDAT  .      1017.000                : Elevation of Permanent Datum
 GL     .      1017.000                : GL Elevation
 RWS    .      -999                    : Def_Rw
 WST    .      -999                    : Def_Rwt
 CNTY   .      TOLIMA                  : County
 PROV   .      UNKNOWN                 : Province
 SRVC   .      WEATHERFORD             : Contractor
 GDAT   .      WGS 84                  : Geodatum
 LONG   .      -74.873885111279        : Longitude
 LATI   .      4.22623405562507        : Latitude
 COORDIN.                              : Grid System
 XCOORD .      911584.313002           : X or East-West Coordinate
 YCOORD .      959134.088873           : Y or North-South Coordinate
~CURVE INFORMATION
#MNEM                 UNIT       API CODE   Curve Type Comments
#----------     --------------- ----------  ---------- -----------
 DEPTH         .FT                        : Depth       
 GRGC          .GAPI                      : GammaRay    Gamma Ray
 GRGC          .GAPI                      : GammaRay    Gamma Ray
 SP            .MV                        : SP          Spontaneous Potential
 K_CORE_2023   .                          :             
 NPRS          .V/V                       :             Sandstone Neutron Por.
 PDPE          .B/E                       : PEF         PE
 POR_CORE_2023 .                          :             
 R85O          .OHMM                      :             Array Ind One Res 85
 R60O          .OHMM                      :             Array Ind One Res 60
 R40O          .OHMM                      :             Array Ind One Res 40
 R30O          .OHMM                      :             Array Ind One Res 30
 R20O          .OHMM                      :             Array Ind One Res 20
 DT46          .US/F                      : Sonic       4-6' Compensated Sonic
 DEN           .G/C3                      : Density     Compensated Density
 PHIE          .Dec                       : Phi         
 SWT           .Dec                       : Sw          
 VCLmix        .Dec                       : Vcl         
 BS            .inches                    : BitSize     Bit size
 DTCO          .US/F                      : Sonic       4-6' Compensated Sonic
 GR            .GAPI                      : GammaRay    Gamma Ray
 HDRA          .G/C3                      : Drho        Density Correction
 PEFZ          .B/E                       : PEF         PE
 RHOZ          .G/C3                      : Density     Compensated Density
 SP            .MV                        : SP          Spontaneous Potential
 TNPH          .V/V                       : Neutron     Neutron Posrosity
 BS            .inches                    : BitSize     Bit size
 NPHI          .V/V                       : Neutron     Neutron Posrosity
 PEF           .B/E                       : PEF         PE
 DRHO          .G/C3                      : Drho        Density Correction
 DT            .US/F                      : Sonic       4-6' Compensated Sonic
 GR            .GAPI                      : GammaRay    Gamma Ray
~A  DEPTH    GRGC      GRGC       SP    K_CORE_2~    NPRS      PDPE   POR_CORE~    R85O      R60O      R40O      R30O      R20O      DT46      DEN       PHIE      SWT      VCLmix      BS       DTCO       GR       HDRA      PEFZ      RHOZ       SP       TNPH       BS       NPHI      PEF       DRHO       DT        GR    
# ...
3003.5000   73.9810   73.9810   43.9470 -999.0000    0.2190    2.7300 -999.0000   28.1810 -999.0000   27.7190   27.3640   26.8330   73.8990    2.4330    0.0001    1.0000    0.3402    8.5000   73.8990   73.9810    0.0940    2.7300    2.4330   43.9470    0.2190    8.5000    0.2190    2.7300    0.0940   73.8990   73.9810 
3004.0000   76.1870   76.1870   43.1070 -999.0000    0.2110    2.7290 -999.0000   18.8490 -999.0000   18.5650   18.3710   18.0690   76.8570    2.4340    0.0001    1.0000    0.3200    8.5000   76.8570   76.1870    0.1080    2.7290    2.4340   43.1070    0.2110    8.5000    0.2110    2.7290    0.1080   76.8570   76.1870 
3004.5000   81.8860   81.8860   44.6210 -999.0000    0.2270    2.6130 -999.0000    9.5620 -999.0000    9.4390    9.3620    9.2370   80.6450    2.3980    0.1073    1.0000    0.3107    8.5000   80.6450   81.8860    0.1560    2.6130    2.3980   44.6210    0.2270    8.5000    0.2270    2.6130    0.1560   80.6450   81.8860 
3005.0000   85.0000   85.0000   46.7110 -999.0000    0.2520    2.4810 -999.0000    9.9720 -999.0000    9.8620    9.8030    9.7020   82.5110    2.3500    0.1367    1.0000    0.3083    8.5000   82.5110   85.0000    0.1970    2.4810    2.3500   46.7110    0.2520    8.5000    0.2520    2.4810    0.1970   82.5110   85.0000 
3005.5000   81.4570   81.4570   48.7390 -999.0000    0.2640    2.4010 -999.0000   11.1480 -999.0000   11.0410   11.0020   10.9240   81.5300    2.3230    0.1539    1.0000    0.3013    8.5000   81.5300   81.4570    0.2050    2.4010    2.3230   48.7390    0.2640    8.5000    0.2640    2.4010    0.2050   81.5300   81.4570 
3006.0000   76.6610   76.6610   49.4780 -999.0000    0.2570    2.4050 -999.0000   12.8210 -999.0000   12.7300   12.7080   12.6500   78.9140    2.3190    0.1601    1.0000    0.2765    8.5000   78.9140   76.6610    0.1840    2.4050    2.3190   49.4780    0.2570    8.5000    0.2570    2.4050    0.1840   78.9140   76.6610 
3006.5000   73.8310   73.8310   50.0300 -999.0000    0.2380    2.4050 -999.0000   14.5960 -999.0000   14.5270   14.5360   14.5150   76.7710    2.3510    0.1416    1.0000    0.2718    8.5000   76.7710   73.8310    0.1670    2.4050    2.3510   50.0300    0.2380    8.5000    0.2380    2.4050    0.1670   76.7710   73.8310 
3007.0000   74.6890   74.6890   50.9840 -999.0000    0.2230    2.3920 -999.0000   13.3050 -999.0000   13.2740   13.3060   13.3240   77.0890    2.3850    0.1197    1.0000    0.2809    8.5000   77.0890   74.6890    0.1560    2.3920    2.3850   50.9840    0.2230    8.5000    0.2230    2.3920    0.1560   77.0890   74.6890 
3007.5000   78.0060   78.0060   53.3950 -999.0000    0.2310    2.3920 -999.0000   11.4370 -999.0000   11.4360   11.4840   11.5290   79.6520    2.4090    0.0001    1.0000    0.3376    8.5000   79.6520   78.0060    0.1490    2.3920    2.4090   53.3950    0.2310    8.5000    0.2310    2.3920    0.1490   79.6520   78.0060 
3008.0000   80.7710   80.7710   56.2610 -999.0000    0.2570    2.4060 -999.0000   11.8000 -999.0000   11.8180   11.8930   11.9740   82.8410    2.4210    0.0001    1.0000    0.4255    8.5000   82.8410   80.7710    0.1430    2.4060    2.4210   56.2610    0.2570    8.5000    0.2570    2.4060    0.1430   82.8410   80.7710 
3008.5000   82.8610   82.8610   59.0430 -999.0000    0.2900    2.4630 -999.0000   11.7510 -999.0000   11.7890   11.8840   11.9950   85.8330    2.4230    0.0001    1.0000    0.5177    8.5000   85.8330   82.8610    0.1360    2.4630    2.4230   59.0430    0.2900    8.5000    0.2900    2.4630    0.1360   85.8330   82.8610 
3009.0000   84.0620   84.0620   60.8430 -999.0000    0.3160    2.5370 -999.0000   11.2480 -999.0000   11.3000   11.4110   11.5470   88.2260    2.4240    0.0001    1.0000    0.5896    8.5000   88.2260   84.0620    0.1330    2.5370    2.4240   60.8430    0.3160    8.5000    0.3160    2.5370    0.1330   88.2260   84.0620 
3009.5000   85.0400   85.0400   61.8370 -999.0000    0.3280    2.5790 -999.0000   11.4170 -999.0000   11.4840   11.6180   11.7870   90.0200    2.4180    0.0001    1.0000    0.6133    8.5000   90.0200   85.0400    0.1390    2.5790    2.4180   61.8370    0.3280    8.5000    0.3280    2.5790    0.1390   90.0200   85.0400 
3010.0000   85.9630   85.9630   62.4540 -999.0000    0.3300    2.6020 -999.0000   11.7770 -999.0000   11.8580   12.0170   12.2190   90.6330    2.4030    0.0001    1.0000    0.5968    8.5000   90.6330   85.9630    0.1550    2.6020    2.4030   62.4540    0.3300    8.5000    0.3300    2.6020    0.1550   90.6330   85.9630 
3010.5000   85.8400   85.8400   62.6250 -999.0000    0.3250    2.6150 -999.0000   11.4570 -999.0000   11.5440   11.7160   11.9390   89.9660    2.3870    0.0001    1.0000    0.5599    8.5000   89.9660   85.8400    0.1830    2.6150    2.3870   62.6250    0.3250    8.5000    0.3250    2.6150    0.1830   89.9660   85.8400 
3011.0000   85.0810   85.0810   62.8690 -999.0000    0.3190    2.6090 -999.0000   11.4240 -999.0000   11.5170   11.7070   11.9540   89.2130    2.3800    0.0001    1.0000    0.5334    8.5000   89.2130   85.0810    0.2110    2.6090    2.3800   62.8690    0.3190    8.5000    0.3190    2.6090    0.2110   89.2130   85.0810 
3011.5000   82.3390   82.3390   63.2090 -999.0000    0.3150    2.6130 -999.0000   11.3890 -999.0000   11.4860   11.6890   11.9570   88.7480    2.3750    0.0001    1.0000    0.5153    8.5000   88.7480   82.3390    0.2140    2.6130    2.3750   63.2090    0.3150    8.5000    0.3150    2.6130    0.2140   88.7480   82.3390 
3012.0000   79.4330   79.4330   63.4010 -999.0000    0.3120    2.6180 -999.0000   11.5350 -999.0000   11.6350   11.8560   12.1480   88.1950    2.3800    0.0001    1.0000    0.5145    8.5000   88.1950   79.4330    0.2050    2.6180    2.3800   63.4010    0.3120    8.5000    0.3120    2.6180    0.2050   88.1950   79.4330 
3012.5000   77.7990   77.7990   63.2390 -999.0000    0.3090    2.6650 -999.0000   11.6030 -999.0000   11.7060   11.9380   12.2490   87.0530    2.3900    0.0001    1.0000    0.5210    8.5000   87.0530   77.7990    0.1970    2.6650    2.3900   63.2390    0.3090    8.5000    0.3090    2.6650    0.1970   87.0530   77.7990 
3013.0000   77.6720   77.6720   63.0080 -999.0000    0.3040    2.7630 -999.0000   12.8600 -999.0000   12.9750   13.2430   13.6040   85.2290    2.3980    0.0001    1.0000    0.5191    8.5000   85.2290   77.6720    0.1910    2.7630    2.3980   63.0080    0.3040    8.5000    0.3040    2.7630    0.1910   85.2290   77.6720 
3013.5000   78.8440   78.8440   62.8060 -999.0000    0.2980    2.8330 -999.0000   15.3350 -999.0000   15.4780   15.8070   16.2590   83.4630    2.4200    0.0001    1.0000    0.5350    8.5000   83.4630   78.8440    0.1970    2.8330    2.4200   62.8060    0.2980    8.5000    0.2980    2.8330    0.1970   83.4630   78.8440 
3014.0000   78.6120   78.6120   62.9340 -999.0000    0.2920    2.8400 -999.0000   15.4550 -999.0000   15.6060   15.9440   16.4130   82.7270    2.4330    0.0001    1.0000    0.5378    8.5000   82.7270   78.6120    0.2010    2.8400    2.4330   62.9340    0.2920    8.5000    0.2920    2.8400    0.2010   82.7270   78.6120 
3014.5000   77.2710   77.2710   62.9900 -999.0000    0.2880    2.8020 -999.0000   15.1550 -999.0000   15.3110   15.6490   16.1220   82.8920    2.4280    0.0001    1.0000    0.5196    8.5000   82.8920   77.2710    0.1990    2.8020    2.4280   62.9900    0.2880    8.5000    0.2880    2.8020    0.1990   82.8920   77.2710 
3015.0000   76.3420   76.3420   63.1990 -999.0000    0.2870    2.7970 -999.0000   15.2210 -999.0000   15.3890   15.7320   16.2200   83.5410    2.4200    0.0001    1.0000    0.5052    8.5000   83.5410   76.3420    0.1950    2.7970    2.4200   63.1990    0.2870    8.5000    0.2870    2.7970    0.1950   83.5410   76.3420 
3015.5000   77.2590   77.2590   63.4950 -999.0000    0.2900    2.8350 -999.0000   14.6240 -999.0000   14.7980   15.1290   15.6050   84.4540    2.4180    0.0001    1.0000    0.5104    8.5000   84.4540   77.2590    0.1930    2.8350    2.4180   63.4950    0.2900    8.5000    0.2900    2.8350    0.1930   84.4540   77.2590 
