~VERSION INFORMATION
 VERS.                 2.0:   CWLS LOG ASCII STANDARD - VERSION 2.0
 WRAP.                  NO:   SINGLE LINE PER DEPTH STEP
 CREA.                 9/4/2023 1:15:44 PM
#CREATED USING DSPetro VERSION 10ep.4.05.01 BY C4372838 ON 9/4/2023 1:15:44 PM
~WELL INFORMATION
#MNEM.UNIT       DATA                          DESCRIPTION MNEMONIC
#---------      ---------------------------   --------------------------
 STRT    .FT        2533.0000                 : START DEPTH
 STOP    .FT        3150.0000                 : STOP DEPTH
 STEP    .FT        0.5000                    : STEP VALUE
 NULL    .      -999.0000                     : NULL VALUE
 DATE    .      9/4/2023                      : LAS file Creation Date
 WELL   .      ABANICO-2                    : Well Name
 COMP   .      Kappa Resources Colombia,Ltd : Company
 FLD    .      UNKNOWN                      : Field
 STATE  .      UNKNOWN                      : State
 COUNT  .      Colombia                     : Country
 UWI    .      ABAN0002                     : Unique Well Identifier (UWI)
 LOC    .      UNKNOWN                      : Location
 RWS    .      -999                         : Def_Rw
 WST    .      -999                         : Def_Rwt
 CNTY   .      UNKNOWN                      : County
 PROV   .                                   : Province
 SRVC   .      UNKNOWN                      : Contractor
 GDAT   .      WGS 84                       : Geodatum
 LONG   .      0                            : Longitude
 LATI   .      0                            : Latitude
 COORDIN.                                   : Grid System
 XCOORD .      910597.860948                : X or East-West Coordinate
 YCOORD .      957980.305104                : Y or North-South Coordinate
~CURVE INFORMATION
#MNEM                 UNIT       API CODE   Curve Type Comments
#----------     --------------- ----------  ---------- -----------
 DEPTH         .FT                        : Depth       
 GRGC          .API                       : GammaRay    GR:UNKNOWN:r1:MAIN:v1
 GRGC          .API                       : GammaRay    GR:UNKNOWN:r1:MAIN:v1
 SP            .mV                        : SP          SP:UNKNOWN:r1:MAIN:v1
 K_CORE_2023   .                          :             
 PDPE          .b/elec                    : PEF         PEF:UNKNOWN:r1:MAIN:v1
 POR_CORE_2023 .                          :             
 DEN           .g/cm3                     : Density     RHOB:PETROPHYSIC:rC:NONE:v0 (auto-composite)
 PHIE          .Dec                       : Phi         
 SWT           .Dec                       : Sw          
 VCLmix        .Dec                       : Vcl         
 AHT60         .ohm.m                     : DeepRes     HDRS:UNKNOWN:r1:MAIN:v1
 BS            .inches                    : BitSize     BS:UNKNOWN:r1:MAIN:v1
 DTCO          .uSec/ft                   : Sonic       DT:UNKNOWN:rC:NONE:v0 (auto-composite)
 GR            .API                       : GammaRay    GR:PETROPHYSIC:rC:NONE:v0 (auto-composite)
 HDRA          .g/cm3                     : Drho        DRHO:UNKNOWN:r1:MAIN:v1
 PEFZ          .b/elec                    : PEF         PEF:UNKNOWN:r1:MAIN:v1
 RHOZ          .g/cm3                     : Density     RHOB:PETROPHYSIC:rC:NONE:v0 (auto-composite)
 RXOZ          .ohm.m                     : MicroRes    MSFL:UNKNOWN:r1:MAIN:v1
 SP            .mV                        : SP          SP:UNKNOWN:r1:MAIN:v1
 TNPH          .v/v_decimal               : Neutron     NPHI:UNKNOWN:r1:MAIN:v1
 CALI          .inches                    : Caliper     CALI:PETROPHYSIC:rC:NONE:v0 (auto-composite)
 BS            .inches                    : BitSize     BS:UNKNOWN:r1:MAIN:v1
 HDRS          .ohm.m                     : DeepRes     HDRS:PETROPHYSIC:rC:NONE:v0 (auto-composite)
 HMRS          .ohm.m                     :             HMRS:PETROPHYSIC:rC:NONE:v0 (auto-composite)
 NPHI          .v/v_decimal               : Neutron     NPHI:UNKNOWN:r1:MAIN:v1
 PEF           .b/elec                    : PEF         PEF:UNKNOWN:r1:MAIN:v1
 CALI          .inches                    : Caliper     CALI:UNKNOWN:r1:MAIN:v1
 DRHO          .g/cm3                     : Drho        DRHO:UNKNOWN:r1:MAIN:v1
 DT            .us/ft                     : Sonic       DT:UNKNOWN:r1:MAIN:v1
 GR            .API                       : GammaRay    GR:UNKNOWN:r1:MAIN:v1
 HDRS          .ohm.m                     : DeepRes     HDRS:UNKNOWN:r1:MAIN:v1
 HMRS          .UNKNOWN                   :             HMRS:UNKNOWN:r1:MAIN:v1
~A  DEPTH    GRGC      GRGC       SP    K_CORE_2~    PDPE   POR_CORE~    DEN       PHIE      SWT      VCLmix    AHT60       BS       DTCO       GR       HDRA      PEFZ      RHOZ      RXOZ       SP       TNPH      CALI       BS       HDRS      HMRS      NPHI      PEF       CALI      DRHO       DT        GR       HDRS      HMRS   
# ...
2658.0000   36.3700   36.3700  -34.8867 -999.0000    2.1923 -999.0000    2.1999    0.2505    0.4667    0.1754   44.0256    8.5000   97.9645   43.9075    0.0029    2.1923    2.1999   82.4560  -34.8867    0.3378 -999.0000    8.5000   44.0256   47.3797    0.3378    2.1923    9.9225    0.0029   97.5297   36.3700   44.0256   47.3797 
2658.5000   36.0751   36.0751  -36.3267 -999.0000    2.1746 -999.0000    2.2008    0.2496    0.4909    0.1818   40.4052    8.5000  100.0965   44.4511    0.0106    2.1746    2.2008   67.0189  -36.3267    0.3392 -999.0000    8.5000   40.4052   43.0536    0.3392    2.1746    9.9444    0.0106  100.7922   36.0751   40.4052   43.0536 
2659.0000   36.7293   36.7293  -37.8400 -999.0000    2.1094 -999.0000    2.1946    0.2457    0.4687    0.2018   42.9960    8.5000   99.3951   46.1559    0.0136    2.1094    2.1946   71.8248  -37.8400    0.3365 -999.0000    8.5000   42.9960   44.2578    0.3365    2.1094    9.9477    0.0136  101.2016   36.7293   42.9960   44.2578 
2659.5000   38.3050   38.3050  -39.4200 -999.0000    2.0453 -999.0000    2.1817    0.2541    0.4264    0.1864   48.7102    8.5000  101.1130   44.8474    0.0103    2.0453    2.1817   87.9632  -39.4200    0.3386 -999.0000    8.5000   48.7102   49.1878    0.3386    2.0453    9.9477    0.0103   98.9094   38.3050   48.7102   49.1878 
2660.0000   39.5213   39.5213  -40.4733 -999.0000    2.0190 -999.0000    2.1695    0.2597    0.4009    0.1818   52.2055    8.5000  103.5162   44.4511    0.0050    2.0190    2.1695   82.6771  -40.4733    0.3401 -999.0000    8.5000   52.2055   51.9977    0.3401    2.0190    9.9487    0.0050  100.1000   39.5213   52.2055   51.9977 
2660.5000   39.9636   39.9636  -41.1200 -999.0000    2.0211 -999.0000    2.1624    0.2559    0.3917    0.2021   52.6422    8.5000  107.3546   46.1743    0.0003    2.0211    2.1624   58.6424  -41.1200    0.3343 -999.0000    8.5000   52.6422   51.6901    0.3343    2.0211    9.9537    0.0003  103.4859   39.9636   52.6422   51.6901 
2661.0000   39.8715   39.8715  -41.7133 -999.0000    2.0260 -999.0000    2.1628    0.2570    0.3834    0.2054   53.4474    8.5000  109.0470   46.4599    0.0012    2.0260    2.1628   53.7371  -41.7133    0.3404 -999.0000    8.5000   53.4474   53.3430    0.3404    2.0260    9.9542    0.0012  106.4094   39.8715   53.4474   53.3430 
2661.5000   39.3923   39.3923  -42.5733 -999.0000    1.9953 -999.0000    2.1670    0.2563    0.3633    0.1973   57.8449    8.5000   95.4903   45.7688    0.0036    1.9953    2.1670   67.1603  -42.5733    0.3419 -999.0000    8.5000   57.8449   60.4001    0.3419    1.9953    9.9487    0.0036  111.1078   39.3923   57.8449   60.4001 
2662.0000   39.2818   39.2818  -44.2600 -999.0000    1.9356 -999.0000    2.1689    0.2533    0.3186    0.1975   65.7854    8.5000   95.4929   45.7873    0.0048    1.9356    2.1689  137.3089  -44.2600    0.3387 -999.0000    8.5000   65.7854   73.0940    0.3387    1.9356    9.9477    0.0048  113.1906   39.2818   65.7854   73.0940 
2662.5000   39.4476   39.4476  -46.6400    2.1700    1.8734    0.2936    2.1696    0.2516    0.2947    0.1815   73.2791    8.5000  110.6829   44.4235    0.0039    1.8734    2.1696  172.7405  -46.6400    0.3211 -999.0000    8.5000   73.2791   87.8037    0.3211    1.8734    9.9449    0.0039  114.4531   39.4476   73.2791   87.8037 
2663.0000   39.3739   39.3739  -49.1467 -999.0000    1.8114 -999.0000    2.1652    0.2538    0.2702    0.1703   80.0619    8.5000  109.4489   43.4744    0.0021    1.8114    2.1652  171.5876  -49.1467    0.3153 -999.0000    8.5000   80.0619  100.7920    0.3153    1.8114    9.9509    0.0021  114.7078   39.3739   80.0619  100.7920 
2663.5000   39.9636   39.9636  -51.3933  363.2300    1.7720    0.3000    2.1601    0.2580    0.2510    0.1566   87.3524    8.5000  106.3047   42.3134    0.0031    1.7720    2.1601  177.9453  -51.3933    0.3127 -999.0000    8.5000   87.3524  109.9118    0.3127    1.7720    9.9526    0.0031  110.7656   39.9636   87.3524  109.9118 
2664.0000   40.9865   40.9865  -53.1800   14.4100    1.7569    0.2619    2.1536    0.2641    0.2407    0.1493   91.2166    8.5000  108.9369   41.6868    0.0073    1.7569    2.1536  145.4786  -53.1800    0.3203 -999.0000    8.5000   91.2166  113.6420    0.3203    1.7569    9.9520    0.0073  107.0422   40.9865   91.2166  113.6420 
2664.5000   43.2256   43.2256  -54.6000  755.9600    1.7610    0.3110    2.1493    0.2688    0.2495    0.1353   93.5798    8.5000  112.2413   40.4981    0.0130    1.7610    2.1493  110.9016  -54.6000    0.3177 -999.0000    8.5000   93.5798  117.1774    0.3177    1.7610    9.9493    0.0130  108.0359   43.2256   93.5798  117.1774 
2665.0000   43.9075   43.9075  -56.0200 -999.0000    1.7804 -999.0000    2.1488    0.2710    0.2387    0.1237  100.9065    8.5000  111.9362   39.5121    0.0144    1.7804    2.1488  117.2364  -56.0200    0.3157 -999.0000    8.5000  100.9065  128.6529    0.3157    1.7804    9.9460    0.0144  111.9875   43.9075  100.9065  128.6529 
2665.5000   45.2712   45.2712  -57.2467  309.0800    1.7875    0.2890    2.1498    0.2634    0.1573    0.1396  113.7505    8.5000  110.3874   40.8667    0.0118    1.7875    2.1498  149.8624  -57.2467    0.3120 -999.0000    8.5000  113.7505  146.8183    0.3120    1.7875    9.9548    0.0118  111.7391   45.2712  113.7505  146.8183 
2666.0000   44.5341   44.5341  -58.3200 -999.0000    1.7814 -999.0000    2.1515    0.2621    0.1616    0.1434  128.1664    8.5000  110.1493   41.1892    0.0046    1.7814    2.1515  159.7087  -58.3200    0.3127 -999.0000    8.5000  128.1664  164.0780    0.3127    1.7814    9.9487    0.0046  109.1797   44.5341  128.1664  164.0780 
2666.5000   42.8939   42.8939  -59.0867  555.3300    1.7858    0.2960    2.1506    0.2649    0.1536    0.1364  139.4861    8.5000  109.6899   42.0738   -0.0026    1.7858    2.1506  163.7633  -59.0867    0.3161 -999.0000    8.5000  139.4861  172.8755    0.3161    1.7858    9.9537   -0.0026  109.5141   42.8939  139.4861  172.8755 
2667.0000   43.3546   43.3546  -59.4933    3.3000    1.8003    0.3067    2.1485    0.2686    0.1452    0.1294  149.4952    8.5000  109.2801   42.5437   -0.0071    1.8003    2.1485  198.5237  -59.4933    0.3211 -999.0000    8.5000  149.4952  178.6294    0.3211    1.8003    9.9722   -0.0071  108.6266   43.3546  149.4952  178.6294 
2667.5000   42.8662   42.8662  -59.8200  210.8100    1.8330    0.2880    2.1452    0.2706    0.1389    0.1238  156.6228    8.5000  107.3019   41.9264   -0.0081    1.8330    2.1452  262.3638  -59.8200    0.3194 -999.0000    8.5000  156.6228  184.7082    0.3194    1.8330    9.9996   -0.0081  108.0984   42.8662  156.6228  184.7082 
2668.0000   43.0137   43.0137  -60.2533 -999.0000    1.8630 -999.0000    2.1461    0.2699    0.1319    0.1163  158.0048    8.5000  105.2762   41.5854   -0.0024    1.8630    2.1461  362.1741  -60.2533    0.3121 -999.0000    8.5000  158.0048  182.5131    0.3121    1.8630   10.0192   -0.0024  108.4703   43.0137  158.0048  182.5131 
2668.5000   45.2897   45.2897  -60.8933  703.5200    1.8852    0.2960    2.1505    0.2715    0.1204    0.1053  162.1180    8.5000  104.4736   44.2300    0.0051    1.8852    2.1505  370.7795  -60.8933    0.3151 -999.0000    8.5000  162.1180  173.7737    0.3151    1.8852   10.0247    0.0051  106.2953   45.2897  162.1180  173.7737 
2669.0000   46.9391   46.9391  -61.5400 -999.0000    1.8964 -999.0000    2.1586    0.2722    0.1089    0.0941  168.7010    8.5000  104.9527   43.7508    0.0130    1.8964    2.1586  299.4323  -61.5400    0.3193 -999.0000    8.5000  168.7010  174.3065    0.3193    1.8964   10.0269    0.0130  104.9703   46.9391  168.7010  174.3065 
2669.5000   48.1738   48.1738  -62.0600  464.5900    1.8825    0.2940    2.1687    0.2711    0.1379    0.0852  168.7877    8.5000  105.3662   43.2348    0.0152    1.8825    2.1687  237.0458  -62.0600    0.3179 -999.0000    8.5000  168.7877  180.4835    0.3179    1.8825   10.0334    0.0152  105.1937   48.1738  168.7877  180.4835 
2670.0000   48.0725   48.0725  -62.4400 -999.0000    1.8633 -999.0000    2.1753    0.2685    0.1533    0.0786  172.9482    8.5000  100.6545   43.8061    0.0121    1.8633    2.1753  206.2379  -62.4400    0.3100 -999.0000    8.5000  172.9482  187.8303    0.3100    1.8633   10.0290    0.0121  105.3516   48.0725  172.9482  187.8303 
