~VERSION INFORMATION
 VERS.                 2.0:   CWLS LOG ASCII STANDARD - VERSION 2.0
 WRAP.                  NO:   SINGLE LINE PER DEPTH STEP
 CREA.                 9/4/2023 1:15:44 PM
#CREATED USING DSPetro VERSION 10ep.4.05.01 BY C4372838 ON 9/4/2023 1:15:44 PM
~WELL INFORMATION
#MNEM.UNIT       DATA                          DESCRIPTION MNEMONIC
#---------      ---------------------------   --------------------------
 STRT    .FT        2533.0000                 : START DEPTH
 STOP    .FT        3150.0000                 : STOP DEPTH
 STEP    .FT        0.5000                    : STEP VALUE
 NULL    .      -999.0000                     : NULL VALUE
 DATE    .      9/4/2023                      : LAS file Creation Date
 WELL   .      ABANICO-2                    : Well Name
 COMP   .      Kappa Resources Colombia,Ltd : Company
 FLD    .      UNKNOWN                      : Field
 STATE  .      UNKNOWN                      : State
 COUNT  .      Colombia                     : Country
 UWI    .      ABAN0002                     : Unique Well Identifier (UWI)
 LOC    .      UNKNOWN                      : Location
 RWS    .      -999                         : Def_Rw
 WST    .      -999                         : Def_Rwt
 CNTY   .      UNKNOWN                      : County
 PROV   .                                   : Province
 SRVC   .      UNKNOWN                      : Contractor
 GDAT   .      WGS 84                       : Geodatum
 LONG   .      0                            : Longitude
 LATI   .      0                            : Latitude
 COORDIN.                                   : Grid System
 XCOORD .      910597.860948                : X or East-West Coordinate
 YCOORD .      957980.305104                : Y or North-South Coordinate
~CURVE INFORMATION
#MNEM                 UNIT       API CODE   Curve Type Comments
#----------     --------------- ----------  ---------- -----------
 DEPTH         .FT                        : Depth       
 GRGC          .API                       : GammaRay    GR:UNKNOWN:r1:MAIN:v1
 GRGC          .API                       : GammaRay    GR:UNKNOWN:r1:MAIN:v1
 SP            .mV                        : SP          SP:UNKNOWN:r1:MAIN:v1
 K_CORE_2023   .                          :             
 PDPE          .b/elec                    : PEF         PEF:UNKNOWN:r1:MAIN:v1
 POR_CORE_2023 .                          :             
 DEN           .g/cm3                     : Density     RHOB:PETROPHYSIC:rC:NONE:v0 (auto-composite)
 PHIE          .Dec                       : Phi         
 SWT           .Dec                       : Sw          
 VCLmix        .Dec                       : Vcl         
 AHT60         .ohm.m                     : DeepRes     HDRS:UNKNOWN:r1:MAIN:v1
 BS            .inches                    : BitSize     BS:UNKNOWN:r1:MAIN:v1
 DTCO          .uSec/ft                   : Sonic       DT:UNKNOWN:rC:NONE:v0 (auto-composite)
 GR            .API                       : GammaRay    GR:PETROPHYSIC:rC:NONE:v0 (auto-composite)
 HDRA          .g/cm3                     : Drho        DRHO:UNKNOWN:r1:MAIN:v1
 PEFZ          .b/elec                    : PEF         PEF:UNKNOWN:r1:MAIN:v1
 RHOZ          .g/cm3                     : Density     RHOB:PETROPHYSIC:rC:NONE:v0 (auto-composite)
 RXOZ          .ohm.m                     : MicroRes    MSFL:UNKNOWN:r1:MAIN:v1
 SP            .mV                        : SP          SP:UNKNOWN:r1:MAIN:v1
 TNPH          .v/v_decimal               : Neutron     NPHI:UNKNOWN:r1:MAIN:v1
 CALI          .inches                    : Caliper     CALI:PETROPHYSIC:rC:NONE:v0 (auto-composite)
 BS            .inches                    : BitSize     BS:UNKNOWN:r1:MAIN:v1
 HDRS          .ohm.m                     : DeepRes     HDRS:PETROPHYSIC:rC:NONE:v0 (auto-composite)
 HMRS          .ohm.m                     :             HMRS:PETROPHYSIC:rC:NONE:v0 (auto-composite)
 NPHI          .v/v_decimal               : Neutron     NPHI:UNKNOWN:r1:MAIN:v1
 PEF           .b/elec                    : PEF         PEF:UNKNOWN:r1:MAIN:v1
 CALI          .inches                    : Caliper     CALI:UNKNOWN:r1:MAIN:v1
 DRHO          .g/cm3                     : Drho        DRHO:UNKNOWN:r1:MAIN:v1
 DT            .us/ft                     : Sonic       DT:UNKNOWN:r1:MAIN:v1
 GR            .API                       : GammaRay    GR:UNKNOWN:r1:MAIN:v1
 HDRS          .ohm.m                     : DeepRes     HDRS:UNKNOWN:r1:MAIN:v1
 HMRS          .UNKNOWN                   :             HMRS:UNKNOWN:r1:MAIN:v1
~A  DEPTH    GRGC      GRGC       SP    K_CORE_2~    PDPE   POR_CORE~    DEN       PHIE      SWT      VCLmix    AHT60       BS       DTCO       GR       HDRA      PEFZ      RHOZ      RXOZ       SP       TNPH      CALI       BS       HDRS      HMRS      NPHI      PEF       CALI      DRHO       DT        GR       HDRS      HMRS   
# ...
2858.0000   57.7939   57.7939   -8.5200 -999.0000    3.0909 -999.0000    2.4527    0.0001    1.0000    0.5347   14.9546    8.5000   91.8819   67.1559    0.0536    3.0909    2.4527   16.4672   -8.5200    0.3333 -999.0000    8.5000   14.9546   15.0503    0.3333    3.0909   10.0416    0.0536   91.5125   57.7939   14.9546   15.0503 
2858.5000   60.7057   60.7057   -8.4600 -999.0000    3.1353 -999.0000    2.4504    0.0001    1.0000    0.4946   14.9464    8.5000   91.8465   67.5245    0.0456    3.1353    2.4504   15.5038   -8.4600    0.3240 -999.0000    8.5000   14.9464   15.0224    0.3240    3.1353   10.0493    0.0456   91.4109   60.7057   14.9464   15.0224 
2859.0000   65.2485   65.2485   -8.8733 -999.0000    3.1507 -999.0000    2.4510    0.0001    1.0000    0.4824   14.9693    8.5000   90.3632   67.4876    0.0398    3.1507    2.4510   15.3481   -8.8733    0.3199 -999.0000    8.5000   14.9693   14.9786    0.3199    3.1507   10.0613    0.0398   92.4422   65.2485   14.9693   14.9786 
2859.5000   69.6162   69.6162   -8.9533 -999.0000    3.1557 -999.0000    2.4570    0.0001    1.0000    0.4865   15.0632    8.5000   89.0311   69.3029    0.0361    3.1557    2.4570   15.7703   -8.9533    0.3153 -999.0000    8.5000   15.0632   15.1051    0.3153    3.1557   10.0575    0.0361   90.9094   69.6162   15.0632   15.1051 
2860.0000   71.8277   71.8277   -8.8667 -999.0000    3.1568 -999.0000    2.4672    0.0001    1.0000    0.5508   15.1481    8.5000   87.7851   71.7171    0.0330    3.1568    2.4672   16.3886   -8.8667    0.3202 -999.0000    8.5000   15.1481   15.4287    0.3202    3.1568   10.0514    0.0330   88.5016   71.8277   15.1481   15.4287 
2860.5000   70.8509   70.8509   -8.3267 -999.0000    3.1610 -999.0000    2.4782    0.0001    1.0000    0.5629   15.3077    8.5000   87.4080   72.6386    0.0296    3.1610    2.4782   17.6985   -8.3267    0.3136 -999.0000    8.5000   15.3077   15.7832    0.3136    3.1610   10.0514    0.0296   88.0563   70.8509   15.3077   15.7832 
2861.0000   69.7820   69.7820   -8.1133 -999.0000    3.1790 -999.0000    2.4828    0.0001    1.0000    0.5533   15.6036    8.5000   87.2186   68.0773    0.0262    3.1790    2.4828   18.7132   -8.1133    0.3065 -999.0000    8.5000   15.6036   16.0806    0.3065    3.1790   10.0558    0.0262   88.5437   69.7820   15.6036   16.0806 
2861.5000   65.0734   65.0734   -8.0933 -999.0000    3.1992 -999.0000    2.4839    0.0001    1.0000    0.5314   16.0134    8.5000   87.4466   64.4560    0.0248    3.1992    2.4839   19.2518   -8.0933    0.2990 -999.0000    8.5000   16.0134   16.4066    0.2990    3.1992   10.0575    0.0248   87.9406   65.0734   16.0134   16.4066 
2862.0000   64.2994   64.2994   -8.2667 -999.0000    3.2270 -999.0000    2.4813    0.0001    1.0000    0.5210   16.3234    8.5000   88.8642   62.6868    0.0271    3.2270    2.4813   19.8517   -8.2667    0.2983 -999.0000    8.5000   16.3234   16.7099    0.2983    3.2270   10.0580    0.0271   88.2484   64.2994   16.3234   16.7099 
2862.5000   63.5714   63.5714   -8.3333 -999.0000    3.2417 -999.0000    2.4830    0.0001    1.0000    0.5350   16.3595    8.5000   89.5351   60.6596    0.0322    3.2417    2.4830   19.5609   -8.3333    0.3009 -999.0000    8.5000   16.3595   16.7871    0.3009    3.2417   10.0711    0.0322   87.9531   63.5714   16.3595   16.7871 
2863.0000   62.7421   62.7421   -8.1333 -999.0000    3.2316 -999.0000    2.4869    0.0001    1.0000    0.4929   16.1261    8.5000   89.3264   58.0795    0.0336    3.2316    2.4869   18.8157   -8.1333    0.2983 -999.0000    8.5000   16.1261   16.5455    0.2983    3.2316   10.0848    0.0336   86.4656   62.7421   16.1261   16.5455 
2863.5000   61.1388   61.1388   -8.3067 -999.0000    3.2047 -999.0000    2.4892    0.0001    1.0000    0.4865   15.9710    8.5000   87.5892   57.7017    0.0339    3.2047    2.4892   17.9098   -8.3067    0.3056 -999.0000    8.5000   15.9710   16.3796    0.3056    3.2047   10.0979    0.0339   87.5641   61.1388   15.9710   16.3796 
2864.0000   63.3226   63.3226   -8.6133 -999.0000    3.1778 -999.0000    2.4899    0.0001    1.0000    0.4926   16.3189    8.5000   87.7473   58.0611    0.0328    3.1778    2.4899   17.6080   -8.6133    0.3044 -999.0000    8.5000   16.3189   16.6550    0.3044    3.1778   10.0837    0.0328   89.1062   63.3226   16.3189   16.6550 
2864.5000   63.6267   63.6267   -8.7933 -999.0000    3.1758 -999.0000    2.4868    0.0001    1.0000    0.4690   16.8161    8.5000   87.5354   56.6697    0.0335    3.1758    2.4868   17.8978   -8.7933    0.3029 -999.0000    8.5000   16.8161   17.0558    0.3029    3.1758   10.0591    0.0335   88.8719   63.6267   16.8161   17.0558 
2865.0000   60.3002   60.3002   -8.6133 -999.0000    3.2002 -999.0000    2.4875    0.0001    1.0000    0.5030   16.8453    8.5000   88.9202   58.6785    0.0402    3.2002    2.4875   17.7406   -8.6133    0.3035 -999.0000    8.5000   16.8453   17.1496    0.3035    3.2002   10.0678    0.0402   88.0219   60.3002   16.8453   17.1496 
2865.5000   59.4617   59.4617   -8.2267 -999.0000    3.2359 -999.0000    2.4880    0.0001    1.0000    0.5594   16.5747    8.5000   89.4751   62.2353    0.0426    3.2359    2.4880   19.0163   -8.2267    0.3035 -999.0000    8.5000   16.5747   17.0015    0.3035    3.2359   10.0935    0.0426   88.4984   59.4617   16.5747   17.0015 
2866.0000   57.9321   57.9321   -8.4667 -999.0000    3.2637 -999.0000    2.4865    0.0001    1.0000    0.5608   16.5238    8.5000   88.9128   62.6776    0.0406    3.2637    2.4865   19.4251   -8.4667    0.3053 -999.0000    8.5000   16.5238   16.8635    0.3053    3.2637   10.0902    0.0406   88.8156   57.9321   16.5238   16.8635 
2866.5000   55.7851   55.7851   -8.7333 -999.0000    3.2782 -999.0000    2.4831    0.0001    1.0000    0.5610   16.7670    8.5000   89.4602   63.3042    0.0359    3.2782    2.4831   18.5217   -8.7333    0.3085 -999.0000    8.5000   16.7670   16.7389    0.3085    3.2782   10.0542    0.0359   88.4062   55.7851   16.7670   16.7389 
2867.0000   54.6701   54.6701   -9.2733 -999.0000    3.2864 -999.0000    2.4759    0.0001    1.0000    0.5297   16.7873    8.5000   90.7406   63.3871    0.0266    3.2864    2.4759   18.5127   -9.2733    0.3059 -999.0000    8.5000   16.7873   16.4023    0.3059    3.2864   10.0143    0.0266   88.6359   54.6701   16.7873   16.4023 
2867.5000   58.2085   58.2085   -9.6400 -999.0000    3.2953 -999.0000    2.4673    0.0001    1.0000    0.5005   16.4985    8.5000   91.3889   62.0141    0.0216    3.2953    2.4673   19.1875   -9.6400    0.3052 -999.0000    8.5000   16.4985   15.9876    0.3052    3.2953   10.0165    0.0216   89.8000   58.2085   16.4985   15.9876 
2868.0000   61.2770   61.2770   -9.9667 -999.0000    3.2832 -999.0000    2.4580    0.0001    1.0000    0.4654   16.3610    8.5000   90.9114   61.5073    0.0158    3.2832    2.4580   18.1714   -9.9667    0.3034 -999.0000    8.5000   16.3610   15.8388    0.3034    3.2832   10.0088    0.0158   91.8922   61.2770   16.3610   15.8388 
2868.5000   61.4613   61.4613  -10.9800 -999.0000    3.2335 -999.0000    2.4490    0.1005    1.0000    0.4221   16.3832    8.5000   91.9209   62.4657    0.0158    3.2335    2.4490   16.5035  -10.9800    0.2989 -999.0000    8.5000   16.3832   15.9237    0.2989    3.2335    9.9782    0.0158   91.2734   61.4613   16.3832   15.9237 
2869.0000   61.7008   61.7008  -12.2667 -999.0000    3.1438 -999.0000    2.4452    0.0001    1.0000    0.4801   16.1725    8.5000   91.8193   63.4977    0.0206    3.1438    2.4452   15.0402  -12.2667    0.3196 -999.0000    8.5000   16.1725   15.9801    0.3196    3.1438    9.9597    0.0206   91.2859   61.7008   16.1725   15.9801 
2869.5000   62.6868   62.6868  -13.1467 -999.0000    3.0572 -999.0000    2.4455    0.0001    1.0000    0.5138   15.6956    8.5000   91.9765   62.4657    0.0292    3.0572    2.4455   15.2463  -13.1467    0.3293 -999.0000    8.5000   15.6956   15.8547    0.3293    3.0572    9.9941    0.0292   92.6125   62.6868   15.6956   15.8547 
2870.0000   62.2721   62.2721  -13.8533 -999.0000    3.0080 -999.0000    2.4483    0.0001    1.0000    0.5060   15.2461    8.5000   91.1277   64.6403    0.0356    3.0080    2.4483   14.9388  -13.8533    0.3244 -999.0000    8.5000   15.2461   15.5616    0.3244    3.0080   10.0280    0.0356   92.1344   62.2721   15.2461   15.5616 
