~VERSION INFORMATION
 VERS.                 2.0:   CWLS LOG ASCII STANDARD - VERSION 2.0
 WRAP.                  NO:   SINGLE LINE PER DEPTH STEP
 CREA.                 9/4/2023 1:15:44 PM
#CREATED USING DSPetro VERSION 10ep.4.05.01 BY C4372838 ON 9/4/2023 1:15:44 PM
~WELL INFORMATION
#MNEM.UNIT       DATA                          DESCRIPTION MNEMONIC
#---------      ---------------------------   --------------------------
 STRT    .FT        2533.0000                 : START DEPTH
 STOP    .FT        3150.0000                 : STOP DEPTH
 STEP    .FT        0.5000                    : STEP VALUE
 NULL    .      -999.0000                     : NULL VALUE
 DATE    .      9/4/2023                      : LAS file Creation Date
 WELL   .      ABANICO-2                    : Well Name
 COMP   .      Kappa Resources Colombia,Ltd : Company
 FLD    .      UNKNOWN                      : Field
 STATE  .      UNKNOWN                      : State
 COUNT  .      Colombia                     : Country
 UWI    .      ABAN0002                     : Unique Well Identifier (UWI)
 LOC    .      UNKNOWN                      : Location
 RWS    .      -999                         : Def_Rw
 WST    .      -999                         : Def_Rwt
 CNTY   .      UNKNOWN                      : County
 PROV   .                                   : Province
 SRVC   .      UNKNOWN                      : Contractor
 GDAT   .      WGS 84                       : Geodatum
 LONG   .      0                            : Longitude
 LATI   .      0                            : Latitude
 COORDIN.                                   : Grid System
 XCOORD .      910597.860948                : X or East-West Coordinate
 YCOORD .      957980.305104                : Y or North-South Coordinate
~CURVE INFORMATION
#MNEM                 UNIT       API CODE   Curve Type Comments
#----------     --------------- ----------  ---------- -----------
 DEPTH         .FT                        : Depth       
 GRGC          .API                       : GammaRay    GR:UNKNOWN:r1:MAIN:v1
 GRGC          .API                       : GammaRay    GR:UNKNOWN:r1:MAIN:v1
 SP            .mV                        : SP          SP:UNKNOWN:r1:MAIN:v1
 K_CORE_2023   .                          :             
 PDPE          .b/elec                    : PEF         PEF:UNKNOWN:r1:MAIN:v1
 POR_CORE_2023 .                          :             
 DEN           .g/cm3                     : Density     RHOB:PETROPHYSIC:rC:NONE:v0 (auto-composite)
 PHIE          .Dec                       : Phi         
 SWT           .Dec                       : Sw          
 VCLmix        .Dec                       : Vcl         
 AHT60         .ohm.m                     : DeepRes     HDRS:UNKNOWN:r1:MAIN:v1
 BS            .inches                    : BitSize     BS:UNKNOWN:r1:MAIN:v1
 DTCO          .uSec/ft                   : Sonic       DT:UNKNOWN:rC:NONE:v0 (auto-composite)
 GR            .API                       : GammaRay    GR:PETROPHYSIC:rC:NONE:v0 (auto-composite)
 HDRA          .g/cm3                     : Drho        DRHO:UNKNOWN:r1:MAIN:v1
 PEFZ          .b/elec                    : PEF         PEF:UNKNOWN:r1:MAIN:v1
 RHOZ          .g/cm3                     : Density     RHOB:PETROPHYSIC:rC:NONE:v0 (auto-composite)
 RXOZ          .ohm.m                     : MicroRes    MSFL:UNKNOWN:r1:MAIN:v1
 SP            .mV                        : SP          SP:UNKNOWN:r1:MAIN:v1
 TNPH          .v/v_decimal               : Neutron     NPHI:UNKNOWN:r1:MAIN:v1
 CALI          .inches                    : Caliper     CALI:PETROPHYSIC:rC:NONE:v0 (auto-composite)
 BS            .inches                    : BitSize     BS:UNKNOWN:r1:MAIN:v1
 HDRS          .ohm.m                     : DeepRes     HDRS:PETROPHYSIC:rC:NONE:v0 (auto-composite)
 HMRS          .ohm.m                     :             HMRS:PETROPHYSIC:rC:NONE:v0 (auto-composite)
 NPHI          .v/v_decimal               : Neutron     NPHI:UNKNOWN:r1:MAIN:v1
 PEF           .b/elec                    : PEF         PEF:UNKNOWN:r1:MAIN:v1
 CALI          .inches                    : Caliper     CALI:UNKNOWN:r1:MAIN:v1
 DRHO          .g/cm3                     : Drho        DRHO:UNKNOWN:r1:MAIN:v1
 DT            .us/ft                     : Sonic       DT:UNKNOWN:r1:MAIN:v1
 GR            .API                       : GammaRay    GR:UNKNOWN:r1:MAIN:v1
 HDRS          .ohm.m                     : DeepRes     HDRS:UNKNOWN:r1:MAIN:v1
 HMRS          .UNKNOWN                   :             HMRS:UNKNOWN:r1:MAIN:v1
~A  DEPTH    GRGC      GRGC       SP    K_CORE_2~    PDPE   POR_CORE~    DEN       PHIE      SWT      VCLmix    AHT60       BS       DTCO       GR       HDRA      PEFZ      RHOZ      RXOZ       SP       TNPH      CALI       BS       HDRS      HMRS      NPHI      PEF       CALI      DRHO       DT        GR       HDRS      HMRS   
# ...
2733.0000   44.6815   44.6815  -63.1467 -999.0000    2.0056 -999.0000    2.1937    0.2637    0.3132    0.0696   92.0760    8.5000   92.9918   35.7526    0.2271    2.0056    2.1937   30.4197  -63.1467    0.2644 -999.0000    8.5000   92.0760   63.4915    0.2644    2.0056   10.9621    0.2271   92.5641   44.6815   92.0760   63.4915 
2733.5000   43.0874   43.0874  -63.7200 -999.0000    2.0133 -999.0000    2.2130    0.2536    0.3310    0.0681   89.7085    8.5000   93.0226   35.6052    0.2329    2.0133    2.2130   44.4257  -63.7200    0.2639 -999.0000    8.5000   89.7085   63.6011    0.2639    2.0133   10.7599    0.2329   90.0984   43.0874   89.7085   63.6011 
2734.0000   39.1804   39.1804  -64.1333   10.5800    2.0146    0.2444    2.2306    0.2552    0.3236    0.0510   96.6756    8.5000   95.1511   33.9465    0.2325    2.0146    2.2306   48.2357  -64.1333    0.2778 -999.0000    8.5000   96.6756   67.8381    0.2778    2.0146   10.6267    0.2325   93.8000   39.1804   96.6756   67.8381 
2734.5000   38.5077   38.5077  -64.6600  251.3900    1.9964    0.2280    2.2439    0.2476    0.3167    0.0509  104.3078    8.5000   87.1930   33.9373    0.2232    1.9964    2.2439   53.6878  -64.6600    0.2710 -999.0000    8.5000  104.3078   72.7881    0.2710    1.9964   10.4895    0.2232   90.3641   38.5077  104.3078   72.7881 
2735.0000   37.9180   37.9180  -64.9733 -999.0000    1.9699 -999.0000    2.2423    0.2511    0.3163    0.0435  104.9781    8.5000   78.7737   33.2186    0.2103    1.9699    2.2423   56.9902  -64.9733    0.2751 -999.0000    8.5000  104.9781   75.1800    0.2751    1.9699   10.3721    0.2103   79.1813   37.9180  104.9781   75.1800 
2735.5000   34.4533   34.4533  -65.2400 -999.0000    1.9364 -999.0000    2.2297    0.2635    0.3098    0.0232  107.5715    8.5000   81.2875   31.2467    0.2025    1.9364    2.2297   51.7108  -65.2400    0.2789 -999.0000    8.5000  107.5715   76.9991    0.2789    1.9364   10.3967    0.2025   72.7094   34.4533  107.5715   76.9991 
2736.0000   33.8912   33.8912  -65.4000 -999.0000    1.9225 -999.0000    2.2259    0.2629    0.2845    0.0224  125.1926    8.5000   81.7267   31.1729    0.1981    1.9225    2.2259   49.9666  -65.4000    0.2733 -999.0000    8.5000  125.1926   83.7228    0.2733    1.9225   10.3994    0.1981   77.5641   33.8912  125.1926   83.7228 
2736.5000   35.4761   35.4761  -65.4600 -999.0000    1.9172 -999.0000    2.2206    0.2571    0.2630    0.0381  137.7232    8.5000   81.4844   32.6933    0.1960    1.9172    2.2206   56.5661  -65.4600    0.2646 -999.0000    8.5000  137.7232   88.7679    0.2646    1.9172   10.4945    0.1960   80.8453   35.4761  137.7232   88.7679 
2737.0000   36.5450   36.5450  -65.5933 -999.0000    1.9121 -999.0000    2.2176    0.2611    0.2576    0.0395  138.2178    8.5000   78.9632   33.1172    0.1882    1.9121    2.2176   39.1934  -65.5933    0.2668 -999.0000    8.5000  138.2178   91.0694    0.2668    1.9121   10.6168    0.1882   77.6062   36.5450  138.2178   91.0694 
2737.5000   39.5766   39.5766  -65.4667 -999.0000    1.9159 -999.0000    2.2184    0.2626    0.2444    0.0415  146.5674    8.5000   81.4866   33.6056    0.1808    1.9159    2.2184   40.8256  -65.4667    0.2753 -999.0000    8.5000  146.5674  100.8888    0.2753    1.9159   10.5234    0.1808   81.6109   39.5766  146.5674  100.8888 
2738.0000   41.4748   41.4748  -65.0933 -999.0000    1.9314 -999.0000    2.2289    0.2530    0.2062    0.0477  183.2229    8.5000   85.5912   34.0755    0.1859    1.9314    2.2289   59.6758  -65.0933    0.2703 -999.0000    8.5000  183.2229  132.5862    0.2703    1.9314   10.3016    0.1859   87.4125   41.4748  183.2229  132.5862 
2738.5000   43.9075   43.9075  -64.4667 -999.0000    1.9372 -999.0000    2.2438    0.2376    0.1082    0.0579  251.7964    8.5000   84.4209   34.7666    0.2008    1.9372    2.2438   82.7347  -64.4667    0.2533 -999.0000    8.5000  251.7964  200.7986    0.2533    1.9372   10.2022    0.2008   82.4328   43.9075  251.7964  200.7986 
2739.0000   46.4507   46.4507  -64.1067 -999.0000    1.9146 -999.0000    2.2535    0.2290    0.0898    0.0638  278.4650    8.5000   80.1714   36.4805    0.2151    1.9146    2.2535   49.4702  -64.1067    0.2497 -999.0000    8.5000  278.4650  234.5509    0.2497    1.9146   10.2197    0.2151   74.9172   46.4507  278.4650  234.5509 
2739.5000   43.9996   43.9996  -64.2933 -999.0000    1.8749 -999.0000    2.2539    0.2406    0.1133    0.0608  239.0549    8.5000   82.5815   37.1624    0.2233    1.8749    2.2539   33.6753  -64.2933    0.2679 -999.0000    8.5000  239.0549  186.9220    0.2679    1.8749   10.2525    0.2233   79.2125   43.9996  239.0549  186.9220 
2740.0000   44.8289   44.8289  -64.7133 -999.0000    1.8491 -999.0000    2.2440    0.2521    0.1722    0.0539  207.5701    8.5000   91.2114   38.9961    0.2270    1.8491    2.2440   29.7356  -64.7133    0.2779 -999.0000    8.5000  207.5701  146.0425    0.2779    1.8491   10.2361    0.2270   86.3359   44.8289  207.5701  146.0425 
2740.5000   44.7829   44.7829  -65.0267 -999.0000    1.8600 -999.0000    2.2331    0.2591    0.1826    0.0487  201.5881    8.5000  101.7888   39.7056    0.2290    1.8600    2.2331   31.7732  -65.0267    0.2813 -999.0000    8.5000  201.5881  128.6689    0.2813    1.8600   10.2792    0.2290   96.8266   44.7829  201.5881  128.6689 
2741.0000   41.9908   41.9908  -65.2667 -999.0000    1.9038 -999.0000    2.2234    0.2627    0.1767    0.0448  212.7655    8.5000  109.0613   39.7886    0.2251    1.9038    2.2234   22.5782  -65.2667    0.2779 -999.0000    8.5000  212.7655  131.9573    0.2779    1.9038   10.3967    0.2251  108.3594   41.9908  212.7655  131.9573 
2741.5000   40.7653   40.7653  -65.5933 -999.0000    1.9368 -999.0000    2.2068    0.2740    0.1563    0.0395  242.9269    8.5000  111.3775   42.5990    0.2081    1.9368    2.2068   33.1071  -65.5933    0.2919 -999.0000    8.5000  242.9269  160.3043    0.2919    1.9368   10.4819    0.2081  112.3250   40.7653  242.9269  160.3043 
2742.0000   41.4380   41.4380  -65.8800 -999.0000    1.9582 -999.0000    2.1840    0.2813    0.1311    0.0348  294.8381    8.5000  100.0588   44.2853    0.1846    1.9582    2.1840   37.4131  -65.8800    0.2880 -999.0000    8.5000  294.8381  216.1871    0.2880    1.9582   10.3781    0.1846  105.1656   41.4380  294.8381  216.1871 
2742.5000   40.5534   40.5534  -66.2333 -999.0000    1.9747 -999.0000    2.1670    0.2868    0.0943    0.0290  408.4678    8.5000   88.1937   46.4415    0.1747    1.9747    2.1670   47.6199  -66.2333    0.2867 -999.0000    8.5000  408.4678  294.3451    0.2867    1.9747   10.2683    0.1747   91.7031   40.5534  408.4678  294.3451 
2743.0000   39.8623   39.8623  -66.3333 -999.0000    1.9758 -999.0000    2.1567    0.2874    0.0419    0.0273  543.8881    8.5000   89.7048   49.7680    0.1801    1.9758    2.1567   33.8207  -66.3333    0.2830 -999.0000    8.5000  543.8881  352.6464    0.2830    1.9758   10.2929    0.1801   88.4516   39.8623  543.8881  352.6464 
2743.5000   39.7609   39.7609  -66.2867 -999.0000    1.9689 -999.0000    2.1596    0.2920    0.0761    0.0281  462.3569    8.5000   93.3160   49.2243    0.1868    1.9689    2.1596   36.3759  -66.2867    0.2904 -999.0000    8.5000  462.3569  292.7716    0.2904    1.9689   10.3492    0.1868   93.4828   39.7609  462.3569  292.7716 
2744.0000   39.7794   39.7794  -66.1600 -999.0000    1.9480 -999.0000    2.1612    0.2909    0.1354    0.0302  294.4085    8.5000   98.1818   47.1510    0.1785    1.9480    2.1612   41.5630  -66.1600    0.2911 -999.0000    8.5000  294.4085  192.1263    0.2911    1.9480   10.3874    0.1785   97.0938   39.7794  294.4085  192.1263 
2744.5000   38.4064   38.4064  -65.9333   71.3100    1.9373    0.2514    2.1662    0.2856    0.1754    0.0339  215.4152    8.5000   99.1475   45.6767    0.1558    1.9373    2.1662   43.9170  -65.9333    0.2840 -999.0000    8.5000  215.4152  141.4945    0.2840    1.9373   10.3623    0.1558   98.7172   38.4064  215.4152  141.4945 
2745.0000   38.8671   38.8671  -65.6800 -999.0000    1.9627 -999.0000    2.1893    0.2725    0.1875    0.0380  202.7677    8.5000   97.5143   43.4191    0.1391    1.9627    2.1893   41.4966  -65.6800    0.2705 -999.0000    8.5000  202.7677  134.8383    0.2705    1.9627   10.2874    0.1391   98.4000   38.8671  202.7677  134.8383 
