~VERSION INFORMATION
 VERS.                 2.0:   CWLS LOG ASCII STANDARD - VERSION 2.0
 WRAP.                  NO:   SINGLE LINE PER DEPTH STEP
 CREA.                 9/4/2023 1:15:44 PM
#CREATED USING DSPetro VERSION 10ep.4.05.01 BY C4372838 ON 9/4/2023 1:15:44 PM
~WELL INFORMATION
#MNEM.UNIT       DATA                          DESCRIPTION MNEMONIC
#---------      ---------------------------   --------------------------
 STRT    .FT        2533.0000                 : START DEPTH
 STOP    .FT        3150.0000                 : STOP DEPTH
 STEP    .FT        0.5000                    : STEP VALUE
 NULL    .      -999.0000                     : NULL VALUE
 DATE    .      9/4/2023                      : LAS file Creation Date
 WELL   .      ABANICO-2                    : Well Name
 COMP   .      Kappa Resources Colombia,Ltd : Company
 FLD    .      UNKNOWN                      : Field
 STATE  .      UNKNOWN                      : State
 COUNT  .      Colombia                     : Country
 UWI    .      ABAN0002                     : Unique Well Identifier (UWI)
 LOC    .      UNKNOWN                      : Location
 RWS    .      -999                         : Def_Rw
 WST    .      -999                         : Def_Rwt
 CNTY   .      UNKNOWN                      : County
 PROV   .                                   : Province
 SRVC   .      UNKNOWN                      : Contractor
 GDAT   .      WGS 84                       : Geodatum
 LONG   .      0                            : Longitude
 LATI   .      0                            : Latitude
 COORDIN.                                   : Grid System
 XCOORD .      910597.860948                : X or East-West Coordinate
 YCOORD .      957980.305104                : Y or North-South Coordinate
~CURVE INFORMATION
#MNEM                 UNIT       API CODE   Curve Type Comments
#----------     --------------- ----------  ---------- -----------
 DEPTH         .FT                        : Depth       
 GRGC          .API                       : GammaRay    GR:UNKNOWN:r1:MAIN:v1
 GRGC          .API                       : GammaRay    GR:UNKNOWN:r1:MAIN:v1
 SP            .mV                        : SP          SP:UNKNOWN:r1:MAIN:v1
 K_CORE_2023   .                          :             
 PDPE          .b/elec                    : PEF         PEF:UNKNOWN:r1:MAIN:v1
 POR_CORE_2023 .                          :             
 DEN           .g/cm3                     : Density     RHOB:PETROPHYSIC:rC:NONE:v0 (auto-composite)
 PHIE          .Dec                       : Phi         
 SWT           .Dec                       : Sw          
 VCLmix        .Dec                       : Vcl         
 AHT60         .ohm.m                     : DeepRes     HDRS:UNKNOWN:r1:MAIN:v1
 BS            .inches                    : BitSize     BS:UNKNOWN:r1:MAIN:v1
 DTCO          .uSec/ft                   : Sonic       DT:UNKNOWN:rC:NONE:v0 (auto-composite)
 GR            .API                       : GammaRay    GR:PETROPHYSIC:rC:NONE:v0 (auto-composite)
 HDRA          .g/cm3                     : Drho        DRHO:UNKNOWN:r1:MAIN:v1
 PEFZ          .b/elec                    : PEF         PEF:UNKNOWN:r1:MAIN:v1
 RHOZ          .g/cm3                     : Density     RHOB:PETROPHYSIC:rC:NONE:v0 (auto-composite)
 RXOZ          .ohm.m                     : MicroRes    MSFL:UNKNOWN:r1:MAIN:v1
 SP            .mV                        : SP          SP:UNKNOWN:r1:MAIN:v1
 TNPH          .v/v_decimal               : Neutron     NPHI:UNKNOWN:r1:MAIN:v1
 CALI          .inches                    : Caliper     CALI:PETROPHYSIC:rC:NONE:v0 (auto-composite)
 BS            .inches                    : BitSize     BS:UNKNOWN:r1:MAIN:v1
 HDRS          .ohm.m                     : DeepRes     HDRS:PETROPHYSIC:rC:NONE:v0 (auto-composite)
 HMRS          .ohm.m                     :             HMRS:PETROPHYSIC:rC:NONE:v0 (auto-composite)
 NPHI          .v/v_decimal               : Neutron     NPHI:UNKNOWN:r1:MAIN:v1
 PEF           .b/elec                    : PEF         PEF:UNKNOWN:r1:MAIN:v1
 CALI          .inches                    : Caliper     CALI:UNKNOWN:r1:MAIN:v1
 DRHO          .g/cm3                     : Drho        DRHO:UNKNOWN:r1:MAIN:v1
 DT            .us/ft                     : Sonic       DT:UNKNOWN:r1:MAIN:v1
 GR            .API                       : GammaRay    GR:UNKNOWN:r1:MAIN:v1
 HDRS          .ohm.m                     : DeepRes     HDRS:UNKNOWN:r1:MAIN:v1
 HMRS          .UNKNOWN                   :             HMRS:UNKNOWN:r1:MAIN:v1
~A  DEPTH    GRGC      GRGC       SP    K_CORE_2~    PDPE   POR_CORE~    DEN       PHIE      SWT      VCLmix    AHT60       BS       DTCO       GR       HDRA      PEFZ      RHOZ      RXOZ       SP       TNPH      CALI       BS       HDRS      HMRS      NPHI      PEF       CALI      DRHO       DT        GR       HDRS      HMRS   
2533.0000   41.0786   41.0786   -4.6667 -999.0000    3.0499 -999.0000    2.5427    0.1117    0.9600    0.2313   10.9563    8.5000   76.3894   64.4468    0.0088    3.0499    2.5427   13.8400   -4.6667    0.2320 -999.0000    8.5000   10.9563   10.8196    0.2320    3.0499   10.3371    0.0088   77.2297   41.0786   10.9563   10.8196 
2533.5000   43.6495   43.6495   -6.6800 -999.0000    2.9923 -999.0000    2.5300    0.1006    0.9777    0.2163   12.3482    8.5000   77.9973   60.5767    0.0089    2.9923    2.5300   21.1545   -6.6800    0.2051 -999.0000    8.5000   12.3482   12.1322    0.2051    2.9923   10.3175    0.0089   79.0625   43.6495   12.3482   12.1322 
2534.0000   44.8658   44.8658  -10.3000 -999.0000    2.9201 -999.0000    2.5093    0.0001    1.0000    0.1959   14.6831    8.5000   75.9968   55.3428    0.0100    2.9201    2.5093   26.1269  -10.3000    0.1878 -999.0000    8.5000   14.6831   14.3392    0.1878    2.9201   10.3175    0.0100   78.2453   44.8658   14.6831   14.3392 
2534.5000   44.7921   44.7921  -14.3667 -999.0000    2.8485 -999.0000    2.4915    0.0001    1.0000    0.1859   16.8281    8.5000   74.0970   52.7719    0.0094    2.8485    2.4915   23.5460  -14.3667    0.1811 -999.0000    8.5000   16.8281   16.2773    0.1811    2.8485   10.3224    0.0094   77.8891   44.7921   16.8281   16.2773 
2535.0000   44.1471   44.1471  -17.3067 -999.0000    2.8109 -999.0000    2.4738    0.0001    1.0000    0.1813   17.8386    8.5000   73.9333   51.5832    0.0046    2.8109    2.4738   24.3797  -17.3067    0.1728 -999.0000    8.5000   17.8386   16.9452    0.1728    2.8109   10.2945    0.0046   77.5797   44.1471   17.8386   16.9452 
2535.5000   43.6495   43.6495  -19.5000 -999.0000    2.7678 -999.0000    2.4584    0.1006    0.8182    0.1744   18.2718    8.5000   74.6951   49.8140    0.0025    2.7678    2.4584   26.3524  -19.5000    0.1732 -999.0000    8.5000   18.2718   17.1932    0.1732    2.7678   10.2394    0.0025   76.3313   43.6495   18.2718   17.1932 
2536.0000   43.6679   43.6679  -20.4733 -999.0000    2.6901 -999.0000    2.4482    0.1098    0.7918    0.1682   17.9950    8.5000   76.0929   48.2383    0.0010    2.6901    2.4482   23.6355  -20.4733    0.1791 -999.0000    8.5000   17.9950   17.1470    0.1791    2.6901   10.1875    0.0010   77.9328   43.6679   17.9950   17.1470 
2536.5000   45.1975   45.1975  -19.9600 -999.0000    2.5970 -999.0000    2.4389    0.1163    0.8096    0.1657   16.5886    8.5000   76.6320   47.5933    0.0002    2.5970    2.4389   19.3476  -19.9600    0.1847 -999.0000    8.5000   16.5886   16.1322    0.1847    2.5970   10.1574    0.0002   79.0969   45.1975   16.5886   16.1322 
2537.0000   46.8561   46.8561  -18.0600 -999.0000    2.5328 -999.0000    2.4375    0.1162    0.8605    0.1694   14.9671    8.5000   76.7423   48.5240    0.0001    2.5328    2.4375   16.9161  -18.0600    0.1859 -999.0000    8.5000   14.9671   14.7525    0.1859    2.5328   10.1219    0.0001   78.0859   46.8561   14.9671   14.7525 
2537.5000   46.2756   46.2756  -16.7933 -999.0000    2.5292 -999.0000    2.4389    0.1137    0.8904    0.1727   14.3794    8.5000   77.5960   49.3902    0.0008    2.5292    2.4389   15.1738  -16.7933    0.1843 -999.0000    8.5000   14.3794   14.2986    0.1843    2.5292   10.0886    0.0008   79.9375   46.2756   14.3794   14.2986 
2538.0000   44.3866   44.3866  -17.0733 -999.0000    2.5733 -999.0000    2.4420    0.1154    0.8780    0.1564   15.2147    8.5000   80.0578   45.1975    0.0073    2.5733    2.4420   19.3261  -17.0733    0.1784 -999.0000    8.5000   15.2147   15.2852    0.1784    2.5733   10.0504    0.0073   81.6391   44.3866   15.2147   15.2852 
2538.5000   42.6267   42.6267  -18.5533 -999.0000    2.6088 -999.0000    2.4525    0.1129    0.8496    0.1476   16.9100    8.5000   83.4133   42.9307    0.0201    2.6088    2.4525   26.6461  -18.5533    0.1737 -999.0000    8.5000   16.9100   17.1572    0.1737    2.6088   10.0088    0.0201   80.6906   42.6267   16.9100   17.1572 
2539.0000   40.2309   40.2309  -20.5533 -999.0000    2.6376 -999.0000    2.4582    0.1206    0.7829    0.1370   18.4122    8.5000   85.3157   40.2217    0.0311    2.6376    2.4582   29.4625  -20.5533    0.1804 -999.0000    8.5000   18.4122   18.6412    0.1804    2.6376    9.9875    0.0311   77.0875   40.2309   18.4122   18.6412 
2539.5000   40.3322   40.3322  -22.0800 -999.0000    2.6891 -999.0000    2.4606    0.1241    0.7624    0.1288   19.0544    8.5000   89.8015   38.1023    0.0371    2.6891    2.4606   29.8857  -22.0800    0.1811 -999.0000    8.5000   19.0544   19.1192    0.1811    2.6891    9.9777    0.0371   75.9109   40.3322   19.0544   19.1192 
2540.0000   41.7144   41.7144  -23.3533 -999.0000    2.7665 -999.0000    2.4540    0.1293    0.7440    0.1299   18.7557    8.5000   91.6445   38.3880    0.0346    2.7665    2.4540   28.0981  -23.3533    0.1874 -999.0000    8.5000   18.7557   18.7239    0.1874    2.7665    9.9761    0.0346   83.2531   41.7144   18.7557   18.7239 
2540.5000   41.4288   41.4288  -24.5867 -999.0000    2.8559 -999.0000    2.4427    0.1282    0.7651    0.1389   17.6325    8.5000   94.6012   40.7008    0.0293    2.8559    2.4427   30.8669  -24.5867    0.1903 -999.0000    8.5000   17.6325   17.5578    0.1903    2.8559    9.9722    0.0293   83.2219   41.4288   17.6325   17.5578 
2541.0000   41.2260   41.2260  -25.9333 -999.0000    2.8647 -999.0000    2.4334    0.1323    0.7874    0.1403   16.1306    8.5000  106.7910   41.0602    0.0258    2.8647    2.4334   25.6518  -25.9333    0.1926 -999.0000    8.5000   16.1306   16.1637    0.1926    2.8647    9.9755    0.0258   78.9016   41.2260   16.1306   16.1637 
2541.5000   41.5209   41.5209  -27.4867 -999.0000    2.8103 -999.0000    2.4221    0.1326    0.8290    0.1362   14.9642    8.5000  108.5979   40.0097    0.0225    2.8103    2.4221   33.6347  -27.4867    0.1902 -999.0000    8.5000   14.9642   15.1689    0.1902    2.8103    9.9559    0.0225   81.3469   41.5209   14.9642   15.1689 
2542.0000   41.4933   41.4933  -29.3800 -999.0000    2.7327 -999.0000    2.4170    0.1386    0.8265    0.1278   14.5233    8.5000  102.2036   37.8351    0.0235    2.7327    2.4170   48.9283  -29.3800    0.1931 -999.0000    8.5000   14.5233   14.8471    0.1931    2.7327    9.9356    0.0235   90.6234   41.4933   14.5233   14.8471 
2542.5000   43.8430   43.8430  -30.7467 -999.0000    2.6849 -999.0000    2.4129    0.1460    0.7876    0.1227   14.8769    8.5000   99.5305   36.5450    0.0236    2.6849    2.4129   65.3931  -30.7467    0.2004 -999.0000    8.5000   14.8769   15.3448    0.2004    2.6849    9.9127    0.0236   94.9281   43.8430   14.8769   15.3448 
2543.0000   48.2476   48.2476  -30.8467 -999.0000    2.6860 -999.0000    2.4138    0.1473    0.7560    0.1216   15.7908    8.5000   97.8081   36.2502    0.0235    2.6860    2.4138   59.3818  -30.8467    0.2024 -999.0000    8.5000   15.7908   16.3455    0.2024    2.6860    9.9193    0.0235   90.3734   48.2476   15.7908   16.3455 
2543.5000   51.6846   51.6846  -28.9933 -999.0000    2.6683 -999.0000    2.4177    0.1476    0.7358    0.1206   16.5386    8.5000   91.0096   35.9829    0.0219    2.6683    2.4177   35.1555  -28.9933    0.2033 -999.0000    8.5000   16.5386   16.7832    0.2033    2.6683    9.9378    0.0219   89.7250   51.6846   16.5386   16.7832 
2544.0000   54.4674   54.4674  -26.3733 -999.0000    2.6246 -999.0000    2.4197    0.1519    0.7133    0.1251   16.5072    8.5000   92.4114   37.1532    0.0167    2.6246    2.4197   22.1064  -26.3733    0.2096 -999.0000    8.5000   16.5072   16.2750    0.2096    2.6246    9.9537    0.0167   92.3656   54.4674   16.5072   16.2750 
2544.5000   57.8399   57.8399  -24.3867 -999.0000    2.5511 -999.0000    2.4181    0.1541    0.7132    0.1317   15.9034    8.5000  108.9986   38.8395    0.0126    2.5511    2.4181   15.8621  -24.3867    0.2158 -999.0000    8.5000   15.9034   15.5214    0.2158    2.5511    9.9504    0.0126   87.0844   57.8399   15.9034   15.5214 
2545.0000   60.7886   60.7886  -23.3200 -999.0000    2.4863 -999.0000    2.4129    0.1569    0.7144    0.1378   15.2234    8.5000  115.7424   40.4152    0.0072    2.4863    2.4129   14.4747  -23.3200    0.2219 -999.0000    8.5000   15.2234   14.9661    0.2219    2.4863    9.9378    0.0072   85.6750   60.7886   15.2234   14.9661 
