~VERSION INFORMATION
 VERS.                 2.0:   CWLS LOG ASCII STANDARD - VERSION 2.0
 WRAP.                  NO:   SINGLE LINE PER DEPTH STEP
 CREA.                 9/4/2023 1:15:45 PM
#CREATED USING DSPetro VERSION 10ep.4.05.01 BY C4372838 ON 9/4/2023 1:15:45 PM
~WELL INFORMATION
#MNEM.UNIT       DATA                          DESCRIPTION MNEMONIC
#---------      ---------------------------   --------------------------
 STRT    .FT        2599.0000                 : START DEPTH
 STOP    .FT        3150.0000                 : STOP DEPTH
 STEP    .FT        0.5000                    : STEP VALUE
 NULL    .      -999.0000                     : NULL VALUE
 DATE    .      9/4/2023                      : LAS file Creation Date
 WELL   .      ABANICO-19                   : Well Name
 COMP   .      Kappa Resources Colombia,Ltd : Company
 FLD    .      UNKNOWN                      : Field
 STATE  .      UNKNOWN                      : State
 COUNT  .      Colombia                     : Country
 UWI    .      ABAN0019                     : Unique Well Identifier (UWI)
 LOC    .      UNKNOWN                      : Location
 PDAT   .      GROUND LEVEL                 : Permanent Datum
 EPDAT  .      1039.000000                  : Elevation of Permanent Datum
 LGMEA  .      DRILL FLOOR                  : Log Measured from
 APDAT  .      12.000000                    : Elevation Above Permanent Datum
 KB     .      1052.00000                   : KB Elevation
 DF     .      1051.00000                   : DF Elevation
 RWS    .      -999                         : Def_Rw
 WST    .      -999                         : Def_Rwt
 CNTY   .      UNKNOWN                      : County
 PROV   .      TOLIMA                       : Province
 SRVC   .      UNKNOWN                      : Contractor
 GDAT   .      WGS 84                       : Geodatum
 LONG   .      0.252833333280351            : Longitude
 LATI   .      0.26609722243415             : Latitude
 COORDIN.                                   : Grid System
 XCOORD .      910201.721945                : X or East-West Coordinate
 YCOORD .      958010.866493                : Y or North-South Coordinate
~CURVE INFORMATION
#MNEM                 UNIT       API CODE   Curve Type Comments
#----------     --------------- ----------  ---------- -----------
 DEPTH         .FT                        : Depth       
 GRGC          .API                       : GammaRay    GR:UNKNOWN:r1:0001:v1
 GRGC          .API                       : GammaRay    GR:UNKNOWN:r1:0001:v1
 HCGR          .GAPI                      :             HNGS Computed Gamma Ray {F13.2}
 SP            .MV                        : SP          Spontaneous Potential {F13.2}
 K_CORE_2023   .                          :             
 PDPE          .B/E                       : PEF         PEFZ:UNKNOWN:rC:NONE:v0 (auto-composite)
 POR_CORE_2023 .                          :             
 DEN           .g/cm3                     : Density     RHOZ:UNKNOWN:rC:NONE:v0 (auto-composite)
 PHIE          .Dec                       : Phi         
 SWT           .Dec                       : Sw          
 VCLmix        .Dec                       : Vcl         
 DCAL          .IN                        :             Differential Caliper {F13.2}
 AHT20         .OHMM                      : MedRes      Array Induction Two Foot Resistivity A20 {F13.2}
 AHT10         .OHMM                      : ShalRes     Array Induction Two Foot Resistivity A10 {F13.2}
 AHT30         .OHMM                      : MedRes      Array Induction Two Foot Resistivity A30 {F13.2}
 AHT60         .ohm.m                     : MedRes      AHT60:UNKNOWN:rC:NONE:v0 (auto-composite)
 AHT90         .ohm.m                     : DeepRes     AHT90:UNKNOWN:rC:NONE:v0 (auto-composite)
 BS            .IN                        : BitSize     Bit Size {F13.2}
 DTCO          .us/ft                     : Sonic       DTCO:UNKNOWN:rC:NONE:v0 (auto-composite)
 GR            .API                       : GammaRay    GR:UNKNOWN:rC:NONE:v0 (auto-composite)
 HCAL          .inch                      : Caliper     HCAL:UNKNOWN:rC:NONE:v0 (auto-composite)
 HDRA          .G/C3                      : Drho        HRDD Density Correction {F13.2}
 HTHO          .PPM                       :             HNGS Formation Thorium Concentration {F13.2}
 HTPR          .                          :             HNGS Thorium/Potassium Ratio {F13.2}
 HTUR          .                          :             HNGS Thorium/Uranium Ratio {F13.2}
 HUPR          .                          :             HNGS Uranium/Potassium Ratio {F13.2}
 HURA          .PPM                       :             HNGS Formation Uranium Concentration {F13.2}
 PEFZ          .B/E                       : PEF         PEFZ:UNKNOWN:rC:NONE:v0 (auto-composite)
 RHOZ          .g/cm3                     : Density     RHOZ:UNKNOWN:rC:NONE:v0 (auto-composite)
 RXOZ          .OHMM                      : MicroRes    MCFL Standard Resolution Invaded Zone Resistivity {F13.2}
 SP            .MV                        : SP          Spontaneous Potential {F13.2}
 TNPH          .dec                       : Neutron     TNPH:UNKNOWN:rC:NONE:v0 (auto-composite)
 CALI          .inch                      : Caliper     C1:UNKNOWN:rC:NONE:v0 (auto-composite)
 BS            .IN                        : BitSize     Bit Size {F13.2}
 HDRS          .ohm.m                     : DeepRes     Lateralog Deep Resistivity, ohmm
 NPHI          .dec                       : Neutron     TNPH:UNKNOWN:rC:NONE:v0 (auto-composite)
 PEF           .B/E                       : PEF         PEFZ:UNKNOWN:rC:NONE:v0 (auto-composite)
 CALI          .inch                      : Caliper     C1:UNKNOWN:rC:NONE:v0 (auto-composite)
 DRHO          .G/C3                      : Drho        HRDD Density Correction {F13.2}
 DT            .us/ft                     : Sonic       DTCO:UNKNOWN:rC:NONE:v0 (auto-composite)
 GR            .API                       : GammaRay    GR:UNKNOWN:r1:0001:v1
 HDRS          .ohm.m                     : DeepRes     Lateralog Deep Resistivity, ohmm
~A  DEPTH    GRGC      GRGC      HCGR       SP    K_CORE_2~    PDPE   POR_CORE~    DEN       PHIE      SWT      VCLmix     DCAL     AHT20     AHT10     AHT30     AHT60     AHT90       BS       DTCO       GR       HCAL      HDRA      HTHO      HTPR      HTUR      HUPR      HURA      PEFZ      RHOZ      RXOZ       SP       TNPH      CALI       BS       HDRS      NPHI      PEF       CALI      DRHO       DT        GR       HDRS   
2599.0000   73.2200   73.2200   49.8400   54.3800 -999.0000    2.6700 -999.0000    2.5000    0.0001    1.0000    0.4167    0.5400   19.4700   14.0300   20.4100   17.9100   17.0300    8.5000  108.8807   73.2200    9.0370    0.0400    9.6300    8.9500    6.1400    1.4600    1.5700    2.6700    2.5000    8.7700   54.3800    0.2600    8.8137    8.5000    3.0800    0.2600    2.6700    8.8137    0.0400  108.8807   73.2200    3.0800 
2599.5000   72.0600   72.0600   49.9600   54.1300 -999.0000    2.6600 -999.0000    2.5000    0.0001    1.0000    0.3969    0.3000   18.2200   14.6200   18.1000   16.2500   13.9900    8.5000   92.1692   72.0600    8.7955    0.0400    9.4100    8.4000    5.5200    1.5200    1.7100    2.6600    2.5000    9.6700   54.1300    0.2500    8.6426    8.5000    3.1050    0.2500    2.6600    8.6426    0.0400   92.1692   72.0600    3.1050 
2600.0000   75.1900   75.1900   49.0100   54.0600 -999.0000    2.6400 -999.0000    2.5000    0.0001    1.0000    0.3772    0.2500   18.1500   14.6500   18.0000   16.1800   14.6500    8.5000   80.1112   75.1900    8.7495    0.0400    9.0200    7.9400    6.3700    1.2500    1.4200    2.6400    2.5000   11.0000   54.0600    0.2400    8.6426    8.5000    3.1300    0.2400    2.6400    8.6426    0.0400   80.1112   75.1900    3.1300 
2600.5000   74.4300   74.4300   50.7500   54.1900 -999.0000    2.5600 -999.0000    2.4900    0.0001    1.0000    0.3661    0.0700   17.2300   14.0200   17.3600   17.4300   15.6300    8.5000   80.6526   74.4300    8.5655    0.0400    9.5900    8.4600    9.7600    0.8700    0.9800    2.5600    2.4900   12.7100   54.1900    0.2400    8.6426    8.5000    3.1650    0.2400    2.5600    8.6426    0.0400   80.6526   74.4300    3.1650 
2601.0000   70.3000   70.3000   48.6800   54.3100 -999.0000    2.5000 -999.0000    2.4900    0.0001    1.0000    0.3464    0.0700   15.6400   13.8800   16.0100   17.9500   15.9600    8.5000   81.0912   70.3000    8.5731    0.0300    9.1500    8.3600    8.9800    0.9300    1.0200    2.5000    2.4900   13.0800   54.3100    0.2300    8.6426    8.5000    3.2000    0.2300    2.5000    8.6426    0.0300   81.0912   70.3000    3.2000 
2601.5000   66.4800   66.4800   48.7000   54.3100 -999.0000    2.4600 -999.0000    2.4800    0.0001    1.0000    0.3551    0.0700   15.6000   14.4500   16.9000   19.0000   15.4300    8.5000   81.6520   66.4800    8.5655    0.0300    9.4000    8.9300   10.3600    0.8600    0.9100    2.4600    2.4800   13.3800   54.3100    0.2400    8.6426    8.5000    3.1400    0.2400    2.4600    8.6426    0.0300   81.6520   66.4800    3.1400 
2602.0000   63.0500   63.0500   46.4600   55.0600 -999.0000    2.4200 -999.0000    2.4700    0.0001    1.0000    0.3243    0.0800   16.3500   16.0500   19.0200   20.0100   15.7800    8.5000   82.2558   63.0500    8.5808    0.0200    9.0900    9.2400   10.6400    0.8700    0.8500    2.4200    2.4700   13.1400   55.0600    0.2300    8.6426    8.5000    3.0800    0.2300    2.4200    8.6426    0.0200   82.2558   63.0500    3.0800 
2602.5000   59.7300   59.7300   45.6000   54.6300 -999.0000    2.3900 -999.0000    2.4400    0.1017    1.0000    0.2913    0.0400   16.2500   17.6700   19.0100   21.1900   16.7200    8.5000   83.9049   59.7300    8.5425    0.0100    8.9600    9.3400   11.6200    0.8000    0.7700    2.3900    2.4400   14.8000   54.6300    0.2300    8.6426    8.5000    3.0750    0.2300    2.3900    8.6426    0.0100   83.9049   59.7300    3.0750 
2603.0000   55.9600   55.9600   42.4400   54.8100 -999.0000    2.3900 -999.0000    2.4200    0.1147    0.9431    0.2693    0.0300   16.1300   19.3000   19.4600   21.0300   18.7100    8.5000   84.3716   55.9600    8.5310    0.0000    8.2700    9.1300    9.6700    0.9400    0.8500    2.3900    2.4200   12.8100   54.8100    0.2300    8.5081    8.5000    3.0700    0.2300    2.3900    8.5081    0.0000   84.3716   55.9600    3.0700 
2603.5000   53.8400   53.8400   41.2500   56.1900 -999.0000    2.4400 -999.0000    2.4000    0.1260    0.8824    0.2670   -0.0300   16.4300   19.9500   19.4000   20.5200   19.8700    8.5000   84.7924   53.8400    8.4735   -0.0100    7.8200    8.5300    7.4900    1.1400    1.0400    2.4400    2.4000   12.6800   56.1900    0.2400    8.4470    8.5000    3.1200    0.2400    2.4400    8.4470   -0.0100   84.7924   53.8400    3.1200 
2604.0000   55.8100   55.8100   39.6000   55.7500 -999.0000    2.4800 -999.0000    2.4100    0.1199    0.9291    0.2780   -0.0200   17.6600   18.3900   19.1900   19.6200   20.4400    8.5000   85.7601   55.8100    8.4850   -0.0100    7.4900    8.4900    6.7400    1.2600    1.1100    2.4800    2.4100   13.3000   55.7500    0.2400    8.4470    8.5000    3.1700    0.2400    2.4800    8.4470   -0.0100   85.7601   55.8100    3.1700 
2604.5000   59.9000   59.9000   39.5700   57.5600 -999.0000    2.5100 -999.0000    2.4200    0.1122    0.9745    0.3088   -0.0400   17.3000   17.0500   18.7900   19.2700   20.6500    8.5000   85.8298   59.9000    8.4581   -0.0100    7.3500    8.1200    5.9400    1.3700    1.2400    2.5100    2.4200   14.8500   57.5600    0.2500    8.4470    8.5000    3.3100    0.2500    2.5100    8.4470   -0.0100   85.8298   59.9000    3.3100 
2605.0000   58.1800   58.1800   39.0800   56.3800 -999.0000    2.5500 -999.0000    2.4200    0.1135    0.9603    0.2890   -0.0300   16.8500   18.0600   19.5800   20.0900   21.8500    8.5000   85.1850   58.1800    8.4735   -0.0100    7.3000    8.2300    7.2700    1.1300    1.0000    2.5500    2.4200   15.9800   56.3800    0.2400    8.4592    8.5000    3.4500    0.2400    2.5500    8.4592   -0.0100   85.1850   58.1800    3.4500 
2605.5000   56.9700   56.9700   36.9700   56.9400 -999.0000    2.5600 -999.0000    2.4200    0.1150    0.9607    0.2693   -0.0400   18.1900   18.1000   19.9000   20.1900   21.2000    8.5000   84.3105   56.9700    8.4620   -0.0100    6.7900    7.9100    5.4100    1.4600    1.2600    2.5600    2.4200   15.0100   56.9400    0.2300    8.4470    8.5000    3.5650    0.2300    2.5600    8.4470   -0.0100   84.3105   56.9700    3.5650 
2606.0000   53.6700   53.6700   35.3600   57.6300 -999.0000    2.5600 -999.0000    2.4200    0.1164    0.9591    0.2495   -0.0300   19.2300   18.2700   19.7100   20.9700   21.5600    8.5000   81.8724   53.6700    8.4735   -0.0100    6.1700    7.0500    4.4900    1.5700    1.3700    2.5600    2.4200   15.7400   57.6300    0.2200    8.4470    8.5000    3.6800    0.2200    2.5600    8.4470   -0.0100   81.8724   53.6700    3.6800 
2606.5000   57.2700   57.2700   37.2000   57.7500 -999.0000    2.5500 -999.0000    2.4300    0.1083    0.9756    0.2803   -0.0700   18.2600   18.9600   19.5200   20.8000   21.7400    8.5000   80.6760   57.2700    8.4275    0.0000    6.5300    7.1400    6.6500    1.0700    0.9800    2.5500    2.4300   14.0700   57.7500    0.2300    8.4470    8.5000    3.7800    0.2300    2.5500    8.4470    0.0000   80.6760   57.2700    3.7800 
2607.0000   58.2400   58.2400   39.4600   55.4400 -999.0000    2.5800 -999.0000    2.4300    0.1083    0.9807    0.2803   -0.0600   17.6700   18.6200   19.3000   21.4900   21.0100    8.5000   80.1865   58.2400    8.4390   -0.0100    6.7900    6.8400    8.5000    0.8000    0.8000    2.5800    2.4300   16.7700   55.4400    0.2300    8.4470    8.5000    3.8800    0.2300    2.5800    8.4470   -0.0100   80.1865   58.2400    3.8800 
2607.5000   57.1800   57.1800   38.8700   55.4400 -999.0000    2.6200 -999.0000    2.4300    0.1078    0.9467    0.2803   -0.0600   19.2300   21.0900   20.8500   22.2900   20.9800    8.5000   79.6121   57.1800    8.4428   -0.0100    6.7500    6.9800    7.3200    0.9500    0.9200    2.6200    2.4300   18.1200   55.4400    0.2300    8.4470    8.5000    3.9500    0.2300    2.6200    8.4470   -0.0100   79.6121   57.1800    3.9500 
2608.0000   52.8400   52.8400   37.8400   58.1900 -999.0000    2.6000 -999.0000    2.4600    0.0001    1.0000    0.2738   -0.0500   21.7400   23.1900   23.7500   22.5600   23.8900    8.5000   79.0894   52.8400    8.4505   -0.0100    6.0500    5.8500    5.1300    1.1400    1.1800    2.6000    2.4600   22.0500   58.1900    0.2100    8.4470    8.5000    4.0200    0.2100    2.6000    8.4470   -0.0100   79.0894   52.8400    4.0200 
