~VERSION INFORMATION
 VERS.                 2.0:   CWLS LOG ASCII STANDARD - VERSION 2.0
 WRAP.                  NO:   SINGLE LINE PER DEPTH STEP
 CREA.                 9/4/2023 1:15:45 PM
#CREATED USING DSPetro VERSION 10ep.4.05.01 BY C4372838 ON 9/4/2023 1:15:45 PM
~WELL INFORMATION
#MNEM.UNIT       DATA                          DESCRIPTION MNEMONIC
#---------      ---------------------------   --------------------------
 STRT    .FT        2599.0000                 : START DEPTH
 STOP    .FT        3150.0000                 : STOP DEPTH
 STEP    .FT        0.5000                    : STEP VALUE
 NULL    .      -999.0000                     : NULL VALUE
 DATE    .      9/4/2023                      : LAS file Creation Date
 WELL   .      ABANICO-19                   : Well Name
 COMP   .      Kappa Resources Colombia,Ltd : Company
 FLD    .      UNKNOWN                      : Field
 STATE  .      UNKNOWN                      : State
 COUNT  .      Colombia                     : Country
 UWI    .      ABAN0019                     : Unique Well Identifier (UWI)
 LOC    .      UNKNOWN                      : Location
 PDAT   .      GROUND LEVEL                 : Permanent Datum
 EPDAT  .      1039.000000                  : Elevation of Permanent Datum
 LGMEA  .      DRILL FLOOR                  : Log Measured from
 APDAT  .      12.000000                    : Elevation Above Permanent Datum
 KB     .      1052.00000                   : KB Elevation
 DF     .      1051.00000                   : DF Elevation
 RWS    .      -999                         : Def_Rw
 WST    .      -999                         : Def_Rwt
 CNTY   .      UNKNOWN                      : County
 PROV   .      TOLIMA                       : Province
 SRVC   .      UNKNOWN                      : Contractor
 GDAT   .      WGS 84                       : Geodatum
 LONG   .      0.252833333280351            : Longitude
 LATI   .      0.26609722243415             : Latitude
 COORDIN.                                   : Grid System
 XCOORD .      910201.721945                : X or East-West Coordinate
 YCOORD .      958010.866493                : Y or North-South Coordinate
~CURVE INFORMATION
#MNEM                 UNIT       API CODE   Curve Type Comments
#----------     --------------- ----------  ---------- -----------
 DEPTH         .FT                        : Depth       
 GRGC          .API                       : GammaRay    GR:UNKNOWN:r1:0001:v1
 GRGC          .API                       : GammaRay    GR:UNKNOWN:r1:0001:v1
 HCGR          .GAPI                      :             HNGS Computed Gamma Ray {F13.2}
 SP            .MV                        : SP          Spontaneous Potential {F13.2}
 K_CORE_2023   .                          :             
 PDPE          .B/E                       : PEF         PEFZ:UNKNOWN:rC:NONE:v0 (auto-composite)
 POR_CORE_2023 .                          :             
 DEN           .g/cm3                     : Density     RHOZ:UNKNOWN:rC:NONE:v0 (auto-composite)
 PHIE          .Dec                       : Phi         
 SWT           .Dec                       : Sw          
 VCLmix        .Dec                       : Vcl         
 DCAL          .IN                        :             Differential Caliper {F13.2}
 AHT20         .OHMM                      : MedRes      Array Induction Two Foot Resistivity A20 {F13.2}
 AHT10         .OHMM                      : ShalRes     Array Induction Two Foot Resistivity A10 {F13.2}
 AHT30         .OHMM                      : MedRes      Array Induction Two Foot Resistivity A30 {F13.2}
 AHT60         .ohm.m                     : MedRes      AHT60:UNKNOWN:rC:NONE:v0 (auto-composite)
 AHT90         .ohm.m                     : DeepRes     AHT90:UNKNOWN:rC:NONE:v0 (auto-composite)
 BS            .IN                        : BitSize     Bit Size {F13.2}
 DTCO          .us/ft                     : Sonic       DTCO:UNKNOWN:rC:NONE:v0 (auto-composite)
 GR            .API                       : GammaRay    GR:UNKNOWN:rC:NONE:v0 (auto-composite)
 HCAL          .inch                      : Caliper     HCAL:UNKNOWN:rC:NONE:v0 (auto-composite)
 HDRA          .G/C3                      : Drho        HRDD Density Correction {F13.2}
 HTHO          .PPM                       :             HNGS Formation Thorium Concentration {F13.2}
 HTPR          .                          :             HNGS Thorium/Potassium Ratio {F13.2}
 HTUR          .                          :             HNGS Thorium/Uranium Ratio {F13.2}
 HUPR          .                          :             HNGS Uranium/Potassium Ratio {F13.2}
 HURA          .PPM                       :             HNGS Formation Uranium Concentration {F13.2}
 PEFZ          .B/E                       : PEF         PEFZ:UNKNOWN:rC:NONE:v0 (auto-composite)
 RHOZ          .g/cm3                     : Density     RHOZ:UNKNOWN:rC:NONE:v0 (auto-composite)
 RXOZ          .OHMM                      : MicroRes    MCFL Standard Resolution Invaded Zone Resistivity {F13.2}
 SP            .MV                        : SP          Spontaneous Potential {F13.2}
 TNPH          .dec                       : Neutron     TNPH:UNKNOWN:rC:NONE:v0 (auto-composite)
 CALI          .inch                      : Caliper     C1:UNKNOWN:rC:NONE:v0 (auto-composite)
 BS            .IN                        : BitSize     Bit Size {F13.2}
 HDRS          .ohm.m                     : DeepRes     Lateralog Deep Resistivity, ohmm
 NPHI          .dec                       : Neutron     TNPH:UNKNOWN:rC:NONE:v0 (auto-composite)
 PEF           .B/E                       : PEF         PEFZ:UNKNOWN:rC:NONE:v0 (auto-composite)
 CALI          .inch                      : Caliper     C1:UNKNOWN:rC:NONE:v0 (auto-composite)
 DRHO          .G/C3                      : Drho        HRDD Density Correction {F13.2}
 DT            .us/ft                     : Sonic       DTCO:UNKNOWN:rC:NONE:v0 (auto-composite)
 GR            .API                       : GammaRay    GR:UNKNOWN:r1:0001:v1
 HDRS          .ohm.m                     : DeepRes     Lateralog Deep Resistivity, ohmm
~A  DEPTH    GRGC      GRGC      HCGR       SP    K_CORE_2~    PDPE   POR_CORE~    DEN       PHIE      SWT      VCLmix     DCAL     AHT20     AHT10     AHT30     AHT60     AHT90       BS       DTCO       GR       HCAL      HDRA      HTHO      HTPR      HTUR      HUPR      HURA      PEFZ      RHOZ      RXOZ       SP       TNPH      CALI       BS       HDRS      NPHI      PEF       CALI      DRHO       DT        GR       HDRS   
# ...
3112.0000  162.6300  162.6300   32.9100   11.5000 -999.0000    1.6300 -999.0000    1.7900    0.2821    1.0000    0.0000   -4.7400   17.5100    3.8700   28.7500   46.0600   32.5400    8.5000 -999.0000  162.6300    3.7587    0.2200    6.6200    9.9500    0.7000   14.2300    9.4600    1.6300    1.7900    0.2500   11.5000    0.2400 -999.0000    8.5000    0.8700    0.2400    1.6300 -999.0000    0.2200 -999.0000  162.6300    0.8700 
3112.5000  162.6300  162.6300   32.9100   17.1300 -999.0000    1.6300 -999.0000    1.7900    0.2821    1.0000    0.0000   -4.7400   16.9800    3.8800   26.3800   43.0700   30.3500    8.5000 -999.0000  162.6300    3.7587    0.2200    6.6200    9.9500    0.7000   14.2300    9.4600    1.6300    1.7900    0.2500   17.1300    0.2400 -999.0000    8.5000    0.7600    0.2400    1.6300 -999.0000    0.2200 -999.0000  162.6300    0.7600 
3113.0000  162.6300  162.6300   32.9100   17.1900 -999.0000    1.6200 -999.0000    1.7900    0.2821    1.0000    0.0000   -4.7400   16.7000    3.8700   24.8800   40.1800   28.1500    8.5000 -999.0000  162.6300    3.7587    0.2200    6.6200    9.9500    0.7000   14.2300    9.4600    1.6200    1.7900    0.2500   17.1900    0.2400 -999.0000    8.5000    0.6500    0.2400    1.6200 -999.0000    0.2200 -999.0000  162.6300    0.6500 
3113.5000  162.6300  162.6300   32.9100   16.3100 -999.0000    1.6100 -999.0000    1.7900    0.2821    1.0000    0.0000   -4.7400   16.9700    3.9000   24.3600   38.7100   27.0000    8.5000 -999.0000  162.6300    3.7587    0.2200    6.6200    9.9500    0.7000   14.2300    9.4600    1.6100    1.7900    0.2500   16.3100    0.2400 -999.0000    8.5000    0.6950    0.2400    1.6100 -999.0000    0.2200 -999.0000  162.6300    0.6950 
3114.0000  162.6300  162.6300   32.9100   14.8800 -999.0000    1.6100 -999.0000    1.7900    0.2821    1.0000    0.0000   -4.7400   17.3000    3.9500   24.1800   38.2200   26.8700    8.5000 -999.0000  162.6300    3.7587    0.2200    6.6200    9.9500    0.7000   14.2300    9.4600    1.6100    1.7900    0.2500   14.8800    0.2400 -999.0000    8.5000    0.7400    0.2400    1.6100 -999.0000    0.2200 -999.0000  162.6300    0.7400 
3114.5000  162.6300  162.6300   32.9100   14.4400 -999.0000    1.6000 -999.0000    1.7900    0.2821    1.0000    0.0000   -4.7400   17.5000    3.9600   24.2700   38.1300   27.2600    8.5000 -999.0000  162.6300    3.7587    0.2200    6.6200    9.9500    0.7000   14.2300    9.4600    1.6000    1.7900    0.2500   14.4400    0.2400 -999.0000    8.5000    0.8200    0.2400    1.6000 -999.0000    0.2200 -999.0000  162.6300    0.8200 
3115.0000  162.6300  162.6300   32.9100   14.1900 -999.0000    1.5900 -999.0000    1.7900    0.2821    1.0000    0.0000   -4.7400   17.7600    3.9900   24.4900   38.3600   28.0200    8.5000 -999.0000  162.6300    3.7587    0.2200    6.6200    9.9500    0.7000   14.2300    9.4600    1.5900    1.7900    0.2500   14.1900    0.2400 -999.0000    8.5000    0.9000    0.2400    1.5900 -999.0000    0.2200 -999.0000  162.6300    0.9000 
3115.5000  162.6300  162.6300   32.9100   13.3100 -999.0000    1.5800 -999.0000    1.7900    0.2821    1.0000    0.0000   -4.7400   17.9900    4.0200   24.6400   38.5100   28.8000    8.5000 -999.0000  162.6300    3.7587    0.8000    6.6200    9.9500    0.7000   14.2300    9.4600    1.5800    1.7900    0.2500   13.3100    0.2400 -999.0000    8.5000    1.1050    0.2400    1.5800 -999.0000    0.8000 -999.0000  162.6300    1.1050 
3116.0000  162.6300  162.6300   32.9100   12.8800 -999.0000    1.5600 -999.0000    1.7900    0.2821    1.0000    0.0000   -4.7400   18.3600    4.0100   24.5600   38.5400   29.1000    8.5000 -999.0000  162.6300    3.7587    1.3900    6.6200    9.9500    0.7000   14.2300    9.4600    1.5600    1.7900    0.2500   12.8800    0.2400 -999.0000    8.5000    1.3100    0.2400    1.5600 -999.0000    1.3900 -999.0000  162.6300    1.3100 
3116.5000  162.6300  162.6300   32.9100   12.0000 -999.0000 -13379.7305 -999.0000 -13382.5000 -999.0000 -999.0000    0.0000   -4.7400   18.5900    4.0200   24.7500   38.3500   28.5800    8.5000 -999.0000  162.6300    3.7587 -13382.4004    6.6200    9.9500    0.7000   14.2300    9.4600 -13379.7305 -13382.5000    0.2500   12.0000    0.2400 -999.0000    8.5000    1.4100    0.2400 -13379.7305 -999.0000 -13382.4004 -999.0000  162.6300    1.4100 
3117.0000  162.6300  162.6300   32.9100   11.6300 -999.0000 -999.0000 -999.0000 -999.0000 -999.0000 -999.0000    0.0000   -4.7400   18.4900    4.0100   24.0600   37.8200   28.4000    8.5000 -999.0000  162.6300    3.7587 -999.0000    6.6200    9.9500    0.7000   14.2300    9.4600 -999.0000 -999.0000    0.2500   11.6300    0.2400 -999.0000    8.5000    1.5100    0.2400 -999.0000 -999.0000 -999.0000 -999.0000  162.6300    1.5100 
3117.5000  162.6300  162.6300   32.9100   11.0600 -999.0000 -999.0000 -999.0000 -999.0000 -999.0000 -999.0000    0.0000   -4.7400   19.5600    4.0300   23.7600   36.6700   26.2000    8.5000 -999.0000  162.6300    3.7587 -999.0000    6.6200    9.9500    0.7000   14.2300    9.4600 -999.0000 -999.0000    0.2500   11.0600    0.2400 -999.0000    8.5000    1.6400    0.2400 -999.0000 -999.0000 -999.0000 -999.0000  162.6300    1.6400 
3118.0000  162.6300  162.6300   32.9100   10.3800 -999.0000 -999.0000 -999.0000 -999.0000 -999.0000 -999.0000    0.0000   -4.7400   22.0900    4.1000   25.7700   38.4400   27.7700    8.5000 -999.0000  162.6300    3.7587 -999.0000    6.6200    9.9500    0.7000   14.2300    9.4600 -999.0000 -999.0000    0.2500   10.3800    0.2400 -999.0000    8.5000    1.7700    0.2400 -999.0000 -999.0000 -999.0000 -999.0000  162.6300    1.7700 
3118.5000  162.6300  162.6300   32.9100    9.0600 -999.0000 -999.0000 -999.0000 -999.0000 -999.0000 -999.0000    0.0000   -4.7400   25.5700    4.1800   27.4800   39.1500   28.1100    8.5000 -999.0000  162.6300    3.7587 -999.0000    6.6200    9.9500    0.7000   14.2300    9.4600 -999.0000 -999.0000    0.2500    9.0600    0.2400 -999.0000    8.5000    1.8350    0.2400 -999.0000 -999.0000 -999.0000 -999.0000  162.6300    1.8350 
3119.0000  162.6300  162.6300   32.9100    6.8100 -999.0000 -999.0000 -999.0000 -999.0000 -999.0000 -999.0000    0.0000   -4.7400   27.1400    4.2000   28.2200   38.2300   27.6900    8.5000 -999.0000  162.6300    3.7587 -999.0000    6.6200    9.9500    0.7000   14.2300    9.4600 -999.0000 -999.0000    0.2500    6.8100    0.2400 -999.0000    8.5000    1.9000    0.2400 -999.0000 -999.0000 -999.0000 -999.0000  162.6300    1.9000 
3119.5000  162.6300  162.6300   32.9100    6.5000 -999.0000 -999.0000 -999.0000 -999.0000 -999.0000 -999.0000    0.0000   -4.7400   28.0100    4.2000   27.5400   36.9700   26.1700    8.5000 -999.0000  162.6300    3.7587 -999.0000    6.6200    9.9500    0.7000   14.2300    9.4600 -999.0000 -999.0000    0.2400    6.5000    0.2400 -999.0000    8.5000    1.6500    0.2400 -999.0000 -999.0000 -999.0000 -999.0000  162.6300    1.6500 
3120.0000  162.6300  162.6300   32.9100    4.2500 -999.0000 -999.0000 -999.0000 -999.0000 -999.0000 -999.0000    0.0000   -4.7400   27.7800    4.1900   27.1000   38.2300   26.7300    8.5000 -999.0000  162.6300    3.7587 -999.0000    6.6200    9.9500    0.7000   14.2300    9.4600 -999.0000 -999.0000    0.2400    4.2500    0.2400 -999.0000    8.5000    1.4000    0.2400 -999.0000 -999.0000 -999.0000 -999.0000  162.6300    1.4000 
3120.5000  162.6300  162.6300   32.9100   -2.1900 -999.0000 -999.0000 -999.0000 -999.0000 -999.0000 -999.0000    0.0000   -4.7400   26.5900    4.1700   27.1800   39.2400   27.2700    8.5000 -999.0000  162.6300    3.7587 -999.0000    6.6200    9.9500    0.7000   14.2300    9.4600 -999.0000 -999.0000    0.2400   -2.1900    0.2400 -999.0000    8.5000    1.3450    0.2400 -999.0000 -999.0000 -999.0000 -999.0000  162.6300    1.3450 
3121.0000  162.6300  162.6300   32.9100   -3.5000 -999.0000 -999.0000 -999.0000 -999.0000 -999.0000 -999.0000    0.0000   -4.7400   25.2300    4.1600   27.2400   39.2100   27.2200    8.5000 -999.0000  162.6300    3.7587 -999.0000    6.6200    9.9500    0.7000   14.2300    9.4600 -999.0000 -999.0000    0.2500   -3.5000    0.2400 -999.0000    8.5000    1.2900    0.2400 -999.0000 -999.0000 -999.0000 -999.0000  162.6300    1.2900 
