~VERSION INFORMATION
 VERS.                 2.0:   CWLS LOG ASCII STANDARD - VERSION 2.0
 WRAP.                  NO:   SINGLE LINE PER DEPTH STEP
 CREA.                 9/4/2023 1:15:46 PM
#CREATED USING DSPetro VERSION 10ep.4.05.01 BY C4372838 ON 9/4/2023 1:15:46 PM
~WELL INFORMATION
#MNEM.UNIT       DATA                          DESCRIPTION MNEMONIC
#---------      ---------------------------   --------------------------
 STRT    .FT        2741.0000                 : START DEPTH
 STOP    .FT        3159.5000                 : STOP DEPTH
 STEP    .FT        0.5000                    : STEP VALUE
 NULL    .      -999.0000                     : NULL VALUE
 DATE    .      9/4/2023                      : LAS file Creation Date
 WELL   .      ABANICO-34              : Well Name
 COMP   .      PACIFIC RUBIALES ENERGY : Company
 FLD    .      ABANICO                 : Field
 STATE  .      UNKNOWN                 : State
 COUNT  .      COLOMBIA                : Country
 API    .      ABAN0034                : API Number
 UWI    .      ABAN0034                : Unique Well Identifier (UWI)
 LOC    .      N                       : Location
 EPDAT  .      1017.000                : Elevation of Permanent Datum
 GL     .      1017.000                : GL Elevation
 RWS    .      -999                    : Def_Rw
 WST    .      -999                    : Def_Rwt
 CNTY   .      TOLIMA                  : County
 PROV   .      UNKNOWN                 : Province
 SRVC   .      WEATHERFORD             : Contractor
 GDAT   .      WGS 84                  : Geodatum
 LONG   .      -74.873885111279        : Longitude
 LATI   .      4.22623405562507        : Latitude
 COORDIN.                              : Grid System
 XCOORD .      911584.313002           : X or East-West Coordinate
 YCOORD .      959134.088873           : Y or North-South Coordinate
~CURVE INFORMATION
#MNEM                 UNIT       API CODE   Curve Type Comments
#----------     --------------- ----------  ---------- -----------
 DEPTH         .FT                        : Depth       
 GRGC          .GAPI                      : GammaRay    Gamma Ray
 GRGC          .GAPI                      : GammaRay    Gamma Ray
 SP            .MV                        : SP          Spontaneous Potential
 K_CORE_2023   .                          :             
 NPRS          .V/V                       :             Sandstone Neutron Por.
 PDPE          .B/E                       : PEF         PE
 POR_CORE_2023 .                          :             
 R85O          .OHMM                      :             Array Ind One Res 85
 R60O          .OHMM                      :             Array Ind One Res 60
 R40O          .OHMM                      :             Array Ind One Res 40
 R30O          .OHMM                      :             Array Ind One Res 30
 R20O          .OHMM                      :             Array Ind One Res 20
 DT46          .US/F                      : Sonic       4-6' Compensated Sonic
 DEN           .G/C3                      : Density     Compensated Density
 PHIE          .Dec                       : Phi         
 SWT           .Dec                       : Sw          
 VCLmix        .Dec                       : Vcl         
 BS            .inches                    : BitSize     Bit size
 DTCO          .US/F                      : Sonic       4-6' Compensated Sonic
 GR            .GAPI                      : GammaRay    Gamma Ray
 HDRA          .G/C3                      : Drho        Density Correction
 PEFZ          .B/E                       : PEF         PE
 RHOZ          .G/C3                      : Density     Compensated Density
 SP            .MV                        : SP          Spontaneous Potential
 TNPH          .V/V                       : Neutron     Neutron Posrosity
 BS            .inches                    : BitSize     Bit size
 NPHI          .V/V                       : Neutron     Neutron Posrosity
 PEF           .B/E                       : PEF         PE
 DRHO          .G/C3                      : Drho        Density Correction
 DT            .US/F                      : Sonic       4-6' Compensated Sonic
 GR            .GAPI                      : GammaRay    Gamma Ray
~A  DEPTH    GRGC      GRGC       SP    K_CORE_2~    NPRS      PDPE   POR_CORE~    R85O      R60O      R40O      R30O      R20O      DT46      DEN       PHIE      SWT      VCLmix      BS       DTCO       GR       HDRA      PEFZ      RHOZ       SP       TNPH       BS       NPHI      PEF       DRHO       DT        GR    
# ...
2928.5000   62.5420   62.5420  -17.5590 -999.0000    0.3100    2.0490 -999.0000   37.9060 -999.0000   38.5380   40.4570   43.0610  101.0390    2.2120    0.2345    0.5295    0.1982    8.5000  101.0390   62.5420    0.0780    2.0490    2.2120  -17.5590    0.3100    8.5000    0.3100    2.0490    0.0780  101.0390   62.5420 
2929.0000   64.9830   64.9830  -17.8050 -999.0000    0.3070    2.0370 -999.0000   35.2040 -999.0000   35.7400   37.4890   39.8330  100.0670    2.2110    0.2363    0.5536    0.1910    8.5000  100.0670   64.9830    0.0750    2.0370    2.2110  -17.8050    0.3070    8.5000    0.3070    2.0370    0.0750  100.0670   64.9830 
2929.5000   66.3620   66.3620  -18.0950 -999.0000    0.3060    2.0390 -999.0000   34.1900 -999.0000   34.6560   36.3100   38.5410   99.8400    2.2190    0.2309    0.5698    0.1977    8.5000   99.8400   66.3620    0.0720    2.0390    2.2190  -18.0950    0.3060    8.5000    0.3060    2.0390    0.0720   99.8400   66.3620 
2930.0000   66.0880   66.0880  -18.6350 -999.0000    0.3070    2.0640 -999.0000   34.6180 -999.0000   35.0260   36.7550   39.0890   99.7960    2.2330    0.2204    0.5767    0.2151    8.5000   99.7960   66.0880    0.0720    2.0640    2.2330  -18.6350    0.3070    8.5000    0.3070    2.0640    0.0720   99.7960   66.0880 
2930.5000   65.8240   65.8240  -19.1630 -999.0000    0.3070    2.0930 -999.0000   33.3660 -999.0000   33.7050   35.3920   37.6970   98.6540    2.2470    0.2103    0.6011    0.2305    8.5000   98.6540   65.8240    0.0740    2.0930    2.2470  -19.1630    0.3070    8.5000    0.3070    2.0930    0.0740   98.6540   65.8240 
2931.0000   66.1510   66.1510  -19.6800 -999.0000    0.3030    2.0990 -999.0000   32.3410 -999.0000   32.5970   34.3040   36.6780   96.2010    2.2570    0.2043    0.6232    0.2333    8.5000   96.2010   66.1510    0.0760    2.0990    2.2570  -19.6800    0.3030    8.5000    0.3030    2.0990    0.0760   96.2010   66.1510 
2931.5000   66.6410   66.6410  -20.1580 -999.0000    0.2940    2.0840 -999.0000   31.2290 -999.0000   31.4090   33.1520   35.6030   93.4120    2.2640    0.2019    0.6473    0.2227    8.5000   93.4120   66.6410    0.0760    2.0840    2.2640  -20.1580    0.2940    8.5000    0.2940    2.0840    0.0760   93.4120   66.6410 
2932.0000   66.3230   66.3230  -20.8990 -999.0000    0.2850    2.0660 -999.0000   28.0810 -999.0000   28.1740   29.7990   32.1390   91.6230    2.2660    0.2033    0.6930    0.2066    8.5000   91.6230   66.3230    0.0760    2.0660    2.2660  -20.8990    0.2850    8.5000    0.2850    2.0660    0.0760   91.6230   66.3230 
2932.5000   66.9200   66.9200  -21.6520 -999.0000    0.2780    2.0600 -999.0000   27.9320 -999.0000   27.9420   29.6660   32.1780   91.2170    2.2670    0.2045    0.6999    0.1934    8.5000   91.2170   66.9200    0.0760    2.0600    2.2670  -21.6520    0.2780    8.5000    0.2780    2.0600    0.0760   91.2170   66.9200 
2933.0000   68.4380   68.4380  -22.3620 -999.0000    0.2750    2.0580 -999.0000   29.1610 -999.0000   29.0540   30.9100   33.6620   91.7240    2.2680    0.2045    0.6869    0.1884    8.5000   91.7240   68.4380    0.0770    2.0580    2.2680  -22.3620    0.2750    8.5000    0.2750    2.0580    0.0770   91.7240   68.4380 
2933.5000   70.1290   70.1290  -22.8480 -999.0000    0.2760    2.0480 -999.0000   29.8520 -999.0000   29.5880   31.5620   34.5370   92.4760    2.2680    0.2041    0.6778    0.1905    8.5000   92.4760   70.1290    0.0760    2.0480    2.2680  -22.8480    0.2760    8.5000    0.2760    2.0480    0.0760   92.4760   70.1290 
2934.0000   70.4370   70.4370  -23.1940 -999.0000    0.2790    2.0320 -999.0000   32.7090 -999.0000   32.2520   34.4870   37.8890   92.7540    2.2650    0.2052    0.6401    0.1933    8.5000   92.7540   70.4370    0.0740    2.0320    2.2650  -23.1940    0.2790    8.5000    0.2790    2.0320    0.0740   92.7540   70.4370 
2934.5000   69.9280   69.9280  -23.4260 -999.0000    0.2830    2.0140 -999.0000   37.7630 -999.0000   37.0420   39.6480   43.6790   92.3950    2.2610    0.2065    0.5836    0.1970    8.5000   92.3950   69.9280    0.0730    2.0140    2.2610  -23.4260    0.2830    8.5000    0.2830    2.0140    0.0730   92.3950   69.9280 
2935.0000   70.6550   70.6550  -23.5400 -999.0000    0.2840    2.0210 -999.0000   46.6340 -999.0000   45.4820   48.7700   53.9020   91.6800    2.2590    0.2070    0.5081    0.1969    8.5000   91.6800   70.6550    0.0700    2.0210    2.2590  -23.5400    0.2840    8.5000    0.2840    2.0210    0.0700   91.6800   70.6550 
2935.5000   71.5330   71.5330  -23.5950 -999.0000    0.2820    2.0410 -999.0000   48.0800 -999.0000   46.6630   50.0440   55.3850   91.1250    2.2610    0.2061    0.5002    0.1950    8.5000   91.1250   71.5330    0.0670    2.0410    2.2610  -23.5950    0.2820    8.5000    0.2820    2.0410    0.0670   91.1250   71.5330 
2936.0000   70.8110   70.8110  -23.6140 -999.0000    0.2800    2.0570 -999.0000   47.3950 -999.0000   45.7680   49.0890   54.3890   90.9280    2.2600    0.2074    0.5064    0.1898    8.5000   90.9280   70.8110    0.0660    2.0570    2.2600  -23.6140    0.2800    8.5000    0.2800    2.0570    0.0660   90.9280   70.8110 
2936.5000   69.2860   69.2860  -23.5630 -999.0000    0.2800    2.0630 -999.0000   54.5960 -999.0000   52.4970   56.2990   62.4120   90.8100    2.2580    0.2084    0.4556    0.1876    8.5000   90.8100   69.2860    0.0650    2.0630    2.2580  -23.5630    0.2800    8.5000    0.2800    2.0630    0.0650   90.8100   69.2860 
2937.0000   68.5700   68.5700  -23.5640 -999.0000    0.2840    2.0610 -999.0000   55.9760 -999.0000   53.6330   57.4350   63.6070   90.4570    2.2580    0.2072    0.4417    0.1958    8.5000   90.4570   68.5700    0.0670    2.0610    2.2580  -23.5640    0.2840    8.5000    0.2840    2.0610    0.0670   90.4570   68.5700 
2937.5000   69.9760   69.9760  -23.6970 -999.0000    0.2870    2.0630 -999.0000   59.5920 -999.0000   56.9170   60.9020   67.3980   90.0070    2.2610    0.2039    0.4121    0.2052    8.5000   90.0070   69.9760    0.0690    2.0630    2.2610  -23.6970    0.2870    8.5000    0.2870    2.0630    0.0690   90.0070   69.9760 
2938.0000   71.9460   71.9460  -23.8340 -999.0000    0.2880    2.0710 -999.0000   57.7880 -999.0000   55.0820   58.8290   64.9740   89.8070    2.2650    0.2008    0.4233    0.2116    8.5000   89.8070   71.9460    0.0720    2.0710    2.2650  -23.8340    0.2880    8.5000    0.2880    2.0710    0.0720   89.8070   71.9460 
2938.5000   72.8380   72.8380  -23.9500 -999.0000    0.2870    2.0720 -999.0000   57.1910 -999.0000   54.4110   58.0240   63.9620   89.7770    2.2640    0.2019    0.4295    0.2085    8.5000   89.7770   72.8380    0.0730    2.0720    2.2640  -23.9500    0.2870    8.5000    0.2870    2.0720    0.0730   89.7770   72.8380 
2939.0000   72.3780   72.3780  -23.7990 -999.0000    0.2900    2.0570 -999.0000   56.1720 -999.0000   53.3780   56.8400   62.5320   89.7860    2.2600    0.2040    0.4322    0.2102    8.5000   89.7860   72.3780    0.0730    2.0570    2.2600  -23.7990    0.2900    8.5000    0.2900    2.0570    0.0730   89.7860   72.3780 
2939.5000   73.5970   73.5970  -23.6870 -999.0000    0.2940    2.0350 -999.0000   57.6270 -999.0000   54.7120   58.1670   63.8530   89.6910    2.2570    0.2049    0.4148    0.2150    8.5000   89.6910   73.5970    0.0730    2.0350    2.2570  -23.6870    0.2940    8.5000    0.2940    2.0350    0.0730   89.6910   73.5970 
2940.0000   75.1220   75.1220  -23.5720 -999.0000    0.2940    2.0220 -999.0000   59.5030 -999.0000   56.4380   59.9590   65.7340   89.4490    2.2610    0.2019    0.3986    0.2194    8.5000   89.4490   75.1220    0.0740    2.0220    2.2610  -23.5720    0.2940    8.5000    0.2940    2.0220    0.0740   89.4490   75.1220 
2940.5000   76.5460   76.5460  -23.7610 -999.0000    0.2880    2.0350 -999.0000   57.9210 -999.0000   54.9040   58.2690   63.7950   88.9900    2.2690    0.1979    0.4218    0.2160    8.5000   88.9900   76.5460    0.0770    2.0350    2.2690  -23.7610    0.2880    8.5000    0.2880    2.0350    0.0770   88.9900   76.5460 
