~VERSION INFORMATION
 VERS.                 2.0:   CWLS LOG ASCII STANDARD - VERSION 2.0
 WRAP.                  NO:   SINGLE LINE PER DEPTH STEP
 CREA.                 9/4/2023 1:15:45 PM
#CREATED USING DSPetro VERSION 10ep.4.05.01 BY C4372838 ON 9/4/2023 1:15:45 PM
~WELL INFORMATION
#MNEM.UNIT       DATA                          DESCRIPTION MNEMONIC
#---------      ---------------------------   --------------------------
 STRT    .FT        2599.0000                 : START DEPTH
 STOP    .FT        3150.0000                 : STOP DEPTH
 STEP    .FT        0.5000                    : STEP VALUE
 NULL    .      -999.0000                     : NULL VALUE
 DATE    .      9/4/2023                      : LAS file Creation Date
 WELL   .      ABANICO-19                   : Well Name
 COMP   .      Kappa Resources Colombia,Ltd : Company
 FLD    .      UNKNOWN                      : Field
 STATE  .      UNKNOWN                      : State
 COUNT  .      Colombia                     : Country
 UWI    .      ABAN0019                     : Unique Well Identifier (UWI)
 LOC    .      UNKNOWN                      : Location
 PDAT   .      GROUND LEVEL                 : Permanent Datum
 EPDAT  .      1039.000000                  : Elevation of Permanent Datum
 LGMEA  .      DRILL FLOOR                  : Log Measured from
 APDAT  .      12.000000                    : Elevation Above Permanent Datum
 KB     .      1052.00000                   : KB Elevation
 DF     .      1051.00000                   : DF Elevation
 RWS    .      -999                         : Def_Rw
 WST    .      -999                         : Def_Rwt
 CNTY   .      UNKNOWN                      : County
 PROV   .      TOLIMA                       : Province
 SRVC   .      UNKNOWN                      : Contractor
 GDAT   .      WGS 84                       : Geodatum
 LONG   .      0.252833333280351            : Longitude
 LATI   .      0.26609722243415             : Latitude
 COORDIN.                                   : Grid System
 XCOORD .      910201.721945                : X or East-West Coordinate
 YCOORD .      958010.866493                : Y or North-South Coordinate
~CURVE INFORMATION
#MNEM                 UNIT       API CODE   Curve Type Comments
#----------     --------------- ----------  ---------- -----------
 DEPTH         .FT                        : Depth       
 GRGC          .API                       : GammaRay    GR:UNKNOWN:r1:0001:v1
 GRGC          .API                       : GammaRay    GR:UNKNOWN:r1:0001:v1
 HCGR          .GAPI                      :             HNGS Computed Gamma Ray {F13.2}
 SP            .MV                        : SP          Spontaneous Potential {F13.2}
 K_CORE_2023   .                          :             
 PDPE          .B/E                       : PEF         PEFZ:UNKNOWN:rC:NONE:v0 (auto-composite)
 POR_CORE_2023 .                          :             
 DEN           .g/cm3                     : Density     RHOZ:UNKNOWN:rC:NONE:v0 (auto-composite)
 PHIE          .Dec                       : Phi         
 SWT           .Dec                       : Sw          
 VCLmix        .Dec                       : Vcl         
 DCAL          .IN                        :             Differential Caliper {F13.2}
 AHT20         .OHMM                      : MedRes      Array Induction Two Foot Resistivity A20 {F13.2}
 AHT10         .OHMM                      : ShalRes     Array Induction Two Foot Resistivity A10 {F13.2}
 AHT30         .OHMM                      : MedRes      Array Induction Two Foot Resistivity A30 {F13.2}
 AHT60         .ohm.m                     : MedRes      AHT60:UNKNOWN:rC:NONE:v0 (auto-composite)
 AHT90         .ohm.m                     : DeepRes     AHT90:UNKNOWN:rC:NONE:v0 (auto-composite)
 BS            .IN                        : BitSize     Bit Size {F13.2}
 DTCO          .us/ft                     : Sonic       DTCO:UNKNOWN:rC:NONE:v0 (auto-composite)
 GR            .API                       : GammaRay    GR:UNKNOWN:rC:NONE:v0 (auto-composite)
 HCAL          .inch                      : Caliper     HCAL:UNKNOWN:rC:NONE:v0 (auto-composite)
 HDRA          .G/C3                      : Drho        HRDD Density Correction {F13.2}
 HTHO          .PPM                       :             HNGS Formation Thorium Concentration {F13.2}
 HTPR          .                          :             HNGS Thorium/Potassium Ratio {F13.2}
 HTUR          .                          :             HNGS Thorium/Uranium Ratio {F13.2}
 HUPR          .                          :             HNGS Uranium/Potassium Ratio {F13.2}
 HURA          .PPM                       :             HNGS Formation Uranium Concentration {F13.2}
 PEFZ          .B/E                       : PEF         PEFZ:UNKNOWN:rC:NONE:v0 (auto-composite)
 RHOZ          .g/cm3                     : Density     RHOZ:UNKNOWN:rC:NONE:v0 (auto-composite)
 RXOZ          .OHMM                      : MicroRes    MCFL Standard Resolution Invaded Zone Resistivity {F13.2}
 SP            .MV                        : SP          Spontaneous Potential {F13.2}
 TNPH          .dec                       : Neutron     TNPH:UNKNOWN:rC:NONE:v0 (auto-composite)
 CALI          .inch                      : Caliper     C1:UNKNOWN:rC:NONE:v0 (auto-composite)
 BS            .IN                        : BitSize     Bit Size {F13.2}
 HDRS          .ohm.m                     : DeepRes     Lateralog Deep Resistivity, ohmm
 NPHI          .dec                       : Neutron     TNPH:UNKNOWN:rC:NONE:v0 (auto-composite)
 PEF           .B/E                       : PEF         PEFZ:UNKNOWN:rC:NONE:v0 (auto-composite)
 CALI          .inch                      : Caliper     C1:UNKNOWN:rC:NONE:v0 (auto-composite)
 DRHO          .G/C3                      : Drho        HRDD Density Correction {F13.2}
 DT            .us/ft                     : Sonic       DTCO:UNKNOWN:rC:NONE:v0 (auto-composite)
 GR            .API                       : GammaRay    GR:UNKNOWN:r1:0001:v1
 HDRS          .ohm.m                     : DeepRes     Lateralog Deep Resistivity, ohmm
~A  DEPTH    GRGC      GRGC      HCGR       SP    K_CORE_2~    PDPE   POR_CORE~    DEN       PHIE      SWT      VCLmix     DCAL     AHT20     AHT10     AHT30     AHT60     AHT90       BS       DTCO       GR       HCAL      HDRA      HTHO      HTPR      HTUR      HUPR      HURA      PEFZ      RHOZ      RXOZ       SP       TNPH      CALI       BS       HDRS      NPHI      PEF       CALI      DRHO       DT        GR       HDRS   
# ...
3045.5000   60.1600   60.1600   25.5200   67.6900 -999.0000    1.8800 -999.0000    2.2800    0.2561    1.0000    0.0300   -0.2600   13.9400    6.6500   21.3300   37.1100   27.8200    8.5000   92.1312   60.1600    8.2435   -0.0100    6.0000   16.2100    2.0100    8.0600    2.9800    1.8800    2.2800    3.6800   67.6900    0.2700    8.2514    8.5000    1.5700    0.2700    1.8800    8.2514   -0.0100   92.1312   60.1600    1.5700 
3046.0000   56.3400   56.3400   24.1600   67.4400 -999.0000    1.9200 -999.0000    2.2600    0.2649    1.0000    0.0160   -0.2600   13.1200    6.4800   19.8300   35.8600   29.3700    8.5000   92.1312   56.3400    8.2435   -0.0100    5.4600   14.1500    1.6200    8.7500    3.3800    1.9200    2.2600    3.3100   67.4400    0.2700    8.2514    8.5000    1.4400    0.2700    1.9200    8.2514   -0.0100   92.1312   56.3400    1.4400 
3046.5000   55.0700   55.0700   25.4600   67.4400 -999.0000    1.9700 -999.0000    2.2400    0.2700    1.0000    0.0294   -0.2800   11.5900    6.0900   17.4800   32.8300   30.2100    8.5000   92.1312   55.0700    8.2205   -0.0100    5.5100   12.2600    1.5600    7.8700    3.5400    1.9700    2.2400    2.8100   67.4400    0.2700    8.2514    8.5000    1.4450    0.2700    1.9700    8.2514   -0.0100   92.1312   55.0700    1.4450 
3047.0000   55.0700   55.0700   26.3700   67.3100 -999.0000    1.9700 -999.0000    2.2200    0.2797    1.0000    0.0387   -0.2800   10.9100    5.9500   16.7000   32.6300   33.7000    8.5000   92.1312   55.0700    8.2205   -0.0100    5.5900   11.5100    1.7400    6.6200    3.2100    1.9700    2.2200    2.5100   67.3100    0.2800    8.2514    8.5000    1.4500    0.2800    1.9700    8.2514   -0.0100   92.1312   55.0700    1.4500 
3047.5000   55.9100   55.9100   26.3300   67.2500 -999.0000    1.9300 -999.0000    2.2300    0.2760    1.0000    0.0383   -0.2500   11.7700    6.0800   18.3100   35.7700   38.0500    8.5000   92.1312   55.9100    8.2512   -0.0100    4.9900    8.5200    1.5900    5.3600    3.1400    1.9300    2.2300    2.5000   67.2500    0.2800    8.2514    8.5000    1.3650    0.2800    1.9300    8.2514   -0.0100   92.1312   55.9100    1.3650 
3048.0000   54.4300   54.4300   25.9500   66.5600 -999.0000    1.8900 -999.0000    2.2400    0.2692    1.0000    0.0344   -0.2700   12.0100    6.1000   19.0700   37.8200   43.8500    8.5000   92.1312   54.4300    8.2320    0.0000    4.8300    8.1600    1.6400    4.9900    2.9600    1.8900    2.2400    2.7100   66.5600    0.2700    8.2514    8.5000    1.2800    0.2700    1.8900    8.2514    0.0000   92.1312   54.4300    1.2800 
3048.5000   50.0000   50.0000   26.6100   66.4400 -999.0000    1.8500 -999.0000    2.2500    0.2643    1.0000    0.0412   -0.2600   12.0400    6.0200   18.6100   36.8700   45.8900    8.5000   92.1312   50.0000    8.2435    0.0000    4.8100    7.6000    1.6600    4.5700    2.8900    1.8500    2.2500    2.7100   66.4400    0.2700    8.2514    8.5000    1.1600    0.2700    1.8500    8.2514    0.0000   92.1312   50.0000    1.1600 
3049.0000   49.9000   49.9000   26.5200   66.1300 -999.0000    1.8600 -999.0000    2.2500    0.2682    1.0000    0.0402   -0.2700   11.4800    5.8400   17.5200   35.6000   48.1800    8.5000   92.1312   49.9000    8.2282    0.0000    4.6100    6.9800    1.5100    4.6100    3.0500    1.8600    2.2500    2.6100   66.1300    0.2800    8.2514    8.5000    1.0400    0.2800    1.8600    8.2514    0.0000   92.1312   49.9000    1.0400 
3049.5000   50.1100   50.1100   27.2400   65.6900 -999.0000    1.8600 -999.0000    2.2500    0.2632    1.0000    0.0476   -0.2700   10.9000    5.6300   15.5200   31.2700   43.7200    8.5000   92.1312   50.1100    8.2320    0.0000    4.6200    6.6000    1.6200    4.0600    2.8400    1.8600    2.2500    2.4500   65.6900    0.2700    8.2514    8.5000    0.9650    0.2700    1.8600    8.2514    0.0000   92.1312   50.1100    0.9650 
3050.0000   53.0600   53.0600   27.3900   65.2500 -999.0000    1.8900 -999.0000    2.2500    0.2630    1.0000    0.0492   -0.2500   12.1600    5.9000   17.4500   35.0900   46.4500    8.5000   92.1312   53.0600    8.2550    0.0000    4.9400    7.5700    1.7000    4.4600    2.9100    1.8900    2.2500    2.4900   65.2500    0.2700    8.2514    8.5000    0.8900    0.2700    1.8900    8.2514    0.0000   92.1312   53.0600    0.8900 
3050.5000   52.1900   52.1900   28.0900   65.1300 -999.0000    1.9000 -999.0000    2.2600    0.2543    1.0000    0.0564   -0.2600   17.1900    6.8000   24.9400   46.1100   54.6000    8.5000   92.1312   52.1900    8.2435    0.0000    5.1300    7.7800    1.6900    4.5900    3.0300    1.9000    2.2600    2.6400   65.1300    0.2600    8.2514    8.5000    0.8950    0.2600    1.9000    8.2514    0.0000   92.1312   52.1900    0.8950 
3051.0000   59.3100   59.3100   28.6300   64.8800 -999.0000    1.9000 -999.0000    2.2700    0.2496    1.0000    0.0619   -0.2700   20.3900    7.2600   29.6800   49.9000   55.0600    8.5000   92.1312   59.3100    8.2320    0.0000    4.9300    6.8200    1.4000    4.8900    3.5300    1.9000    2.2700    2.9100   64.8800    0.2600    8.2514    8.5000    0.9000    0.2600    1.9000    8.2514    0.0000   92.1312   59.3100    0.9000 
3051.5000   66.7000   66.7000   32.6100   64.6900 -999.0000    1.8800 -999.0000    2.2700    0.2432    1.0000    0.1028   -0.2700   19.2200    7.1200   26.8300   45.9500   47.7100    8.5000   92.1312   66.7000    8.2320    0.0000    5.9500    7.7800    1.7400    4.4900    3.4300    1.8800    2.2700    2.9900   64.6900    0.2600    8.2759    8.5000    0.9050    0.2600    1.8800    8.2759    0.0000   92.1312   66.7000    0.9050 
3052.0000   74.0900   74.0900   30.0300   64.1900 -999.0000    1.8700 -999.0000    2.2700    0.2473    1.0000    0.0763   -0.2800   17.7900    6.9700   23.9900   41.9200   40.7800    8.5000   92.1312   74.0900    8.2205    0.0000    5.4800    7.7700    1.5000    5.1700    3.6400    1.8700    2.2700    2.8700   64.1900    0.2600    8.2759    8.5000    0.9100    0.2600    1.8700    8.2759    0.0000   92.1312   74.0900    0.9100 
3052.5000   66.8500   66.8500   29.7300   64.0000 -999.0000    1.8700 -999.0000    2.2600    0.2516    1.0000    0.0732   -0.2800   16.1500    6.8200   22.2900   39.5500   36.8300    8.5000   92.1312   66.8500    8.2205    0.0000    5.4100    7.7400    1.5400    5.0200    3.5100    1.8700    2.2600    2.6900   64.0000    0.2600    8.2759    8.5000    0.8750    0.2600    1.8700    8.2759    0.0000   92.1312   66.8500    0.8750 
3053.0000   66.3400   66.3400   29.7200   63.7500 -999.0000    1.8700 -999.0000    2.2600    0.2553    1.0000    0.0731   -0.2900   14.3600    6.6600   20.0600   35.7100   30.8300    8.5000   92.1312   66.3400    8.2090   -0.0100    5.9900    9.9900    1.7500    5.7000    3.4200    1.8700    2.2600    2.4900   63.7500    0.2700    8.2759    8.5000    0.8400    0.2700    1.8700    8.2759   -0.0100   92.1312   66.3400    0.8400 
3053.5000   65.5100   65.5100   32.1500   63.6300 -999.0000    1.8800 -999.0000    2.2600    0.2586    1.0000    0.0980   -0.2700   13.9500    6.6900   20.4000   35.4200   31.9300    8.5000   92.1312   65.5100    8.2320   -0.0100    6.4900   10.0300    1.7300    5.7900    3.7500    1.8800    2.2600    2.8900   63.6300    0.2900    8.2759    8.5000    0.8500    0.2900    1.8800    8.2759   -0.0100   92.1312   65.5100    0.8500 
3054.0000   69.4800   69.4800   33.1000   63.1900 -999.0000    1.8900 -999.0000    2.2600    0.2571    1.0000    0.1078   -0.2200   16.0000    7.3500   23.5200   41.7600   37.9300    8.5000   92.1312   69.4800    8.2780   -0.0100    6.6200    9.7800    1.7400    5.6200    3.8100    1.8900    2.2600    3.0000   63.1900    0.2900    8.2759    8.5000    0.8600    0.2900    1.8900    8.2759   -0.0100   92.1312   69.4800    0.8600 
3054.5000   65.1900   65.1900   31.5000   63.0000 -999.0000    1.9000 -999.0000    2.2500    0.2599    1.0000    0.0914   -0.2200   16.2000    7.7400   24.4000   45.2500   41.9500    8.5000   92.1312   65.1900    8.2818   -0.0100    6.5000   10.6400    1.8500    5.7500    3.5100    1.9000    2.2500    3.1400   63.0000    0.2800    8.2759    8.5000    0.9450    0.2800    1.9000    8.2759   -0.0100   92.1312   65.1900    0.9450 
