~VERSION INFORMATION
 VERS.                 2.0:   CWLS LOG ASCII STANDARD - VERSION 2.0
 WRAP.                  NO:   SINGLE LINE PER DEPTH STEP
 CREA.                 9/4/2023 1:15:44 PM
#CREATED USING DSPetro VERSION 10ep.4.05.01 BY C4372838 ON 9/4/2023 1:15:44 PM
~WELL INFORMATION
#MNEM.UNIT       DATA                          DESCRIPTION MNEMONIC
#---------      ---------------------------   --------------------------
 STRT    .FT        2533.0000                 : START DEPTH
 STOP    .FT        3150.0000                 : STOP DEPTH
 STEP    .FT        0.5000                    : STEP VALUE
 NULL    .      -999.0000                     : NULL VALUE
 DATE    .      9/4/2023                      : LAS file Creation Date
 WELL   .      ABANICO-2                    : Well Name
 COMP   .      Kappa Resources Colombia,Ltd : Company
 FLD    .      UNKNOWN                      : Field
 STATE  .      UNKNOWN                      : State
 COUNT  .      Colombia                     : Country
 UWI    .      ABAN0002                     : Unique Well Identifier (UWI)
 LOC    .      UNKNOWN                      : Location
 RWS    .      -999                         : Def_Rw
 WST    .      -999                         : Def_Rwt
 CNTY   .      UNKNOWN                      : County
 PROV   .                                   : Province
 SRVC   .      UNKNOWN                      : Contractor
 GDAT   .      WGS 84                       : Geodatum
 LONG   .      0                            : Longitude
 LATI   .      0                            : Latitude
 COORDIN.                                   : Grid System
 XCOORD .      910597.860948                : X or East-West Coordinate
 YCOORD .      957980.305104                : Y or North-South Coordinate
~CURVE INFORMATION
#MNEM                 UNIT       API CODE   Curve Type Comments
#----------     --------------- ----------  ---------- -----------
 DEPTH         .FT                        : Depth       
 GRGC          .API                       : GammaRay    GR:UNKNOWN:r1:MAIN:v1
 GRGC          .API                       : GammaRay    GR:UNKNOWN:r1:MAIN:v1
 SP            .mV                        : SP          SP:UNKNOWN:r1:MAIN:v1
 K_CORE_2023   .                          :             
 PDPE          .b/elec                    : PEF         PEF:UNKNOWN:r1:MAIN:v1
 POR_CORE_2023 .                          :             
 DEN           .g/cm3                     : Density     RHOB:PETROPHYSIC:rC:NONE:v0 (auto-composite)
 PHIE          .Dec                       : Phi         
 SWT           .Dec                       : Sw          
 VCLmix        .Dec                       : Vcl         
 AHT60         .ohm.m                     : DeepRes     HDRS:UNKNOWN:r1:MAIN:v1
 BS            .inches                    : BitSize     BS:UNKNOWN:r1:MAIN:v1
 DTCO          .uSec/ft                   : Sonic       DT:UNKNOWN:rC:NONE:v0 (auto-composite)
 GR            .API                       : GammaRay    GR:PETROPHYSIC:rC:NONE:v0 (auto-composite)
 HDRA          .g/cm3                     : Drho        DRHO:UNKNOWN:r1:MAIN:v1
 PEFZ          .b/elec                    : PEF         PEF:UNKNOWN:r1:MAIN:v1
 RHOZ          .g/cm3                     : Density     RHOB:PETROPHYSIC:rC:NONE:v0 (auto-composite)
 RXOZ          .ohm.m                     : MicroRes    MSFL:UNKNOWN:r1:MAIN:v1
 SP            .mV                        : SP          SP:UNKNOWN:r1:MAIN:v1
 TNPH          .v/v_decimal               : Neutron     NPHI:UNKNOWN:r1:MAIN:v1
 CALI          .inches                    : Caliper     CALI:PETROPHYSIC:rC:NONE:v0 (auto-composite)
 BS            .inches                    : BitSize     BS:UNKNOWN:r1:MAIN:v1
 HDRS          .ohm.m                     : DeepRes     HDRS:PETROPHYSIC:rC:NONE:v0 (auto-composite)
 HMRS          .ohm.m                     :             HMRS:PETROPHYSIC:rC:NONE:v0 (auto-composite)
 NPHI          .v/v_decimal               : Neutron     NPHI:UNKNOWN:r1:MAIN:v1
 PEF           .b/elec                    : PEF         PEF:UNKNOWN:r1:MAIN:v1
 CALI          .inches                    : Caliper     CALI:UNKNOWN:r1:MAIN:v1
 DRHO          .g/cm3                     : Drho        DRHO:UNKNOWN:r1:MAIN:v1
 DT            .us/ft                     : Sonic       DT:UNKNOWN:r1:MAIN:v1
 GR            .API                       : GammaRay    GR:UNKNOWN:r1:MAIN:v1
 HDRS          .ohm.m                     : DeepRes     HDRS:UNKNOWN:r1:MAIN:v1
 HMRS          .UNKNOWN                   :             HMRS:UNKNOWN:r1:MAIN:v1
~A  DEPTH    GRGC      GRGC       SP    K_CORE_2~    PDPE   POR_CORE~    DEN       PHIE      SWT      VCLmix    AHT60       BS       DTCO       GR       HDRA      PEFZ      RHOZ      RXOZ       SP       TNPH      CALI       BS       HDRS      HMRS      NPHI      PEF       CALI      DRHO       DT        GR       HDRS      HMRS   
# ...
2795.5000   47.0773   47.0773  -26.1200 -999.0000    2.2110 -999.0000    2.2523    0.1856    0.5353    0.3256   37.9917    8.5000  101.3358   49.5376    0.1412    2.2110    2.2523   63.4518  -26.1200    0.3554 -999.0000    8.5000   37.9917   34.1937    0.3554    2.2110    9.9143    0.1412  103.1891   47.0773   37.9917   34.1937 
2796.0000   47.4367   47.4367  -28.6000 -999.0000    2.2173 -999.0000    2.2413    0.1848    0.3649    0.3024   56.9399    8.5000  100.3334   48.1462    0.1782    2.2173    2.2413   59.8091  -28.6000    0.3393 -999.0000    8.5000   56.9399   49.8751    0.3393    2.2173    9.8750    0.1782  105.8031   47.4367   56.9399   49.8751 
2796.5000   48.1001   48.1001  -30.7000 -999.0000    2.2170 -999.0000    2.2180    0.1872    0.3705    0.3140   63.4241    8.5000   98.9070   48.8373    0.2086    2.2170    2.2180   60.2375  -30.7000    0.3423 -999.0000    8.5000   63.4241   55.0873    0.3423    2.2170    9.8581    0.2086  105.6281   48.1001   63.4241   55.0873 
2797.0000   49.8048   49.8048  -33.4333 -999.0000    2.1913 -999.0000    2.1933    0.1925    0.3749    0.3290   65.1795    8.5000   97.0715   49.7403    0.2295    2.1913    2.1933   61.2740  -33.4333    0.3473 -999.0000    8.5000   65.1795   56.6322    0.3473    2.1913    9.8799    0.2295  118.4078   49.8048   65.1795   56.6322 
2797.5000   53.0944   53.0944  -37.1533 -999.0000    2.1413 -999.0000    2.1721    0.1954    0.3784    0.3390   79.4101    8.5000   99.9889   50.3393    0.2291    2.1413    2.1721  109.2221  -37.1533    0.3351 -999.0000    8.5000   79.4101   66.9191    0.3351    2.1413    9.9203    0.2291  118.5500   53.0944   79.4101   66.9191 
2798.0000   55.1308   55.1308  -41.1800 -999.0000    2.0975 -999.0000    2.1680    0.2156    0.2885    0.2490  104.3525    8.5000  103.8596   51.2054    0.2081    2.0975    2.1680  117.1761  -41.1800    0.3091 -999.0000    8.5000  104.3525   80.5016    0.3091    2.0975    9.9804    0.2081  106.2312   55.1308  104.3525   80.5016 
2798.5000   57.2318   57.2318  -43.7200 -999.0000    2.0542 -999.0000    2.1800    0.2066    0.3077    0.2615  125.0717    8.5000   99.3989   49.0216    0.1749    2.0542    2.1800  114.7519  -43.7200    0.3063 -999.0000    8.5000  125.0717   91.1457    0.3063    2.0542   10.0127    0.1749   99.2891   57.2318  125.0717   91.1457 
2799.0000   56.9277   56.9277  -45.0933 -999.0000    2.0051 -999.0000    2.1943    0.1983    0.3204    0.2663  124.8916    8.5000   97.6804   45.9808    0.1379    2.0051    2.1943  110.8164  -45.0933    0.3013 -999.0000    8.5000  124.8916  103.4314    0.3013    2.0051   10.0312    0.1379   96.8859   56.9277  124.8916  103.4314 
2799.5000   55.3889   55.3889  -45.6733 -999.0000    1.9267 -999.0000    2.1986    0.2108    0.2628    0.2138  110.9384    8.5000   98.4616   42.8294    0.1027    1.9267    2.1986  113.3985  -45.6733    0.2982 -999.0000    8.5000  110.9384  128.6325    0.2982    1.9267   10.0192    0.1027   96.6156   55.3889  110.9384  128.6325 
2800.0000   53.3524   53.3524  -45.3000 -999.0000    1.8861 -999.0000    2.1981    0.2143    0.2424    0.1951   99.4237    8.5000   99.7280   41.7052    0.0676    1.8861    2.1981  120.3742  -45.3000    0.2909 -999.0000    8.5000   99.4237  146.8133    0.2909    1.8861   10.0132    0.0676   95.5250   53.3524   99.4237  146.8133 
2800.5000   51.4819   51.4819  -43.7600 -999.0000    1.9621 -999.0000    2.2057    0.1979    0.3046    0.2468   80.9023    8.5000   96.7584   44.8105    0.0420    1.9621    2.2057  115.4219  -43.7600    0.2956 -999.0000    8.5000   80.9023  114.6023    0.2956    1.9621   10.0274    0.0420   90.6750   51.4819   80.9023  114.6023 
2801.0000   52.3112   52.3112  -41.0467 -999.0000    2.1288 -999.0000    2.2196    0.1839    0.3532    0.2860   59.5023    8.5000   96.2943   47.1602    0.0395    2.1288    2.2196   78.3090  -41.0467    0.3050 -999.0000    8.5000   59.5023   70.6961    0.3050    2.1288   10.0569    0.0395   92.1375   52.3112   59.5023   70.6961 
2801.5000   54.7162   54.7162  -37.0533    7.8700    2.2911    0.2585    2.2224    0.1699    0.5267    0.3755   37.1801    8.5000  105.4438   52.5323    0.0595    2.2911    2.2224   26.9276  -37.0533    0.3235 -999.0000    8.5000   37.1801   33.8772    0.3235    2.2911   10.1219    0.0595  100.5813   54.7162   37.1801   33.8772 
2802.0000   56.3472   56.3472  -33.6133 -999.0000    2.3192 -999.0000    2.2000    0.1639    0.6207    0.4719   27.9552    8.5000  109.5990   58.7522    0.0918    2.3192    2.2000   11.7761  -33.6133    0.3570 -999.0000    8.5000   27.9552   21.7068    0.3570    2.3192   10.2126    0.0918  104.8578   56.3472   27.9552   21.7068 
2802.5000   54.7991   54.7991  -32.7933 -999.0000    2.2294 -999.0000    2.1603    0.1862    0.5876    0.4742   27.5501    8.5000  108.5479   59.7197    0.1175    2.2294    2.1603    8.2265  -32.7933    0.3791 -999.0000    8.5000   27.5501   20.2070    0.3791    2.2294   10.2885    0.1175  104.7188   54.7991   27.5501   20.2070 
2803.0000   54.9005   54.9005  -35.9400 -999.0000    2.1320 -999.0000    2.1270    0.1942    0.4647    0.4807   35.8093    8.5000  103.5942   58.8443    0.1299    2.1320    2.1270   17.4255  -35.9400    0.3994 -999.0000    8.5000   35.8093   27.5774    0.3994    2.1320   10.1897    0.1299  106.2344   54.9005   35.8093   27.5774 
2803.5000   55.0387   55.0387  -40.7200 -999.0000    2.1054 -999.0000    2.1125    0.2034    0.4374    0.4509   56.6062    8.5000  101.7465   58.0703    0.1420    2.1054    2.1125   33.5032  -40.7200    0.3981 -999.0000    8.5000   56.6062   54.8896    0.3981    2.1054   10.0143    0.1420   98.0875   55.0387   56.6062   54.8896 
2804.0000   53.2050   53.2050  -45.6667 -999.0000    2.1494 -999.0000    2.1081    0.2216    0.3767    0.3816   70.3604    8.5000  105.1582   56.9830    0.1570    2.1494    2.1081   43.9216  -45.6667    0.3869 -999.0000    8.5000   70.3604   91.6926    0.3869    2.1494    9.9253    0.1570   79.8734   53.2050   70.3604   91.6926 
2804.5000   54.0804   54.0804  -49.4400 -999.0000    2.1826 -999.0000    2.1009    0.2411    0.3226    0.3270   70.2087    8.5000  104.7619   54.5227    0.1752    2.1826    2.1009   46.4603  -49.4400    0.3951 -999.0000    8.5000   70.2087   98.8361    0.3951    2.1826    9.9285    0.1752   79.2719   54.0804   70.2087   98.8361 
2805.0000   57.9781   57.9781  -52.5133 -999.0000    2.1707 -999.0000    2.0985    0.2581    0.2776    0.2824   71.7197    8.5000  104.3641   55.0848    0.1843    2.1707    2.0985   50.7819  -52.5133    0.3994 -999.0000    8.5000   71.7197   96.6492    0.3994    2.1707    9.9253    0.1843   90.5594   57.9781   71.7197   96.6492 
2805.5000   57.9874   57.9874  -54.6733 -999.0000    2.1180 -999.0000    2.0881    0.2691    0.2469    0.2511   82.6042    8.5000  101.7790   55.5179    0.1765    2.1180    2.0881   59.7535  -54.6733    0.3976 -999.0000    8.5000   82.6042   99.3450    0.3976    2.1180    9.8958    0.1765   96.5906   57.9874   82.6042   99.3450 
2806.0000   59.0655   59.0655  -56.4867 -999.0000    2.0522 -999.0000    2.0735    0.2860    0.2166    0.2248   99.4716    8.5000   98.8707   55.1585    0.1572    2.0522    2.0735   60.3431  -56.4867    0.4014 -999.0000    8.5000   99.4716  103.1418    0.4014    2.0522    9.9078    0.1572   97.4328   59.0655   99.4716  103.1418 
2806.5000   62.8619   62.8619  -57.9733 -999.0000    1.9889 -999.0000    2.0529    0.3026    0.1912    0.2033  116.1754    8.5000  103.9953   54.7623    0.1309    1.9889    2.0529   63.1657  -57.9733    0.4082 -999.0000    8.5000  116.1754  103.9774    0.4082    1.9889    9.9537    0.1309  109.7250   62.8619  116.1754  103.9774 
2807.0000   62.5117   62.5117  -59.1600   15.3100    1.9343    0.3251    2.0449    0.3112    0.1739    0.1861  131.2670    8.5000  121.9763   53.1129    0.1026    1.9343    2.0449   69.2689  -59.1600    0.4101 -999.0000    8.5000  131.2670  103.6919    0.4101    1.9343    9.9733    0.1026  135.6187   62.5117  131.2670  103.6919 
2807.5000   63.6083   63.6083  -60.0800 -999.0000    1.9227 -999.0000    2.0621    0.3156    0.1616    0.1728  137.3562    8.5000  137.7614   50.3116    0.0801    1.9227    2.0621   61.9384  -60.0800    0.4171 -999.0000    8.5000  137.3562  102.8506    0.4171    1.9227    9.9515    0.0801  139.7953   63.6083  137.3562  102.8506 
