~VERSION INFORMATION
 VERS.                 2.0:   CWLS LOG ASCII STANDARD - VERSION 2.0
 WRAP.                  NO:   SINGLE LINE PER DEPTH STEP
 CREA.                 9/4/2023 1:15:44 PM
#CREATED USING DSPetro VERSION 10ep.4.05.01 BY C4372838 ON 9/4/2023 1:15:44 PM
~WELL INFORMATION
#MNEM.UNIT       DATA                          DESCRIPTION MNEMONIC
#---------      ---------------------------   --------------------------
 STRT    .FT        2533.0000                 : START DEPTH
 STOP    .FT        3150.0000                 : STOP DEPTH
 STEP    .FT        0.5000                    : STEP VALUE
 NULL    .      -999.0000                     : NULL VALUE
 DATE    .      9/4/2023                      : LAS file Creation Date
 WELL   .      ABANICO-2                    : Well Name
 COMP   .      Kappa Resources Colombia,Ltd : Company
 FLD    .      UNKNOWN                      : Field
 STATE  .      UNKNOWN                      : State
 COUNT  .      Colombia                     : Country
 UWI    .      ABAN0002                     : Unique Well Identifier (UWI)
 LOC    .      UNKNOWN                      : Location
 RWS    .      -999                         : Def_Rw
 WST    .      -999                         : Def_Rwt
 CNTY   .      UNKNOWN                      : County
 PROV   .                                   : Province
 SRVC   .      UNKNOWN                      : Contractor
 GDAT   .      WGS 84                       : Geodatum
 LONG   .      0                            : Longitude
 LATI   .      0                            : Latitude
 COORDIN.                                   : Grid System
 XCOORD .      910597.860948                : X or East-West Coordinate
 YCOORD .      957980.305104                : Y or North-South Coordinate
~CURVE INFORMATION
#MNEM                 UNIT       API CODE   Curve Type Comments
#----------     --------------- ----------  ---------- -----------
 DEPTH         .FT                        : Depth       
 GRGC          .API                       : GammaRay    GR:UNKNOWN:r1:MAIN:v1
 GRGC          .API                       : GammaRay    GR:UNKNOWN:r1:MAIN:v1
 SP            .mV                        : SP          SP:UNKNOWN:r1:MAIN:v1
 K_CORE_2023   .                          :             
 PDPE          .b/elec                    : PEF         PEF:UNKNOWN:r1:MAIN:v1
 POR_CORE_2023 .                          :             
 DEN           .g/cm3                     : Density     RHOB:PETROPHYSIC:rC:NONE:v0 (auto-composite)
 PHIE          .Dec                       : Phi         
 SWT           .Dec                       : Sw          
 VCLmix        .Dec                       : Vcl         
 AHT60         .ohm.m                     : DeepRes     HDRS:UNKNOWN:r1:MAIN:v1
 BS            .inches                    : BitSize     BS:UNKNOWN:r1:MAIN:v1
 DTCO          .uSec/ft                   : Sonic       DT:UNKNOWN:rC:NONE:v0 (auto-composite)
 GR            .API                       : GammaRay    GR:PETROPHYSIC:rC:NONE:v0 (auto-composite)
 HDRA          .g/cm3                     : Drho        DRHO:UNKNOWN:r1:MAIN:v1
 PEFZ          .b/elec                    : PEF         PEF:UNKNOWN:r1:MAIN:v1
 RHOZ          .g/cm3                     : Density     RHOB:PETROPHYSIC:rC:NONE:v0 (auto-composite)
 RXOZ          .ohm.m                     : MicroRes    MSFL:UNKNOWN:r1:MAIN:v1
 SP            .mV                        : SP          SP:UNKNOWN:r1:MAIN:v1
 TNPH          .v/v_decimal               : Neutron     NPHI:UNKNOWN:r1:MAIN:v1
 CALI          .inches                    : Caliper     CALI:PETROPHYSIC:rC:NONE:v0 (auto-composite)
 BS            .inches                    : BitSize     BS:UNKNOWN:r1:MAIN:v1
 HDRS          .ohm.m                     : DeepRes     HDRS:PETROPHYSIC:rC:NONE:v0 (auto-composite)
 HMRS          .ohm.m                     :             HMRS:PETROPHYSIC:rC:NONE:v0 (auto-composite)
 NPHI          .v/v_decimal               : Neutron     NPHI:UNKNOWN:r1:MAIN:v1
 PEF           .b/elec                    : PEF         PEF:UNKNOWN:r1:MAIN:v1
 CALI          .inches                    : Caliper     CALI:UNKNOWN:r1:MAIN:v1
 DRHO          .g/cm3                     : Drho        DRHO:UNKNOWN:r1:MAIN:v1
 DT            .us/ft                     : Sonic       DT:UNKNOWN:r1:MAIN:v1
 GR            .API                       : GammaRay    GR:UNKNOWN:r1:MAIN:v1
 HDRS          .ohm.m                     : DeepRes     HDRS:UNKNOWN:r1:MAIN:v1
 HMRS          .UNKNOWN                   :             HMRS:UNKNOWN:r1:MAIN:v1
~A  DEPTH    GRGC      GRGC       SP    K_CORE_2~    PDPE   POR_CORE~    DEN       PHIE      SWT      VCLmix    AHT60       BS       DTCO       GR       HDRA      PEFZ      RHOZ      RXOZ       SP       TNPH      CALI       BS       HDRS      HMRS      NPHI      PEF       CALI      DRHO       DT        GR       HDRS      HMRS   
# ...
2958.0000   74.7026   74.7026  -13.0600 -999.0000    3.2272 -999.0000    2.5287    0.0001    1.0000    1.0000   30.7597    8.5000   84.9329   92.7448    0.0724    3.2272    2.5287   23.4231  -13.0600    0.3406 -999.0000    8.5000   30.7597   26.9153    0.3406    3.2272    9.9253    0.0724   87.6406   74.7026   30.7597   26.9153 
2958.5000   77.3472   77.3472  -12.9533 -999.0000    3.1259 -999.0000    2.5156    0.0001    1.0000    0.9790   30.4558    8.5000   85.6999   89.0129    0.0633    3.1259    2.5156   22.9190  -12.9533    0.3466 -999.0000    8.5000   30.4558   26.5402    0.3466    3.1259    9.8985    0.0633   86.8438   77.3472   30.4558   26.5402 
2959.0000   75.6241   75.6241  -12.8467 -999.0000    3.0677 -999.0000    2.4890    0.0001    1.0000    0.9249   30.0550    8.5000   85.6859   86.4697    0.0499    3.0677    2.4890   24.7557  -12.8467    0.3410 -999.0000    8.5000   30.0550   26.2165    0.3410    3.0677    9.8947    0.0499   86.3297   75.6241   30.0550   26.2165 
2959.5000   72.0765   72.0765  -12.7200 -999.0000    3.0356 -999.0000    2.4691    0.0001    1.0000    0.8786   29.9574    8.5000   85.9045   84.2950    0.0437    3.0356    2.4691   27.4568  -12.7200    0.3370 -999.0000    8.5000   29.9574   25.8899    0.3370    3.0356    9.8925    0.0437   85.3484   72.0765   29.9574   25.8899 
2960.0000   68.2616   68.2616  -12.5667 -999.0000    3.0064 -999.0000    2.4572    0.0001    1.0000    0.7794   29.5806    8.5000   85.1229   79.6324    0.0372    3.0064    2.4572   25.4329  -12.5667    0.3217 -999.0000    8.5000   29.5806   25.5852    0.3217    3.0064    9.8919    0.0372   84.9078   68.2616   29.5806   25.5852 
2960.5000   66.0593   66.0593  -12.2933 -999.0000    2.9846 -999.0000    2.4541    0.0001    1.0000    0.7571   29.5991    8.5000   83.9847   78.5820    0.0317    2.9846    2.4541   22.7692  -12.2933    0.3074 -999.0000    8.5000   29.5991   25.6521    0.3074    2.9846    9.8805    0.0317   84.0609   66.0593   29.5991   25.6521 
2961.0000   64.3362   64.3362  -12.2600 -999.0000    2.9878 -999.0000    2.4587    0.0001    1.0000    0.6739   30.3164    8.5000   85.0682   74.6750    0.0247    2.9878    2.4587   21.8231  -12.2600    0.2970 -999.0000    8.5000   30.3164   26.1129    0.2970    2.9878    9.8706    0.0247   83.1422   64.3362   30.3164   26.1129 
2961.5000   60.6227   60.6227  -12.2733 -999.0000    3.0080 -999.0000    2.4630    0.0001    1.0000    0.5816   31.3204    8.5000   85.5904   70.3349    0.0194    3.0080    2.4630   20.8065  -12.2733    0.3017 -999.0000    8.5000   31.3204   26.4876    0.3017    3.0080    9.8548    0.0194   82.8750   60.6227   31.3204   26.4876 
2962.0000   61.5718   61.5718  -12.4600 -999.0000    3.0414 -999.0000    2.4676    0.0001    1.0000    0.6188   31.9858    8.5000   85.5331   72.0857    0.0193    3.0414    2.4676   22.1275  -12.4600    0.3057 -999.0000    8.5000   31.9858   26.5513    0.3057    3.0414    9.8592    0.0193   82.5891   61.5718   31.9858   26.5513 
2962.5000   63.4055   63.4055  -12.8200 -999.0000    3.0697 -999.0000    2.4745    0.0001    1.0000    0.6728   31.4323    8.5000   85.4733   74.6197    0.0229    3.0697    2.4745   23.2022  -12.8200    0.3023 -999.0000    8.5000   31.4323   26.1251    0.3023    3.0697    9.8756    0.0229   82.2469   63.4055   31.4323   26.1251 
2963.0000   64.9352   64.9352  -12.9867 -999.0000    3.1054 -999.0000    2.4790    0.0001    1.0000    0.6532   30.0503    8.5000   85.4363   73.6982    0.0268    3.1054    2.4790   25.0395  -12.9867    0.2976 -999.0000    8.5000   30.0503   25.2471    0.2976    3.1054    9.9007    0.0268   82.4625   64.9352   30.0503   25.2471 
2963.5000   68.6763   68.6763  -13.1467 -999.0000    3.1706 -999.0000    2.4866    0.0001    1.0000    0.6437   28.8189    8.5000   85.4299   73.2559    0.0256    3.1706    2.4866   24.9607  -13.1467    0.2899 -999.0000    8.5000   28.8189   24.4706    0.2899    3.1706    9.9089    0.0256   82.5203   68.6763   28.8189   24.4706 
2964.0000   69.0541   69.0541  -13.1733 -999.0000    3.2596 -999.0000    2.4902    0.0001    1.0000    0.6071   27.9134    8.5000   85.4114   71.5328    0.0190    3.2596    2.4902   28.5435  -13.1733    0.2887 -999.0000    8.5000   27.9134   24.1734    0.2887    3.2596    9.9214    0.0190   82.3906   69.0541   27.9134   24.1734 
2964.5000   70.0585   70.0585  -13.1800 -999.0000    3.3557 -999.0000    2.4948    0.0001    1.0000    0.5818   27.2131    8.5000   85.4294   70.3441    0.0137    3.3557    2.4948   28.2833  -13.1800    0.2962 -999.0000    8.5000   27.2131   24.0185    0.2962    3.3557    9.9122    0.0137   82.1625   70.0585   27.2131   24.0185 
2965.0000   69.7267   69.7267  -13.3067 -999.0000    3.4015 -999.0000    2.4978    0.0001    1.0000    0.5385   26.3646    8.5000   85.3939   68.3077    0.0148    3.4015    2.4978   27.3577  -13.3067    0.3032 -999.0000    8.5000   26.3646   23.1159    0.3032    3.4015    9.9040    0.0148   82.2094   69.7267   26.3646   23.1159 
2965.5000   67.7087   67.7087  -13.2600 -999.0000    3.3970 -999.0000    2.5006    0.0001    1.0000    0.5030   24.7992    8.5000   85.3425   66.6399    0.0238    3.3970    2.5006   25.4563  -13.2600    0.3200 -999.0000    8.5000   24.7992   21.6421    0.3200    3.3970    9.9094    0.0238   82.2984   67.7087   24.7992   21.6421 
2966.0000   65.6723   65.6723  -13.6467 -999.0000    3.3576 -999.0000    2.5007    0.0001    1.0000    0.5628   23.1820    8.5000   84.8820   69.4503    0.0383    3.3576    2.5007   25.3025  -13.6467    0.3348 -999.0000    8.5000   23.1820   20.5910    0.3348    3.3576    9.9242    0.0383   82.3000   65.6723   23.1820   20.5910 
2966.5000   64.1888   64.1888  -13.9733 -999.0000    3.3349 -999.0000    2.5020    0.0001    1.0000    0.5549   22.3322    8.5000   83.3683   69.0817    0.0521    3.3349    2.5020   20.2739  -13.9733    0.3438 -999.0000    8.5000   22.3322   20.1556    0.3438    3.3349    9.9220    0.0521   82.3000   64.1888   22.3322   20.1556 
2967.0000   62.2721   62.2721  -14.0667 -999.0000    3.3437 -999.0000    2.5036    0.0001    1.0000    0.5236   22.3852    8.5000   82.7303   67.6074    0.0572    3.3437    2.5036   18.1908  -14.0667    0.3435 -999.0000    8.5000   22.3852   20.1888    0.3435    3.3437    9.9034    0.0572   82.3000   62.2721   22.3852   20.1888 
2967.5000   61.2954   61.2954  -14.0400 -999.0000    3.3489 -999.0000    2.5064    0.0001    1.0000    0.5896   23.1722    8.5000   82.7330   70.7127    0.0561    3.3489    2.5064   16.7750  -14.0400    0.3393 -999.0000    8.5000   23.1722   20.7210    0.3393    3.3489    9.8559    0.0561   82.3000   61.2954   23.1722   20.7210 
2968.0000   63.4885   63.4885  -14.2000 -999.0000    3.3441 -999.0000    2.5041    0.0001    1.0000    0.5916   23.4297    8.5000   82.6558   70.8049    0.0455    3.3441    2.5041   15.0498  -14.2000    0.3311 -999.0000    8.5000   23.4297   20.8551    0.3311    3.3441    9.8007    0.0455   82.3000   63.4885   23.4297   20.8551 
2968.5000   65.2300   65.2300  -14.2933 -999.0000    3.3180 -999.0000    2.4953    0.0001    1.0000    0.5294   22.2035    8.5000   82.5588   67.8838    0.0395    3.3180    2.4953   13.9576  -14.2933    0.3373 -999.0000    8.5000   22.2035   19.8074    0.3373    3.3180    9.7652    0.0395   82.3000   65.2300   22.2035   19.8074 
2969.0000   65.3867   65.3867  -14.4600 -999.0000    3.3014 -999.0000    2.4829    0.0001    1.0000    0.5771   20.4872    8.5000   82.5336   70.1230    0.0406    3.3014    2.4829   14.1633  -14.4600    0.3335 -999.0000    8.5000   20.4872   18.4989    0.3335    3.3014    9.7865    0.0406   82.3000   65.3867   20.4872   18.4989 
2969.5000   62.9909   62.9909  -14.6200 -999.0000    3.3001 -999.0000    2.4709    0.0001    1.0000    0.6069   18.8701    8.5000   82.5717   71.5236    0.0470    3.3001    2.4709   15.6224  -14.6200    0.3363 -999.0000    8.5000   18.8701   17.4148    0.3363    3.3001    9.8215    0.0470   82.3000   62.9909   18.8701   17.4148 
2970.0000   62.7697   62.7697  -15.0800 -999.0000    3.3209 -999.0000    2.4635    0.0001    1.0000    0.6545   17.5634    8.5000   83.5565   73.7627    0.0570    3.3209    2.4635   18.1908  -15.0800    0.3575 -999.0000    8.5000   17.5634   16.4833    0.3575    3.3209    9.8231    0.0570   82.3000   62.7697   17.5634   16.4833 
