~VERSION INFORMATION
 VERS.                 2.0:   CWLS LOG ASCII STANDARD - VERSION 2.0
 WRAP.                  NO:   SINGLE LINE PER DEPTH STEP
 CREA.                 9/4/2023 1:15:46 PM
#CREATED USING DSPetro VERSION 10ep.4.05.01 BY C4372838 ON 9/4/2023 1:15:46 PM
~WELL INFORMATION
#MNEM.UNIT       DATA                          DESCRIPTION MNEMONIC
#---------      ---------------------------   --------------------------
 STRT    .FT        2741.0000                 : START DEPTH
 STOP    .FT        3159.5000                 : STOP DEPTH
 STEP    .FT        0.5000                    : STEP VALUE
 NULL    .      -999.0000                     : NULL VALUE
 DATE    .      9/4/2023                      : LAS file Creation Date
 WELL   .      ABANICO-34              : Well Name
 COMP   .      PACIFIC RUBIALES ENERGY : Company
 FLD    .      ABANICO                 : Field
 STATE  .      UNKNOWN                 : State
 COUNT  .      COLOMBIA                : Country
 API    .      ABAN0034                : API Number
 UWI    .      ABAN0034                : Unique Well Identifier (UWI)
 LOC    .      N                       : Location
 EPDAT  .      1017.000                : Elevation of Permanent Datum
 GL     .      1017.000                : GL Elevation
 RWS    .      -999                    : Def_Rw
 WST    .      -999                    : Def_Rwt
 CNTY   .      TOLIMA                  : County
 PROV   .      UNKNOWN                 : Province
 SRVC   .      WEATHERFORD             : Contractor
 GDAT   .      WGS 84                  : Geodatum
 LONG   .      -74.873885111279        : Longitude
 LATI   .      4.22623405562507        : Latitude
 COORDIN.                              : Grid System
 XCOORD .      911584.313002           : X or East-West Coordinate
 YCOORD .      959134.088873           : Y or North-South Coordinate
~CURVE INFORMATION
#MNEM                 UNIT       API CODE   Curve Type Comments
#----------     --------------- ----------  ---------- -----------
 DEPTH         .FT                        : Depth       
 GRGC          .GAPI                      : GammaRay    Gamma Ray
 GRGC          .GAPI                      : GammaRay    Gamma Ray
 SP            .MV                        : SP          Spontaneous Potential
 K_CORE_2023   .                          :             
 NPRS          .V/V                       :             Sandstone Neutron Por.
 PDPE          .B/E                       : PEF         PE
 POR_CORE_2023 .                          :             
 R85O          .OHMM                      :             Array Ind One Res 85
 R60O          .OHMM                      :             Array Ind One Res 60
 R40O          .OHMM                      :             Array Ind One Res 40
 R30O          .OHMM                      :             Array Ind One Res 30
 R20O          .OHMM                      :             Array Ind One Res 20
 DT46          .US/F                      : Sonic       4-6' Compensated Sonic
 DEN           .G/C3                      : Density     Compensated Density
 PHIE          .Dec                       : Phi         
 SWT           .Dec                       : Sw          
 VCLmix        .Dec                       : Vcl         
 BS            .inches                    : BitSize     Bit size
 DTCO          .US/F                      : Sonic       4-6' Compensated Sonic
 GR            .GAPI                      : GammaRay    Gamma Ray
 HDRA          .G/C3                      : Drho        Density Correction
 PEFZ          .B/E                       : PEF         PE
 RHOZ          .G/C3                      : Density     Compensated Density
 SP            .MV                        : SP          Spontaneous Potential
 TNPH          .V/V                       : Neutron     Neutron Posrosity
 BS            .inches                    : BitSize     Bit size
 NPHI          .V/V                       : Neutron     Neutron Posrosity
 PEF           .B/E                       : PEF         PE
 DRHO          .G/C3                      : Drho        Density Correction
 DT            .US/F                      : Sonic       4-6' Compensated Sonic
 GR            .GAPI                      : GammaRay    Gamma Ray
~A  DEPTH    GRGC      GRGC       SP    K_CORE_2~    NPRS      PDPE   POR_CORE~    R85O      R60O      R40O      R30O      R20O      DT46      DEN       PHIE      SWT      VCLmix      BS       DTCO       GR       HDRA      PEFZ      RHOZ       SP       TNPH       BS       NPHI      PEF       DRHO       DT        GR    
# ...
3103.5000 -999.0000 -999.0000   41.0510 -999.0000    0.2960    2.1500 -999.0000   13.2810 -999.0000   13.4030   13.5350   13.6870   98.7480    2.1760    0.2592    0.8650    0.1732    8.5000   98.7480 -999.0000    0.1050    2.1500    2.1760   41.0510    0.2960    8.5000    0.2960    2.1500    0.1050   98.7480 -999.0000 
3104.0000 -999.0000 -999.0000   48.8690 -999.0000    0.2980    2.2880 -999.0000    8.7860 -999.0000    8.8810    8.9560    9.0340   97.6290    2.1830    0.2542    1.0000    0.1888    8.5000   97.6290 -999.0000    0.1500    2.2880    2.1830   48.8690    0.2980    8.5000    0.2980    2.2880    0.1500   97.6290 -999.0000 
3104.5000 -999.0000 -999.0000   55.3580 -999.0000    0.3010    2.4010 -999.0000    8.2730 -999.0000    8.3760    8.4420    8.5030   95.2340    2.2080    0.2327    1.0000    0.2335    8.5000   95.2340 -999.0000    0.1810    2.4010    2.2080   55.3580    0.3010    8.5000    0.3010    2.4010    0.1810   95.2340 -999.0000 
3105.0000 -999.0000 -999.0000   59.2800 -999.0000    0.3030    2.4420 -999.0000    9.6970 -999.0000    9.8310    9.9130    9.9860   92.5910    2.2400    0.2059    1.0000    0.2856    8.5000   92.5910 -999.0000    0.1840    2.4420    2.2400   59.2800    0.3030    8.5000    0.3030    2.4420    0.1840   92.5910 -999.0000 
3105.5000 -999.0000 -999.0000   61.3150 -999.0000    0.3060    2.4720 -999.0000   10.2630 -999.0000   10.4120   10.5180   10.6110   91.3910    2.2570    0.1908    1.0000    0.3186    8.5000   91.3910 -999.0000    0.1800    2.4720    2.2570   61.3150    0.3060    8.5000    0.3060    2.4720    0.1800   91.3910 -999.0000 
3106.0000 -999.0000 -999.0000   61.0990 -999.0000    0.3080    2.4890 -999.0000    9.2770 -999.0000    9.4160    9.5330    9.6430   91.3420    2.2530    0.1932    1.0000    0.3182    8.5000   91.3420 -999.0000    0.1870    2.4890    2.2530   61.0990    0.3080    8.5000    0.3080    2.4890    0.1870   91.3420 -999.0000 
3106.5000 -999.0000 -999.0000   58.8470 -999.0000 -999.0000    2.4660 -999.0000   10.4570 -999.0000   10.6160   10.7870   10.9570   90.6250    2.2360 -999.0000 -999.0000 -999.0000    8.5000   90.6250 -999.0000    0.1990    2.4660    2.2360   58.8470 -999.0000    8.5000 -999.0000    2.4660    0.1990   90.6250 -999.0000 
3107.0000 -999.0000 -999.0000   53.8100 -999.0000 -999.0000    2.4070 -999.0000   20.0790 -999.0000   20.3910   20.8110   21.2560   86.1860    2.2130 -999.0000 -999.0000 -999.0000    8.5000   86.1860 -999.0000    0.1990    2.4070    2.2130   53.8100 -999.0000    8.5000 -999.0000    2.4070    0.1990   86.1860 -999.0000 
3107.5000 -999.0000 -999.0000   48.1330 -999.0000 -999.0000    2.3290 -999.0000   35.7880 -999.0000   36.3690   37.2680   38.2760   77.7080    2.2000 -999.0000 -999.0000 -999.0000    8.5000   77.7080 -999.0000    0.1930    2.3290    2.2000   48.1330 -999.0000    8.5000 -999.0000    2.3290    0.1930   77.7080 -999.0000 
3108.0000 -999.0000 -999.0000   42.4260 -999.0000 -999.0000    2.2940 -999.0000   45.8960 -999.0000   46.6750   48.0860   49.7440   69.1610    2.1960 -999.0000 -999.0000 -999.0000    8.5000   69.1610 -999.0000    0.1890    2.2940    2.1960   42.4260 -999.0000    8.5000 -999.0000    2.2940    0.1890   69.1610 -999.0000 
3108.5000 -999.0000 -999.0000   39.0600 -999.0000 -999.0000    2.2960 -999.0000   53.1990 -999.0000   54.1470   56.0380   58.3610   66.3730    2.1960 -999.0000 -999.0000 -999.0000    8.5000   66.3730 -999.0000    0.1910    2.2960    2.1960   39.0600 -999.0000    8.5000 -999.0000    2.2960    0.1910   66.3730 -999.0000 
3109.0000 -999.0000 -999.0000   36.7480 -999.0000 -999.0000    2.3000 -999.0000   49.1000 -999.0000   50.0290   52.0140   54.5550   70.5410    2.1970 -999.0000 -999.0000 -999.0000    8.5000   70.5410 -999.0000    0.1930    2.3000    2.1970   36.7480 -999.0000    8.5000 -999.0000    2.3000    0.1930   70.5410 -999.0000 
3109.5000 -999.0000 -999.0000   34.5350 -999.0000 -999.0000    2.2970 -999.0000   40.0260 -999.0000   40.8380   42.6430   45.0300   77.4080    2.1910 -999.0000 -999.0000 -999.0000    8.5000   77.4080 -999.0000    0.1920    2.2970    2.1910   34.5350 -999.0000    8.5000 -999.0000    2.2970    0.1920   77.4080 -999.0000 
3110.0000 -999.0000 -999.0000   32.7540 -999.0000 -999.0000    2.2850 -999.0000   35.7610 -999.0000   36.5370   38.2590   40.6180   82.5800    2.1800 -999.0000 -999.0000 -999.0000    8.5000   82.5800 -999.0000    0.1880    2.2850    2.1800   32.7540 -999.0000    8.5000 -999.0000    2.2850    0.1880   82.5800 -999.0000 
3110.5000 -999.0000 -999.0000   31.3170 -999.0000 -999.0000    2.2790 -999.0000   34.0030 -999.0000   34.7830   36.5070   38.9180   84.8120    2.1700 -999.0000 -999.0000 -999.0000    8.5000   84.8120 -999.0000    0.1840    2.2790    2.1700   31.3170 -999.0000    8.5000 -999.0000    2.2790    0.1840   84.8120 -999.0000 
3111.0000 -999.0000 -999.0000   31.4800 -999.0000 -999.0000    2.2770 -999.0000   33.9140 -999.0000   34.7390   36.4720   38.9530   85.5850    2.1620 -999.0000 -999.0000 -999.0000    8.5000   85.5850 -999.0000    0.1810    2.2770    2.1620   31.4800 -999.0000    8.5000 -999.0000    2.2770    0.1810   85.5850 -999.0000 
3111.5000 -999.0000 -999.0000   32.9210 -999.0000 -999.0000    2.2760 -999.0000   30.5430 -999.0000   31.3210   32.8620   35.0950   85.5650    2.1490 -999.0000 -999.0000 -999.0000    8.5000   85.5650 -999.0000    0.1760    2.2760    2.1490   32.9210 -999.0000    8.5000 -999.0000    2.2760    0.1760   85.5650 -999.0000 
3112.0000 -999.0000 -999.0000   35.3540 -999.0000 -999.0000    2.2840 -999.0000   31.2460 -999.0000   32.0820   33.6090   35.8350   85.7410    2.1320 -999.0000 -999.0000 -999.0000    8.5000   85.7410 -999.0000    0.1690    2.2840    2.1320   35.3540 -999.0000    8.5000 -999.0000    2.2840    0.1690   85.7410 -999.0000 
3112.5000 -999.0000 -999.0000   38.1830 -999.0000 -999.0000    2.2930 -999.0000   32.3000 -999.0000   33.1920   34.6490   36.7930   87.1530    2.1060 -999.0000 -999.0000 -999.0000    8.5000   87.1530 -999.0000    0.1620    2.2930    2.1060   38.1830 -999.0000    8.5000 -999.0000    2.2930    0.1620   87.1530 -999.0000 
3113.0000 -999.0000 -999.0000   41.8260 -999.0000 -999.0000    2.2970 -999.0000   32.6180 -999.0000   33.5360   34.8980   36.8900   88.8040    2.0810 -999.0000 -999.0000 -999.0000    8.5000   88.8040 -999.0000    0.1600    2.2970    2.0810   41.8260 -999.0000    8.5000 -999.0000    2.2970    0.1600   88.8040 -999.0000 
3113.5000 -999.0000 -999.0000   46.0450 -999.0000 -999.0000    2.2980 -999.0000   28.3040 -999.0000   29.1180   30.1800   31.7290   89.3380    2.0630 -999.0000 -999.0000 -999.0000    8.5000   89.3380 -999.0000    0.1670    2.2980    2.0630   46.0450 -999.0000    8.5000 -999.0000    2.2980    0.1670   89.3380 -999.0000 
3114.0000 -999.0000 -999.0000   51.4110 -999.0000 -999.0000    2.2960 -999.0000   18.0780 -999.0000   18.5970   19.1890   20.0470   88.4590    2.0530 -999.0000 -999.0000 -999.0000    8.5000   88.4590 -999.0000    0.1760    2.2960    2.0530   51.4110 -999.0000    8.5000 -999.0000    2.2960    0.1760   88.4590 -999.0000 
3114.5000 -999.0000 -999.0000   55.9770 -999.0000 -999.0000    2.3020 -999.0000   12.7500 -999.0000   13.1120   13.4830   14.0090   87.4000    2.0500 -999.0000 -999.0000 -999.0000    8.5000   87.4000 -999.0000    0.1820    2.3020    2.0500   55.9770 -999.0000    8.5000 -999.0000    2.3020    0.1820   87.4000 -999.0000 
3115.0000 -999.0000 -999.0000   59.7550 -999.0000 -999.0000    2.3130 -999.0000   10.8180 -999.0000   11.1190   11.3870   11.7630   87.9800    2.0500 -999.0000 -999.0000 -999.0000    8.5000   87.9800 -999.0000    0.1840    2.3130    2.0500   59.7550 -999.0000    8.5000 -999.0000    2.3130    0.1840   87.9800 -999.0000 
3115.5000 -999.0000 -999.0000   61.4780 -999.0000 -999.0000 -999.0000 -999.0000    9.6720 -999.0000    9.9280   10.1410   10.4270   89.2170 -999.0000 -999.0000 -999.0000 -999.0000    8.5000   89.2170 -999.0000 -999.0000 -999.0000 -999.0000   61.4780 -999.0000    8.5000 -999.0000 -999.0000 -999.0000   89.2170 -999.0000 
