~VERSION INFORMATION
 VERS.                 2.0:   CWLS LOG ASCII STANDARD - VERSION 2.0
 WRAP.                  NO:   SINGLE LINE PER DEPTH STEP
 CREA.                 9/4/2023 1:15:45 PM
#CREATED USING DSPetro VERSION 10ep.4.05.01 BY C4372838 ON 9/4/2023 1:15:45 PM
~WELL INFORMATION
#MNEM.UNIT       DATA                          DESCRIPTION MNEMONIC
#---------      ---------------------------   --------------------------
 STRT    .FT        2599.0000                 : START DEPTH
 STOP    .FT        3150.0000                 : STOP DEPTH
 STEP    .FT        0.5000                    : STEP VALUE
 NULL    .      -999.0000                     : NULL VALUE
 DATE    .      9/4/2023                      : LAS file Creation Date
 WELL   .      ABANICO-19                   : Well Name
 COMP   .      Kappa Resources Colombia,Ltd : Company
 FLD    .      UNKNOWN                      : Field
 STATE  .      UNKNOWN                      : State
 COUNT  .      Colombia                     : Country
 UWI    .      ABAN0019                     : Unique Well Identifier (UWI)
 LOC    .      UNKNOWN                      : Location
 PDAT   .      GROUND LEVEL                 : Permanent Datum
 EPDAT  .      1039.000000                  : Elevation of Permanent Datum
 LGMEA  .      DRILL FLOOR                  : Log Measured from
 APDAT  .      12.000000                    : Elevation Above Permanent Datum
 KB     .      1052.00000                   : KB Elevation
 DF     .      1051.00000                   : DF Elevation
 RWS    .      -999                         : Def_Rw
 WST    .      -999                         : Def_Rwt
 CNTY   .      UNKNOWN                      : County
 PROV   .      TOLIMA                       : Province
 SRVC   .      UNKNOWN                      : Contractor
 GDAT   .      WGS 84                       : Geodatum
 LONG   .      0.252833333280351            : Longitude
 LATI   .      0.26609722243415             : Latitude
 COORDIN.                                   : Grid System
 XCOORD .      910201.721945                : X or East-West Coordinate
 YCOORD .      958010.866493                : Y or North-South Coordinate
~CURVE INFORMATION
#MNEM                 UNIT       API CODE   Curve Type Comments
#----------     --------------- ----------  ---------- -----------
 DEPTH         .FT                        : Depth       
 GRGC          .API                       : GammaRay    GR:UNKNOWN:r1:0001:v1
 GRGC          .API                       : GammaRay    GR:UNKNOWN:r1:0001:v1
 HCGR          .GAPI                      :             HNGS Computed Gamma Ray {F13.2}
 SP            .MV                        : SP          Spontaneous Potential {F13.2}
 K_CORE_2023   .                          :             
 PDPE          .B/E                       : PEF         PEFZ:UNKNOWN:rC:NONE:v0 (auto-composite)
 POR_CORE_2023 .                          :             
 DEN           .g/cm3                     : Density     RHOZ:UNKNOWN:rC:NONE:v0 (auto-composite)
 PHIE          .Dec                       : Phi         
 SWT           .Dec                       : Sw          
 VCLmix        .Dec                       : Vcl         
 DCAL          .IN                        :             Differential Caliper {F13.2}
 AHT20         .OHMM                      : MedRes      Array Induction Two Foot Resistivity A20 {F13.2}
 AHT10         .OHMM                      : ShalRes     Array Induction Two Foot Resistivity A10 {F13.2}
 AHT30         .OHMM                      : MedRes      Array Induction Two Foot Resistivity A30 {F13.2}
 AHT60         .ohm.m                     : MedRes      AHT60:UNKNOWN:rC:NONE:v0 (auto-composite)
 AHT90         .ohm.m                     : DeepRes     AHT90:UNKNOWN:rC:NONE:v0 (auto-composite)
 BS            .IN                        : BitSize     Bit Size {F13.2}
 DTCO          .us/ft                     : Sonic       DTCO:UNKNOWN:rC:NONE:v0 (auto-composite)
 GR            .API                       : GammaRay    GR:UNKNOWN:rC:NONE:v0 (auto-composite)
 HCAL          .inch                      : Caliper     HCAL:UNKNOWN:rC:NONE:v0 (auto-composite)
 HDRA          .G/C3                      : Drho        HRDD Density Correction {F13.2}
 HTHO          .PPM                       :             HNGS Formation Thorium Concentration {F13.2}
 HTPR          .                          :             HNGS Thorium/Potassium Ratio {F13.2}
 HTUR          .                          :             HNGS Thorium/Uranium Ratio {F13.2}
 HUPR          .                          :             HNGS Uranium/Potassium Ratio {F13.2}
 HURA          .PPM                       :             HNGS Formation Uranium Concentration {F13.2}
 PEFZ          .B/E                       : PEF         PEFZ:UNKNOWN:rC:NONE:v0 (auto-composite)
 RHOZ          .g/cm3                     : Density     RHOZ:UNKNOWN:rC:NONE:v0 (auto-composite)
 RXOZ          .OHMM                      : MicroRes    MCFL Standard Resolution Invaded Zone Resistivity {F13.2}
 SP            .MV                        : SP          Spontaneous Potential {F13.2}
 TNPH          .dec                       : Neutron     TNPH:UNKNOWN:rC:NONE:v0 (auto-composite)
 CALI          .inch                      : Caliper     C1:UNKNOWN:rC:NONE:v0 (auto-composite)
 BS            .IN                        : BitSize     Bit Size {F13.2}
 HDRS          .ohm.m                     : DeepRes     Lateralog Deep Resistivity, ohmm
 NPHI          .dec                       : Neutron     TNPH:UNKNOWN:rC:NONE:v0 (auto-composite)
 PEF           .B/E                       : PEF         PEFZ:UNKNOWN:rC:NONE:v0 (auto-composite)
 CALI          .inch                      : Caliper     C1:UNKNOWN:rC:NONE:v0 (auto-composite)
 DRHO          .G/C3                      : Drho        HRDD Density Correction {F13.2}
 DT            .us/ft                     : Sonic       DTCO:UNKNOWN:rC:NONE:v0 (auto-composite)
 GR            .API                       : GammaRay    GR:UNKNOWN:r1:0001:v1
 HDRS          .ohm.m                     : DeepRes     Lateralog Deep Resistivity, ohmm
~A  DEPTH    GRGC      GRGC      HCGR       SP    K_CORE_2~    PDPE   POR_CORE~    DEN       PHIE      SWT      VCLmix     DCAL     AHT20     AHT10     AHT30     AHT60     AHT90       BS       DTCO       GR       HCAL      HDRA      HTHO      HTPR      HTUR      HUPR      HURA      PEFZ      RHOZ      RXOZ       SP       TNPH      CALI       BS       HDRS      NPHI      PEF       CALI      DRHO       DT        GR       HDRS   
# ...
2703.5000   53.6800   53.6800   20.7400   54.4400 -999.0000    2.3500 -999.0000    2.3700    0.1745    0.6297    0.1074   -0.1600   19.7600   17.7100   21.6900   26.0400   25.4600    8.5000   88.0703   53.6800    8.3431   -0.0100    2.1100    2.7400    0.7200    3.7800    2.9200    2.3500    2.3700   14.9200   54.4400    0.2200    8.2759    8.5000    2.6900    0.2200    2.3500    8.2759   -0.0100   88.0703   53.6800    2.6900 
2704.0000   51.8300   51.8300   20.2900   54.4400 -999.0000    2.3500 -999.0000    2.3700    0.1759    0.6416    0.1029   -0.0700   19.5900   17.1700   21.8400   26.2900   26.4200    8.5000   87.8246   51.8300    8.4275   -0.0100    2.1400    2.8900    0.8600    3.3600    2.4900    2.3500    2.3700   14.6000   54.4400    0.2200    8.2759    8.5000    2.7500    0.2200    2.3500    8.2759   -0.0100   87.8246   51.8300    2.7500 
2704.5000   47.7700   47.7700   19.0800   54.3100 -999.0000    2.1900 -999.0000    2.3600    0.1827    0.6587    0.0908   -0.1300   17.8200   15.9300   20.1800   24.6500   25.3500    8.5000   87.9657   47.7700    8.3738   -0.0100    1.8600    2.5800    0.8500    3.0300    2.1900    2.1900    2.3600   10.9700   54.3100    0.2200    8.2759    8.5000    2.8850    0.2200    2.1900    8.2759   -0.0100   87.9657   47.7700    2.8850 
2705.0000   46.6500   46.6500   18.3300   54.5000 -999.0000    1.9900 -999.0000    2.3400    0.1919    0.6655    0.0833   -0.1600   17.4000   14.6800   18.8900   22.9100   24.6600    8.5000   89.3408   46.6500    8.3355   -0.0100    1.9300    2.8800    1.0200    2.8100    1.8800    1.9900    2.3400    9.1200   54.5000    0.2200    8.2759    8.5000    3.0200    0.2200    1.9900    8.2759   -0.0100   89.3408   46.6500    3.0200 
2705.5000   43.8200   43.8200   19.3200   54.4400 -999.0000    1.8800 -999.0000    2.3400    0.1928    0.6464    0.0932   -0.0700   16.8000   15.0000   18.6600   22.4600   24.5200    8.5000   90.5990   43.8200    8.4275   -0.0100    1.9100    2.6200    0.9900    2.6500    1.9400    1.8800    2.3400    8.5500   54.4400    0.2300    8.2759    8.5000    2.9250    0.2300    1.8800    8.2759   -0.0100   90.5990   43.8200    2.9250 
2706.0000   46.1300   46.1300   22.5300   54.6300 -999.0000    1.8900 -999.0000    2.3400    0.1850    0.6354    0.1253   -0.1200   17.1600   15.3300   18.9700   23.4600   25.4200    8.5000   92.5274   46.1300    8.3815   -0.0100    2.2200    2.6100    1.1000    2.3700    2.0200    1.8900    2.3400    9.5900   54.6300    0.2300    8.2759    8.5000    2.8300    0.2300    1.8900    8.2759   -0.0100   92.5274   46.1300    2.8300 
2706.5000   45.8800   45.8800   24.3300   54.6900 -999.0000    1.9300 -999.0000    2.3500    0.1799    0.5990    0.1433   -0.1300   18.8400   16.8300   20.2800   24.8300   26.5700    8.5000   92.9189   45.8800    8.3661   -0.0100    2.6200    2.9700    1.4600    2.0400    1.8000    1.9300    2.3500   10.3600   54.6900    0.2400    8.2759    8.5000    2.7250    0.2400    1.9300    8.2759   -0.0100   92.9189   45.8800    2.7250 
2707.0000   47.4800   47.4800   24.4700   54.6300 -999.0000    1.9600 -999.0000    2.3500    0.1758    0.5899    0.1447   -0.1200   20.1300   17.6900   22.2400   27.1200   29.1400    8.5000   93.2088   47.4800    8.3815    0.0000    2.8400    3.3400    1.7200    1.9400    1.6500    1.9600    2.3500   10.5500   54.6300    0.2300    8.2759    8.5000    2.6200    0.2300    1.9600    8.2759    0.0000   93.2088   47.4800    2.6200 
2707.5000   44.1800   44.1800   21.4600   54.4400 -999.0000    1.9300 -999.0000    2.3500    0.1856    0.5418    0.1146   -0.1400   24.3400   20.2800   26.4800   32.4000   33.7500    8.5000   93.2447   44.1800    8.3585    0.0000    2.7100    3.8200    1.7900    2.1300    1.5100    1.9300    2.3500    9.8400   54.4400    0.2400    8.2759    8.5000    2.4950    0.2400    1.9300    8.2759    0.0000   93.2447   44.1800    2.4950 
2708.0000   44.8000   44.8000   21.2900   54.6900 -999.0000    1.8900 -999.0000    2.3300    0.1937    0.5607    0.1129   -0.1600   21.5500   18.1700   24.2000   30.1100   30.8600    8.5000   93.3572   44.8000    8.3355    0.0000    2.8700    4.2700    2.2700    1.8800    1.2600    1.8900    2.3300   10.4300   54.6900    0.2400    8.2759    8.5000    2.3700    0.2400    1.8900    8.2759    0.0000   93.3572   44.8000    2.3700 
2708.5000   41.1600   41.1600   19.2000   54.6900 -999.0000    1.8400 -999.0000    2.3100    0.2095    0.5603    0.0920   -0.2100   19.2400   16.9100   21.1200   26.9200   27.7400    8.5000   93.4208   41.1600    8.2895    0.0000    2.6000    4.3100    2.0800    2.0700    1.2500    1.8400    2.3100   11.0400   54.6900    0.2500    8.2759    8.5000    2.3200    0.2500    1.8400    8.2759    0.0000   93.4208   41.1600    2.3200 
2709.0000   39.3200   39.3200   18.6200   54.6900 -999.0000    1.8300 -999.0000    2.3000    0.2146    0.5625    0.0862   -0.1300   18.5000   16.3400   20.2000   25.1500   26.4400    8.5000   93.0960   39.3200    8.3700   -0.0100    2.4100    3.9800    2.1500    1.8500    1.1200    1.8300    2.3000   13.3700   54.6900    0.2500    8.2759    8.5000    2.2700    0.2500    1.8300    8.2759   -0.0100   93.0960   39.3200    2.2700 
2709.5000   34.7000   34.7000   19.5400   54.6300 -999.0000    1.8400 -999.0000    2.2800    0.2198    0.5609    0.0954   -0.1600   17.3200   15.4800   19.0200   23.6500   24.5300    8.5000   93.5976   34.7000    8.3355   -0.0100    2.5300    3.9900    2.7100    1.4800    0.9400    1.8400    2.2800   14.6200   54.6300    0.2500    8.2759    8.5000    2.1400    0.2500    1.8400    8.2759   -0.0100   93.5976   34.7000    2.1400 
2710.0000   33.0400   33.0400   20.4600   54.6900 -999.0000    1.8300 -999.0000    2.2600    0.2283    0.5409    0.1046   -0.1600   16.5100   15.2500   18.0000   22.0800   23.9000    8.5000   93.7276   33.0400    8.3431   -0.0100    2.9200    4.7400    3.4400    1.3800    0.8500    1.8300    2.2600   12.8800   54.6900    0.2600    8.2759    8.5000    2.0100    0.2600    1.8300    8.2759   -0.0100   93.7276   33.0400    2.0100 
2710.5000   30.6900   30.6900   21.9600   54.6300 -999.0000    1.8400 -999.0000    2.2200    0.2446    0.5122    0.0972   -0.1500   16.8000   15.1800   18.3100   21.7600   24.0900    8.5000   94.0141   30.6900    8.3470   -0.0100    3.0300    4.4600    3.9400    1.1300    0.7700    1.8400    2.2200    9.0900   54.6300    0.2600    8.2759    8.5000    1.9050    0.2600    1.8400    8.2759   -0.0100   94.0141   30.6900    1.9050 
2711.0000   30.4000   30.4000   22.0500   54.5000 -999.0000    1.8100 -999.0000    2.1900    0.2619    0.5110    0.0852   -0.1500   15.1900   13.8000   16.5400   19.9600   23.3600    8.5000   94.0361   30.4000    8.3470   -0.0100    3.2300    4.9600    6.0600    0.8200    0.5300    1.8100    2.1900    6.8000   54.5000    0.2700    8.2759    8.5000    1.8000    0.2700    1.8100    8.2759   -0.0100   94.0361   30.4000    1.8000 
2711.5000   28.6300   28.6300   20.8000   54.3800 -999.0000    1.8000 -999.0000    2.1800    0.2676    0.5188    0.0931   -0.1600   14.1100   12.7700   15.3200   18.6500   21.1100    8.5000   93.9723   28.6300    8.3355   -0.0100    3.2000    5.4400    5.8400    0.9300    0.5500    1.8000    2.1800    6.3600   54.3800    0.2800    8.2759    8.5000    1.7300    0.2800    1.8000    8.2759   -0.0100   93.9723   28.6300    1.7300 
2712.0000   27.6400   27.6400   18.9700   54.4400 -999.0000    1.8000 -999.0000    2.1800    0.2683    0.5190    0.0897   -0.1700   13.7900   12.7600   15.0200   18.3800   21.2500    8.5000   76.1934   27.6400    8.3278   -0.0100    2.8000    5.0300    3.6500    1.3800    0.7700    1.8000    2.1800    5.6100   54.4400    0.2800    8.2759    8.5000    1.6600    0.2800    1.8000    8.2759   -0.0100   76.1934   27.6400    1.6600 
2712.5000   30.8500   30.8500   20.7300   54.3100 -999.0000    1.8100 -999.0000    2.1900    0.2639    0.5212    0.1073   -0.1400   13.6400   12.7200   14.8400   17.0100   20.0800    8.5000   93.8539   30.8500    8.3585   -0.0100    2.9100    4.5700    3.2400    1.4100    0.9000    1.8100    2.1900    5.2000   54.3100    0.2900    8.2759    8.5000    1.6900    0.2900    1.8100    8.2759   -0.0100   93.8539   30.8500    1.6900 
