~VERSION INFORMATION
 VERS.                 2.0:   CWLS LOG ASCII STANDARD - VERSION 2.0
 WRAP.                  NO:   SINGLE LINE PER DEPTH STEP
 CREA.                 9/4/2023 1:15:46 PM
#CREATED USING DSPetro VERSION 10ep.4.05.01 BY C4372838 ON 9/4/2023 1:15:46 PM
~WELL INFORMATION
#MNEM.UNIT       DATA                          DESCRIPTION MNEMONIC
#---------      ---------------------------   --------------------------
 STRT    .FT        2741.0000                 : START DEPTH
 STOP    .FT        3159.5000                 : STOP DEPTH
 STEP    .FT        0.5000                    : STEP VALUE
 NULL    .      -999.0000                     : NULL VALUE
 DATE    .      9/4/2023                      : LAS file Creation Date
 WELL   .      ABANICO-34              : Well Name
 COMP   .      PACIFIC RUBIALES ENERGY : Company
 FLD    .      ABANICO                 : Field
 STATE  .      UNKNOWN                 : State
 COUNT  .      COLOMBIA                : Country
 API    .      ABAN0034                : API Number
 UWI    .      ABAN0034                : Unique Well Identifier (UWI)
 LOC    .      N                       : Location
 EPDAT  .      1017.000                : Elevation of Permanent Datum
 GL     .      1017.000                : GL Elevation
 RWS    .      -999                    : Def_Rw
 WST    .      -999                    : Def_Rwt
 CNTY   .      TOLIMA                  : County
 PROV   .      UNKNOWN                 : Province
 SRVC   .      WEATHERFORD             : Contractor
 GDAT   .      WGS 84                  : Geodatum
 LONG   .      -74.873885111279        : Longitude
 LATI   .      4.22623405562507        : Latitude
 COORDIN.                              : Grid System
 XCOORD .      911584.313002           : X or East-West Coordinate
 YCOORD .      959134.088873           : Y or North-South Coordinate
~CURVE INFORMATION
#MNEM                 UNIT       API CODE   Curve Type Comments
#----------     --------------- ----------  ---------- -----------
 DEPTH         .FT                        : Depth       
 GRGC          .GAPI                      : GammaRay    Gamma Ray
 GRGC          .GAPI                      : GammaRay    Gamma Ray
 SP            .MV                        : SP          Spontaneous Potential
 K_CORE_2023   .                          :             
 NPRS          .V/V                       :             Sandstone Neutron Por.
 PDPE          .B/E                       : PEF         PE
 POR_CORE_2023 .                          :             
 R85O          .OHMM                      :             Array Ind One Res 85
 R60O          .OHMM                      :             Array Ind One Res 60
 R40O          .OHMM                      :             Array Ind One Res 40
 R30O          .OHMM                      :             Array Ind One Res 30
 R20O          .OHMM                      :             Array Ind One Res 20
 DT46          .US/F                      : Sonic       4-6' Compensated Sonic
 DEN           .G/C3                      : Density     Compensated Density
 PHIE          .Dec                       : Phi         
 SWT           .Dec                       : Sw          
 VCLmix        .Dec                       : Vcl         
 BS            .inches                    : BitSize     Bit size
 DTCO          .US/F                      : Sonic       4-6' Compensated Sonic
 GR            .GAPI                      : GammaRay    Gamma Ray
 HDRA          .G/C3                      : Drho        Density Correction
 PEFZ          .B/E                       : PEF         PE
 RHOZ          .G/C3                      : Density     Compensated Density
 SP            .MV                        : SP          Spontaneous Potential
 TNPH          .V/V                       : Neutron     Neutron Posrosity
 BS            .inches                    : BitSize     Bit size
 NPHI          .V/V                       : Neutron     Neutron Posrosity
 PEF           .B/E                       : PEF         PE
 DRHO          .G/C3                      : Drho        Density Correction
 DT            .US/F                      : Sonic       4-6' Compensated Sonic
 GR            .GAPI                      : GammaRay    Gamma Ray
~A  DEPTH    GRGC      GRGC       SP    K_CORE_2~    NPRS      PDPE   POR_CORE~    R85O      R60O      R40O      R30O      R20O      DT46      DEN       PHIE      SWT      VCLmix      BS       DTCO       GR       HDRA      PEFZ      RHOZ       SP       TNPH       BS       NPHI      PEF       DRHO       DT        GR    
# ...
2866.0000   68.1830   68.1830  -17.4620 -999.0000    0.2950    2.0660 -999.0000   55.6860 -999.0000   52.3110   55.8000   61.4270   93.0990    2.2590    0.2028    0.4252    0.2229    8.5000   93.0990   68.1830    0.0790    2.0660    2.2590  -17.4620    0.2950    8.5000    0.2950    2.0660    0.0790   93.0990   68.1830 
2866.5000   68.3410   68.3410  -17.7150 -999.0000    0.2900    2.0700 -999.0000   49.9820 -999.0000   46.8670   49.9220   54.8570   92.5450    2.2600    0.2039    0.4766    0.2136    8.5000   92.5450   68.3410    0.0790    2.0700    2.2600  -17.7150    0.2900    8.5000    0.2900    2.0700    0.0790   92.5450   68.3410 
2867.0000   69.2260   69.2260  -17.9970 -999.0000    0.2810    2.0650 -999.0000   52.7800 -999.0000   49.3850   52.5040   57.5490   92.7880    2.2620    0.2049    0.4669    0.1973    8.5000   92.7880   69.2260    0.0810    2.0650    2.2620  -17.9970    0.2810    8.5000    0.2810    2.0650    0.0810   92.7880   69.2260 
2867.5000   68.7410   68.7410  -18.2900 -999.0000    0.2740    2.0680 -999.0000   55.2070 -999.0000   51.5410   54.6990   59.8000   94.0720    2.2660    0.2039    0.4598    0.1873    8.5000   94.0720   68.7410    0.0820    2.0680    2.2660  -18.2900    0.2740    8.5000    0.2740    2.0680    0.0820   94.0720   68.7410 
2868.0000   67.9320   67.9320  -18.6160 -999.0000    0.2720    2.0840 -999.0000   55.0110 -999.0000   51.2250   54.2480   59.1310   95.8120    2.2700    0.2015    0.4647    0.1876    8.5000   95.8120   67.9320    0.0810    2.0840    2.2700  -18.6160    0.2720    8.5000    0.2720    2.0840    0.0810   95.8120   67.9320 
2868.5000   66.3060   66.3060  -18.7480  371.0000    0.2730    2.0970    0.2362   52.9380 -999.0000   49.1490   51.9530   56.4760   97.0640    2.2770    0.1963    0.4804    0.1975    8.5000   97.0640   66.3060    0.0810    2.0970    2.2770  -18.7480    0.2730    8.5000    0.2730    2.0970    0.0810   97.0640   66.3060 
2869.0000   64.5730   64.5730  -18.8460 -999.0000    0.2740    2.1140 -999.0000   52.7020 -999.0000   48.7900   51.4800   55.8210   97.5340    2.2830    0.1916    0.4830    0.2062    8.5000   97.5340   64.5730    0.0810    2.1140    2.2830  -18.8460    0.2740    8.5000    0.2740    2.1140    0.0810   97.5340   64.5730 
2869.5000   63.6370   63.6370  -18.9000 -999.0000    0.2720    2.1140 -999.0000   55.1830 -999.0000   50.9180   53.6330   58.0240   98.0360    2.2870    0.1891    0.4680    0.2066    8.5000   98.0360   63.6370    0.0820    2.1140    2.2870  -18.9000    0.2720    8.5000    0.2720    2.1140    0.0820   98.0360   63.6370 
2870.0000   63.0880   63.0880  -19.1490 -999.0000    0.2690    2.1160 -999.0000   58.5320 -999.0000   53.8480   56.6630   61.2180   99.3370    2.2890    0.1883    0.4478    0.2026    8.5000   99.3370   63.0880    0.0820    2.1160    2.2890  -19.1490    0.2690    8.5000    0.2690    2.1160    0.0820   99.3370   63.0880 
2870.5000   64.6380   64.6380  -19.4090 -999.0000    0.2700    2.1170 -999.0000   59.5160 -999.0000   54.6040   57.3970   61.9370  101.5030    2.2890    0.1879    0.4385    0.2046    8.5000  101.5030   64.6380    0.0800    2.1170    2.2890  -19.4090    0.2700    8.5000    0.2700    2.1170    0.0800  101.5030   64.6380 
2871.0000   65.6360   65.6360  -19.6790 -999.0000    0.2760    2.1490 -999.0000   59.2780 -999.0000   54.2460   56.9930   61.4760  103.6350    2.2850    0.1891    0.4287    0.2126    8.5000  103.6350   65.6360    0.0750    2.1490    2.2850  -19.6790    0.2760    8.5000    0.2760    2.1490    0.0750  103.6350   65.6360 
2871.5000   65.1890   65.1890  -19.8650 -999.0000    0.2840    2.1910 -999.0000   61.0450 -999.0000   55.7680   58.5840   63.2070  104.6580    2.2760    0.1932    0.3980    0.2191    8.5000  104.6580   65.1890    0.0720    2.1910    2.2760  -19.8650    0.2840    8.5000    0.2840    2.1910    0.0720  104.6580   65.1890 
2872.0000   64.5460   64.5460  -20.0510  620.0000    0.2910    2.2180    0.2574   62.2400 -999.0000   56.7800   59.6580   64.4040  103.8010    2.2670    0.1976    0.3724    0.2235    8.5000  103.8010   64.5460    0.0700    2.2180    2.2670  -20.0510    0.2910    8.5000    0.2910    2.2180    0.0700  103.8010   64.5460 
2872.5000   62.9930   62.9930  -20.0910 -999.0000    0.2950    2.2180 -999.0000   65.0810 -999.0000   59.3390   62.3860   67.4360  101.6670    2.2620    0.1997    0.3252    0.2262    8.5000  101.6670   62.9930    0.0720    2.2180    2.2620  -20.0910    0.2950    8.5000    0.2950    2.2180    0.0720  101.6670   62.9930 
2873.0000   63.7460   63.7460  -19.9480 -999.0000    0.3000    2.1880 -999.0000   64.2580 -999.0000   58.6020   61.6650   66.7650   99.1070    2.2620    0.1980    0.2955    0.2365    8.5000   99.1070   63.7460    0.0750    2.1880    2.2620  -19.9480    0.3000    8.5000    0.3000    2.1880    0.0750   99.1070   63.7460 
2873.5000   65.8610   65.8610  -19.4880 -999.0000    0.3040    2.1720 -999.0000   65.7990 -999.0000   60.0360   63.2500   68.6130   96.8490    2.2610    0.1977    0.3021    0.2437    8.5000   96.8490   65.8610    0.0760    2.1720    2.2610  -19.4880    0.3040    8.5000    0.3040    2.1720    0.0760   96.8490   65.8610 
2874.0000   68.5460   68.5460  -18.8030 -999.0000    0.3030    2.1650 -999.0000   66.3090 -999.0000   60.5740   63.9010   69.4700   95.2380    2.2610    0.1979    0.3001    0.2416    8.5000   95.2380   68.5460    0.0760    2.1650    2.2610  -18.8030    0.3030    8.5000    0.3030    2.1650    0.0760   95.2380   68.5460 
2874.5000   71.2530   71.2530  -18.3790 -999.0000    0.2960    2.1540 -999.0000   66.7460 -999.0000   61.0510   64.5020   70.2830   93.9990    2.2630    0.1984    0.2888    0.2294    8.5000   93.9990   71.2530    0.0750    2.1540    2.2630  -18.3790    0.2960    8.5000    0.2960    2.1540    0.0750   93.9990   71.2530 
2875.0000   71.2180   71.2180  -18.4250 -999.0000    0.2860    2.1350 -999.0000   68.2020 -999.0000   62.4610   66.0820   72.1520   93.4280    2.2660    0.1994    0.3302    0.2121    8.5000   93.4280   71.2180    0.0740    2.1350    2.2660  -18.4250    0.2860    8.5000    0.2860    2.1350    0.0740   93.4280   71.2180 
2875.5000   69.3460   69.3460  -18.8030 -999.0000    0.2790    2.1160 -999.0000   69.6270 -999.0000   63.8440   67.6430   74.0130   93.2840    2.2670    0.2008    0.3473    0.1987    8.5000   93.2840   69.3460    0.0750    2.1160    2.2670  -18.8030    0.2790    8.5000    0.2790    2.1160    0.0750   93.2840   69.3460 
2876.0000   67.4380   67.4380  -19.0320 -999.0000    0.2790    2.1080 -999.0000   69.3490 -999.0000   63.6430   67.5070   73.9820   93.1540    2.2670    0.2008    0.3497    0.1987    8.5000   93.1540   67.4380    0.0770    2.1080    2.2670  -19.0320    0.2790    8.5000    0.2790    2.1080    0.0770   93.1540   67.4380 
2876.5000   66.8420   66.8420  -19.1570 -999.0000    0.2840    2.1110 -999.0000   68.2050 -999.0000   62.6340   66.4930   72.9650   93.0050    2.2690    0.1978    0.3345    0.2113    8.5000   93.0050   66.8420    0.0800    2.1110    2.2690  -19.1570    0.2840    8.5000    0.2840    2.1110    0.0800   93.0050   66.8420 
2877.0000   67.3000   67.3000  -19.2200 -999.0000    0.2880    2.1180 -999.0000   67.5370 -999.0000   62.0320   65.9140   72.4150   93.2110    2.2720    0.1941    0.2875    0.2229    8.5000   93.2110   67.3000    0.0820    2.1180    2.2720  -19.2200    0.2880    8.5000    0.2880    2.1180    0.0820   93.2110   67.3000 
2877.5000   69.2710   69.2710  -19.4250 -999.0000    0.2900    2.1210 -999.0000   68.4430 -999.0000   62.8480   66.8090   73.4380   93.9900    2.2710    0.1942    0.2900    0.2259    8.5000   93.9900   69.2710    0.0830    2.1210    2.2710  -19.4250    0.2900    8.5000    0.2900    2.1210    0.0830   93.9900   69.2710 
2878.0000   70.8760   70.8760  -19.4900 -999.0000    0.2920    2.1160 -999.0000   69.2620 -999.0000   63.5740   67.6130   74.3710   95.0320    2.2630    0.1994    0.2803    0.2211    8.5000   95.0320   70.8760    0.0830    2.1160    2.2630  -19.4900    0.2920    8.5000    0.2920    2.1160    0.0830   95.0320   70.8760 
