~VERSION INFORMATION
 VERS.                 2.0:   CWLS LOG ASCII STANDARD - VERSION 2.0
 WRAP.                  NO:   SINGLE LINE PER DEPTH STEP
 CREA.                 9/4/2023 1:15:45 PM
#CREATED USING DSPetro VERSION 10ep.4.05.01 BY C4372838 ON 9/4/2023 1:15:45 PM
~WELL INFORMATION
#MNEM.UNIT       DATA                          DESCRIPTION MNEMONIC
#---------      ---------------------------   --------------------------
 STRT    .FT        2599.0000                 : START DEPTH
 STOP    .FT        3150.0000                 : STOP DEPTH
 STEP    .FT        0.5000                    : STEP VALUE
 NULL    .      -999.0000                     : NULL VALUE
 DATE    .      9/4/2023                      : LAS file Creation Date
 WELL   .      ABANICO-19                   : Well Name
 COMP   .      Kappa Resources Colombia,Ltd : Company
 FLD    .      UNKNOWN                      : Field
 STATE  .      UNKNOWN                      : State
 COUNT  .      Colombia                     : Country
 UWI    .      ABAN0019                     : Unique Well Identifier (UWI)
 LOC    .      UNKNOWN                      : Location
 PDAT   .      GROUND LEVEL                 : Permanent Datum
 EPDAT  .      1039.000000                  : Elevation of Permanent Datum
 LGMEA  .      DRILL FLOOR                  : Log Measured from
 APDAT  .      12.000000                    : Elevation Above Permanent Datum
 KB     .      1052.00000                   : KB Elevation
 DF     .      1051.00000                   : DF Elevation
 RWS    .      -999                         : Def_Rw
 WST    .      -999                         : Def_Rwt
 CNTY   .      UNKNOWN                      : County
 PROV   .      TOLIMA                       : Province
 SRVC   .      UNKNOWN                      : Contractor
 GDAT   .      WGS 84                       : Geodatum
 LONG   .      0.252833333280351            : Longitude
 LATI   .      0.26609722243415             : Latitude
 COORDIN.                                   : Grid System
 XCOORD .      910201.721945                : X or East-West Coordinate
 YCOORD .      958010.866493                : Y or North-South Coordinate
~CURVE INFORMATION
#MNEM                 UNIT       API CODE   Curve Type Comments
#----------     --------------- ----------  ---------- -----------
 DEPTH         .FT                        : Depth       
 GRGC          .API                       : GammaRay    GR:UNKNOWN:r1:0001:v1
 GRGC          .API                       : GammaRay    GR:UNKNOWN:r1:0001:v1
 HCGR          .GAPI                      :             HNGS Computed Gamma Ray {F13.2}
 SP            .MV                        : SP          Spontaneous Potential {F13.2}
 K_CORE_2023   .                          :             
 PDPE          .B/E                       : PEF         PEFZ:UNKNOWN:rC:NONE:v0 (auto-composite)
 POR_CORE_2023 .                          :             
 DEN           .g/cm3                     : Density     RHOZ:UNKNOWN:rC:NONE:v0 (auto-composite)
 PHIE          .Dec                       : Phi         
 SWT           .Dec                       : Sw          
 VCLmix        .Dec                       : Vcl         
 DCAL          .IN                        :             Differential Caliper {F13.2}
 AHT20         .OHMM                      : MedRes      Array Induction Two Foot Resistivity A20 {F13.2}
 AHT10         .OHMM                      : ShalRes     Array Induction Two Foot Resistivity A10 {F13.2}
 AHT30         .OHMM                      : MedRes      Array Induction Two Foot Resistivity A30 {F13.2}
 AHT60         .ohm.m                     : MedRes      AHT60:UNKNOWN:rC:NONE:v0 (auto-composite)
 AHT90         .ohm.m                     : DeepRes     AHT90:UNKNOWN:rC:NONE:v0 (auto-composite)
 BS            .IN                        : BitSize     Bit Size {F13.2}
 DTCO          .us/ft                     : Sonic       DTCO:UNKNOWN:rC:NONE:v0 (auto-composite)
 GR            .API                       : GammaRay    GR:UNKNOWN:rC:NONE:v0 (auto-composite)
 HCAL          .inch                      : Caliper     HCAL:UNKNOWN:rC:NONE:v0 (auto-composite)
 HDRA          .G/C3                      : Drho        HRDD Density Correction {F13.2}
 HTHO          .PPM                       :             HNGS Formation Thorium Concentration {F13.2}
 HTPR          .                          :             HNGS Thorium/Potassium Ratio {F13.2}
 HTUR          .                          :             HNGS Thorium/Uranium Ratio {F13.2}
 HUPR          .                          :             HNGS Uranium/Potassium Ratio {F13.2}
 HURA          .PPM                       :             HNGS Formation Uranium Concentration {F13.2}
 PEFZ          .B/E                       : PEF         PEFZ:UNKNOWN:rC:NONE:v0 (auto-composite)
 RHOZ          .g/cm3                     : Density     RHOZ:UNKNOWN:rC:NONE:v0 (auto-composite)
 RXOZ          .OHMM                      : MicroRes    MCFL Standard Resolution Invaded Zone Resistivity {F13.2}
 SP            .MV                        : SP          Spontaneous Potential {F13.2}
 TNPH          .dec                       : Neutron     TNPH:UNKNOWN:rC:NONE:v0 (auto-composite)
 CALI          .inch                      : Caliper     C1:UNKNOWN:rC:NONE:v0 (auto-composite)
 BS            .IN                        : BitSize     Bit Size {F13.2}
 HDRS          .ohm.m                     : DeepRes     Lateralog Deep Resistivity, ohmm
 NPHI          .dec                       : Neutron     TNPH:UNKNOWN:rC:NONE:v0 (auto-composite)
 PEF           .B/E                       : PEF         PEFZ:UNKNOWN:rC:NONE:v0 (auto-composite)
 CALI          .inch                      : Caliper     C1:UNKNOWN:rC:NONE:v0 (auto-composite)
 DRHO          .G/C3                      : Drho        HRDD Density Correction {F13.2}
 DT            .us/ft                     : Sonic       DTCO:UNKNOWN:rC:NONE:v0 (auto-composite)
 GR            .API                       : GammaRay    GR:UNKNOWN:r1:0001:v1
 HDRS          .ohm.m                     : DeepRes     Lateralog Deep Resistivity, ohmm
~A  DEPTH    GRGC      GRGC      HCGR       SP    K_CORE_2~    PDPE   POR_CORE~    DEN       PHIE      SWT      VCLmix     DCAL     AHT20     AHT10     AHT30     AHT60     AHT90       BS       DTCO       GR       HCAL      HDRA      HTHO      HTPR      HTUR      HUPR      HURA      PEFZ      RHOZ      RXOZ       SP       TNPH      CALI       BS       HDRS      NPHI      PEF       CALI      DRHO       DT        GR       HDRS   
# ...
2979.0000   91.8900   91.8900   51.0700   37.5600 -999.0000    2.9700 -999.0000    2.5500    0.1090    1.0000    0.2314   -0.1100   18.9500   16.9700   19.2200   20.6400   17.7800    8.5000   87.5792   91.8900    8.3930    0.0000    8.4700    6.3100    1.8500    3.4200    4.5900    2.9700    2.5500   20.8400   37.5600    0.2400    8.5448    8.5000    2.2100    0.2400    2.9700    8.5448    0.0000   87.5792   91.8900    2.2100 
2979.5000   98.4800   98.4800   54.4700   37.2500 -999.0000    2.9100 -999.0000    2.5500    0.1186    1.0000    0.2230   -0.1000   18.4300   16.0400   18.5900   19.6200   17.1200    8.5000   87.6042   98.4800    8.3968    0.0000    8.9400    6.1800    1.7600    3.5200    5.0900    2.9100    2.5500   19.1900   37.2500    0.2500    8.5448    8.5000    2.1000    0.2500    2.9100    8.5448    0.0000   87.6042   98.4800    2.1000 
2980.0000  106.1500  106.1500   57.1800   37.1300 -999.0000    2.7800 -999.0000    2.5400    0.1278    1.0000    0.2197   -0.1100   16.9200   14.3100   17.1400   17.8100   15.8900    8.5000   87.4170  106.1500    8.3930    0.0100    9.2000    5.9200    1.5900    3.7300    5.8000    2.7800    2.5400   17.1400   37.1300    0.2600    8.5448    8.5000    1.9900    0.2600    2.7800    8.5448    0.0100   87.4170  106.1500    1.9900 
2980.5000  117.4700  117.4700   59.5900   37.0000 -999.0000    2.7000 -999.0000    2.5300    0.1309    1.0000    0.2162   -0.1100   15.1600   12.8100   15.3500   16.3800   14.5100    8.5000   87.6706  117.4700    8.3930    0.0000    9.5800    5.9100    1.6500    3.5800    5.8000    2.7000    2.5300   18.2300   37.0000    0.2600    8.5693    8.5000    1.8250    0.2600    2.7000    8.5693    0.0000   87.6706  117.4700    1.8250 
2981.0000  122.2800  122.2800   61.1800   37.0000 -999.0000    2.6500 -999.0000    2.5300    0.1370    1.0000    0.2162   -0.1300   14.2000   11.5800   14.4600   15.4800   13.3600    8.5000   87.6698  122.2800    8.3700   -0.0100   10.0700    6.2000    1.6500    3.7600    6.0900    2.6500    2.5300   18.2100   37.0000    0.2700    8.5693    8.5000    1.6600    0.2700    2.6500    8.5693   -0.0100   87.6698  122.2800    1.6600 
2981.5000  125.2000  125.2000   59.3000   37.3800 -999.0000    2.6200 -999.0000    2.5300    0.1272    1.0000    0.2265   -0.2000   14.4900   10.9100   14.8400   15.8200   13.2800    8.5000   87.7516  125.2000    8.3048   -0.0100    9.6600    6.0700    1.5600    3.8900    6.1900    2.6200    2.5300   18.8500   37.3800    0.2600    8.4715    8.5000    1.6550    0.2600    2.6200    8.4715   -0.0100   87.7516  125.2000    1.6550 
2982.0000  118.7600  118.7600   61.3100   38.1900 -999.0000    2.6300 -999.0000    2.5400    0.1239    1.0000    0.2484   -0.2000   14.6100   10.1700   15.2100   16.2300   13.4900    8.5000   87.8107  118.7600    8.3048   -0.0100   10.1800    6.3300    1.6500    3.8400    6.1700    2.6300    2.5400   20.5800   38.1900    0.2700    8.4715    8.5000    1.6500    0.2700    2.6300    8.4715   -0.0100   87.8107  118.7600    1.6500 
2982.5000  121.0700  121.0700   63.6300   39.1900 -999.0000    2.6900 -999.0000    2.5400    0.1143    1.0000    0.2754   -0.1900   14.9400    9.3600   15.7700   17.0900   13.9900    8.5000   88.5100  121.0700    8.3125   -0.0100   11.0800    7.0000    1.8600    3.7600    5.9600    2.6900    2.5400   20.2900   39.1900    0.2700    8.5448    8.5000    1.7000    0.2700    2.6900    8.5448   -0.0100   88.5100  121.0700    1.7000 
2983.0000  125.1800  125.1800   66.2000   40.3800  511.0000    2.7800    0.2811    2.5400    0.1092    1.0000    0.3076   -0.1500   14.9600    8.7800   16.5100   18.4800   14.9600    8.5000   88.9159  125.1800    8.3470   -0.0100   11.7200    7.2600    1.8800    3.8700    6.2400    2.7800    2.5400   17.2900   40.3800    0.2800    8.5448    8.5000    1.7500    0.2800    2.7800    8.5448   -0.0100   88.9159  125.1800    1.7500 
2983.5000  132.5200  132.5200   63.1700   41.9400 -999.0000    2.8400 -999.0000    2.5400    0.0001    1.0000    0.3497   -0.1200   14.9700    8.3600   16.9300   19.3800   16.0300    8.5000   89.4404  132.5200    8.3815   -0.0100   11.5100    7.7500    1.7300    4.4700    6.6400    2.8400    2.5400   14.2300   41.9400    0.2800    8.5448    8.5000    1.7150    0.2800    2.8400    8.5448   -0.0100   89.4404  132.5200    1.7150 
2984.0000  132.4500  132.4500   61.4900   43.5600 -999.0000    2.8600 -999.0000    2.5400    0.0001    1.0000    0.3935   -0.1100   15.2600    7.8300   17.4500   20.3900   16.2900    8.5000   90.2468  132.4500    8.3930    0.0000   11.6500    8.5100    1.8700    4.5500    6.2300    2.8600    2.5400   12.6100   43.5600    0.2800    8.5448    8.5000    1.6800    0.2800    2.8600    8.5448    0.0000   90.2468  132.4500    1.6800 
2984.5000  117.2400  117.2400   56.0500   45.8800 -999.0000    2.7900 -999.0000    2.5300    0.1099    1.0000    0.3468   -0.1100   15.0400    7.8500   20.1100   25.5000   19.3400    8.5000   91.4511  117.2400    8.3891    0.0200   10.9300    9.1500    1.8700    4.9000    5.8600    2.7900    2.5300    9.9100   45.8800    0.3000    8.4715    8.5000    1.6050    0.3000    2.7900    8.4715    0.0200   91.4511  117.2400    1.6050 
2985.0000   95.6800   95.6800   46.4400   48.3100 -999.0000    2.5700 -999.0000    2.4600    0.1686    1.0000    0.2486   -0.1000   12.7800    7.4800   17.2900   23.9500   20.2800    8.5000   92.2351   95.6800    8.4045    0.0200    9.3800   10.0300    1.9900    5.0500    4.7200    2.5700    2.4600    5.8800   48.3100    0.3200    8.4104    8.5000    1.5300    0.3200    2.5700    8.4104    0.0200   92.2351   95.6800    1.5300 
2985.5000   69.8000   69.8000   40.0900   50.6900 -999.0000    2.2900 -999.0000    2.3500    0.2120    1.0000    0.1951   -0.2200   11.5500    6.4900   15.8900   23.0100   20.5500    8.5000   92.8533   69.8000    8.2780    0.0100    8.4700   11.4100    2.3100    4.9400    3.6700    2.2900    2.3500    3.8400   50.6900    0.3200    8.2759    8.5000    1.4550    0.3200    2.2900    8.2759    0.0100   92.8533   69.8000    1.4550 
2986.0000   62.3000   62.3000   32.2400   52.4400 -999.0000    2.0600 -999.0000    2.2500    0.2580    1.0000    0.1140   -0.2300   10.0200    5.7600   14.2700   21.9700   21.8000    8.5000   93.4008   62.3000    8.2665   -0.0100    6.7000   10.8700    2.3100    4.7000    2.9000    2.0600    2.2500    2.8700   52.4400    0.3000    8.2759    8.5000    1.3800    0.3000    2.0600    8.2759   -0.0100   93.4008   62.3000    1.3800 
2986.5000   59.7200   59.7200   31.4800   53.6900 -999.0000    1.9700 -999.0000    2.2100    0.2718    1.0000    0.1062   -0.2300    9.7500    5.5500   13.7800   22.7000   23.3900    8.5000   93.9302   59.7200    8.2665   -0.0100    6.7200   11.7700    2.6500    4.4400    2.5400    1.9700    2.2100    2.5200   53.6900    0.2900    8.2759    8.5000    1.3450    0.2900    1.9700    8.2759   -0.0100   93.9302   59.7200    1.3450 
2987.0000   59.8200   59.8200   33.5400   54.7500 -999.0000    1.9500 -999.0000    2.2200    0.2603    1.0000    0.1275   -0.2600   10.4900    5.5600   15.0900   24.6000   26.0200    8.5000   96.0892   59.8200    8.2435   -0.0100    7.3500   12.7200    3.2500    3.9100    2.2600    1.9500    2.2200    2.5000   54.7500    0.2800    8.2759    8.5000    1.3100    0.2800    1.9500    8.2759   -0.0100   96.0892   59.8200    1.3100 
2987.5000   63.6500   63.6500   34.1600   55.7500  243.0000    1.9500    0.2751    2.2300    0.2551    1.0000    0.1339   -0.2600   11.6100    5.7000   17.3400   27.7400   29.1300    8.5000   96.0971   63.6500    8.2435   -0.0100    7.4300   12.4300    3.5300    3.5200    2.1000    1.9500    2.2300    2.5700   55.7500    0.2800    8.2759    8.5000    1.2900    0.2800    1.9500    8.2759   -0.0100   96.0971   63.6500    1.2900 
2988.0000   62.6500   62.6500   34.5300   56.5600 -999.0000    1.9400 -999.0000    2.2400    0.2503    1.0000    0.1377   -0.2400   12.6000    5.7300   19.1200   31.5400   33.0800    8.5000   95.4641   62.6500    8.2588   -0.0100    7.5400   12.5900    3.3200    3.7900    2.2700    1.9400    2.2400    2.6800   56.5600    0.2800    8.2759    8.5000    1.2700    0.2800    1.9400    8.2759   -0.0100   95.4641   62.6500    1.2700 
