~VERSION INFORMATION
 VERS.                 2.0:   CWLS LOG ASCII STANDARD - VERSION 2.0
 WRAP.                  NO:   SINGLE LINE PER DEPTH STEP
 CREA.                 9/4/2023 1:15:45 PM
#CREATED USING DSPetro VERSION 10ep.4.05.01 BY C4372838 ON 9/4/2023 1:15:45 PM
~WELL INFORMATION
#MNEM.UNIT       DATA                          DESCRIPTION MNEMONIC
#---------      ---------------------------   --------------------------
 STRT    .FT        2599.0000                 : START DEPTH
 STOP    .FT        3150.0000                 : STOP DEPTH
 STEP    .FT        0.5000                    : STEP VALUE
 NULL    .      -999.0000                     : NULL VALUE
 DATE    .      9/4/2023                      : LAS file Creation Date
 WELL   .      ABANICO-19                   : Well Name
 COMP   .      Kappa Resources Colombia,Ltd : Company
 FLD    .      UNKNOWN                      : Field
 STATE  .      UNKNOWN                      : State
 COUNT  .      Colombia                     : Country
 UWI    .      ABAN0019                     : Unique Well Identifier (UWI)
 LOC    .      UNKNOWN                      : Location
 PDAT   .      GROUND LEVEL                 : Permanent Datum
 EPDAT  .      1039.000000                  : Elevation of Permanent Datum
 LGMEA  .      DRILL FLOOR                  : Log Measured from
 APDAT  .      12.000000                    : Elevation Above Permanent Datum
 KB     .      1052.00000                   : KB Elevation
 DF     .      1051.00000                   : DF Elevation
 RWS    .      -999                         : Def_Rw
 WST    .      -999                         : Def_Rwt
 CNTY   .      UNKNOWN                      : County
 PROV   .      TOLIMA                       : Province
 SRVC   .      UNKNOWN                      : Contractor
 GDAT   .      WGS 84                       : Geodatum
 LONG   .      0.252833333280351            : Longitude
 LATI   .      0.26609722243415             : Latitude
 COORDIN.                                   : Grid System
 XCOORD .      910201.721945                : X or East-West Coordinate
 YCOORD .      958010.866493                : Y or North-South Coordinate
~CURVE INFORMATION
#MNEM                 UNIT       API CODE   Curve Type Comments
#----------     --------------- ----------  ---------- -----------
 DEPTH         .FT                        : Depth       
 GRGC          .API                       : GammaRay    GR:UNKNOWN:r1:0001:v1
 GRGC          .API                       : GammaRay    GR:UNKNOWN:r1:0001:v1
 HCGR          .GAPI                      :             HNGS Computed Gamma Ray {F13.2}
 SP            .MV                        : SP          Spontaneous Potential {F13.2}
 K_CORE_2023   .                          :             
 PDPE          .B/E                       : PEF         PEFZ:UNKNOWN:rC:NONE:v0 (auto-composite)
 POR_CORE_2023 .                          :             
 DEN           .g/cm3                     : Density     RHOZ:UNKNOWN:rC:NONE:v0 (auto-composite)
 PHIE          .Dec                       : Phi         
 SWT           .Dec                       : Sw          
 VCLmix        .Dec                       : Vcl         
 DCAL          .IN                        :             Differential Caliper {F13.2}
 AHT20         .OHMM                      : MedRes      Array Induction Two Foot Resistivity A20 {F13.2}
 AHT10         .OHMM                      : ShalRes     Array Induction Two Foot Resistivity A10 {F13.2}
 AHT30         .OHMM                      : MedRes      Array Induction Two Foot Resistivity A30 {F13.2}
 AHT60         .ohm.m                     : MedRes      AHT60:UNKNOWN:rC:NONE:v0 (auto-composite)
 AHT90         .ohm.m                     : DeepRes     AHT90:UNKNOWN:rC:NONE:v0 (auto-composite)
 BS            .IN                        : BitSize     Bit Size {F13.2}
 DTCO          .us/ft                     : Sonic       DTCO:UNKNOWN:rC:NONE:v0 (auto-composite)
 GR            .API                       : GammaRay    GR:UNKNOWN:rC:NONE:v0 (auto-composite)
 HCAL          .inch                      : Caliper     HCAL:UNKNOWN:rC:NONE:v0 (auto-composite)
 HDRA          .G/C3                      : Drho        HRDD Density Correction {F13.2}
 HTHO          .PPM                       :             HNGS Formation Thorium Concentration {F13.2}
 HTPR          .                          :             HNGS Thorium/Potassium Ratio {F13.2}
 HTUR          .                          :             HNGS Thorium/Uranium Ratio {F13.2}
 HUPR          .                          :             HNGS Uranium/Potassium Ratio {F13.2}
 HURA          .PPM                       :             HNGS Formation Uranium Concentration {F13.2}
 PEFZ          .B/E                       : PEF         PEFZ:UNKNOWN:rC:NONE:v0 (auto-composite)
 RHOZ          .g/cm3                     : Density     RHOZ:UNKNOWN:rC:NONE:v0 (auto-composite)
 RXOZ          .OHMM                      : MicroRes    MCFL Standard Resolution Invaded Zone Resistivity {F13.2}
 SP            .MV                        : SP          Spontaneous Potential {F13.2}
 TNPH          .dec                       : Neutron     TNPH:UNKNOWN:rC:NONE:v0 (auto-composite)
 CALI          .inch                      : Caliper     C1:UNKNOWN:rC:NONE:v0 (auto-composite)
 BS            .IN                        : BitSize     Bit Size {F13.2}
 HDRS          .ohm.m                     : DeepRes     Lateralog Deep Resistivity, ohmm
 NPHI          .dec                       : Neutron     TNPH:UNKNOWN:rC:NONE:v0 (auto-composite)
 PEF           .B/E                       : PEF         PEFZ:UNKNOWN:rC:NONE:v0 (auto-composite)
 CALI          .inch                      : Caliper     C1:UNKNOWN:rC:NONE:v0 (auto-composite)
 DRHO          .G/C3                      : Drho        HRDD Density Correction {F13.2}
 DT            .us/ft                     : Sonic       DTCO:UNKNOWN:rC:NONE:v0 (auto-composite)
 GR            .API                       : GammaRay    GR:UNKNOWN:r1:0001:v1
 HDRS          .ohm.m                     : DeepRes     Lateralog Deep Resistivity, ohmm
~A  DEPTH    GRGC      GRGC      HCGR       SP    K_CORE_2~    PDPE   POR_CORE~    DEN       PHIE      SWT      VCLmix     DCAL     AHT20     AHT10     AHT30     AHT60     AHT90       BS       DTCO       GR       HCAL      HDRA      HTHO      HTPR      HTUR      HUPR      HURA      PEFZ      RHOZ      RXOZ       SP       TNPH      CALI       BS       HDRS      NPHI      PEF       CALI      DRHO       DT        GR       HDRS   
# ...
2770.0000   55.7900   55.7900   22.7700   50.3100 -999.0000    1.8500 -999.0000    2.1300    0.3021    0.4183    0.1110   -0.1500   19.3100   14.9000   24.3300   36.0800   28.5800    8.5000  109.1602   55.7900    8.3508   -0.0100    2.6200    3.3000    1.2300    2.6900    2.1400    1.8500    2.1300    6.6000   50.3100    0.3500    8.2759    8.5000    1.8400    0.3500    1.8500    8.2759   -0.0100  109.1602   55.7900    1.8400 
2770.5000   57.2700   57.2700   22.8800   50.1900 -999.0000    1.8200 -999.0000    2.1200    0.3053    0.4033    0.1122   -0.1800   22.6600   15.5900   28.5000   39.0800   31.6800    8.5000  109.4896   57.2700    8.3201   -0.0100    2.7500    3.5400    1.2100    2.9300    2.2800    1.8200    2.1200    7.6400   50.1900    0.3500    8.2759    8.5000    1.8200    0.3500    1.8200    8.2759   -0.0100  109.4896   57.2700    1.8200 
2771.0000   61.3000   61.3000   25.1500   50.2500 -999.0000    1.8300 -999.0000    2.1100    0.3046    0.3962    0.1356   -0.1600   21.9200   15.6700   26.7000   36.8900   33.1300    8.5000  109.3865   61.3000    8.3355   -0.0100    3.0000    3.4900    1.1400    3.0500    2.6200    1.8300    2.1100    6.9200   50.2500    0.3500    8.2759    8.5000    1.8000    0.3500    1.8300    8.2759   -0.0100  109.3865   61.3000    1.8000 
2771.5000   62.2600   62.2600   29.6600   50.1300 -999.0000    1.8700 -999.0000    2.1200    0.2989    0.4642    0.1722   -0.1800   15.0200   11.7600   18.9800   27.5900   26.5900    8.5000  109.7691   62.2600    8.3240   -0.0100    3.4900    3.4100    1.1500    2.9600    3.0300    1.8700    2.1200    5.1900   50.1300    0.3600    8.2759    8.5000    1.8550    0.3600    1.8700    8.2759   -0.0100  109.7691   62.2600    1.8550 
2772.0000   62.2800   62.2800   29.7800   50.2500 -999.0000    1.9500 -999.0000    2.1400    0.2927    0.5059    0.1833   -0.1200   12.8600   10.2700   15.9900   23.3000   23.7800    8.5000  110.1753   62.2800    8.3815   -0.0100    3.5100    3.4200    1.0000    3.4100    3.4900    1.9500    2.1400    4.7000   50.2500    0.3700    8.2881    8.5000    1.9100    0.3700    1.9500    8.2881   -0.0100  110.1753   62.2800    1.9100 
2772.5000   62.9000   62.9000   27.2000   50.0000 -999.0000    2.1000 -999.0000    2.1600    0.2871    0.5110    0.1567   -0.1300   13.8800   10.7100   17.4700   23.6500   24.5500    8.5000  110.7488   62.9000    8.3700   -0.0100    3.2800    3.5500    0.9500    3.7200    3.4400    2.1000    2.1600    4.6700   50.0000    0.3600    8.2759    8.5000    1.7850    0.3600    2.1000    8.2759   -0.0100  110.7488   62.9000    1.7850 
2773.0000   61.2000   61.2000   24.2900   49.8800 -999.0000    2.2800 -999.0000    2.1700    0.2865    0.5170    0.1267   -0.1500   14.3700   10.8700   18.0400   24.6000   25.7200    8.5000  111.0183   61.2000    8.3508   -0.0100    3.3500    4.4400    1.0000    4.4400    3.3500    2.2800    2.1700    5.1700   49.8800    0.3500    8.3003    8.5000    1.6600    0.3500    2.2800    8.3003   -0.0100  111.0183   61.2000    1.6600 
2773.5000   67.6000   67.6000   23.6100   49.6900 -999.0000    2.3800 -999.0000    2.1800    0.2813    0.5248    0.1197   -0.1100   14.6100   11.0000   18.1500   25.5800   27.7100    8.5000  111.2073   67.6000    8.3930   -0.0100    3.2900    4.5400    0.9300    4.8600    3.5300    2.3800    2.1800    5.2900   49.6900    0.3400    8.2881    8.5000    1.6450    0.3400    2.3800    8.2881   -0.0100  111.2073   67.6000    1.6450 
2774.0000   73.6100   73.6100   26.0300   49.8100 -999.0000    2.3400 -999.0000    2.1800    0.2818    0.5174    0.1446   -0.1100   14.8100   10.9400   17.8800   25.3300   28.6700    8.5000  112.1262   73.6100    8.3891   -0.0100    3.6000    4.4700    0.8700    5.1200    4.1300    2.3400    2.1800    5.1100   49.8100    0.3600    8.2881    8.5000    1.6300    0.3600    2.3400    8.2881   -0.0100  112.1262   73.6100    1.6300 
2774.5000   83.0900   83.0900   29.5400   49.8800 -999.0000    2.2100 -999.0000    2.1800    0.2719    0.5210    0.1808   -0.1500   14.8600   10.9800   18.2100   25.8800   29.3200    8.5000  112.5178   83.0900    8.3508   -0.0100    4.0200    4.3500    0.9000    4.8500    4.4900    2.2100    2.1800    5.4200   49.8800    0.3500    8.2759    8.5000    1.6950    0.3500    2.2100    8.2759   -0.0100  112.5178   83.0900    1.6950 
2775.0000   97.5800   97.5800   32.3000   49.8800 -999.0000    2.1100 -999.0000    2.1900    0.2653    0.5255    0.2093   -0.1600   15.1300   10.8500   18.2700   26.2600   29.8500    8.5000  112.9065   97.5800    8.3355   -0.0100    4.6100    4.7300    0.8200    5.7700    5.6300    2.1100    2.1900    5.1900   49.8800    0.3600    8.2881    8.5000    1.7600    0.3600    2.1100    8.2881   -0.0100  112.9065   97.5800    1.7600 
2775.5000  104.6200  104.6200   30.5500   49.6900 -999.0000    2.0600 -999.0000    2.1900    0.2689    0.5309    0.1912   -0.1500   15.0000   10.6600   17.8700   25.8200   29.1900    8.5000  112.5094  104.6200    8.3508   -0.0100    3.9900    4.0500    0.6400    6.3500    6.2600    2.0600    2.1900    5.2200   49.6900    0.3600    8.3248    8.5000    2.0900    0.3600    2.0600    8.3248   -0.0100  112.5094  104.6200    2.0900 
2776.0000  104.1000  104.1000   28.3500   49.6900 -999.0000    2.0400 -999.0000    2.1800    0.2797    0.5145    0.1686   -0.1200   14.7000   10.8900   17.3500   26.0100   28.4100    8.5000  112.3917  104.1000    8.3815   -0.0100    3.5900    3.8400    0.5600    6.8500    6.4000    2.0400    2.1800    5.1300   49.6900    0.3700    8.3370    8.5000    2.4200    0.3700    2.0400    8.3370   -0.0100  112.3917  104.1000    2.4200 
2776.5000  102.9100  102.9100   28.0200   49.6300 -999.0000    2.0000 -999.0000    2.1800    0.2775    0.5124    0.1652   -0.1600   14.8700   11.1600   17.6100   25.7600   28.9000    8.5000  111.4900  102.9100    8.3355   -0.0100    3.6400    4.0200    0.5500    7.2900    6.6200    2.0000    2.1800    5.1400   49.6300    0.3600    8.3492    8.5000    2.7050    0.3600    2.0000    8.3492   -0.0100  111.4900  102.9100    2.7050 
2777.0000  118.3300  118.3300   31.5000   49.8100 -999.0000    2.0100 -999.0000    2.1800    0.2707    0.5176    0.2010   -0.1300   15.0500   10.9200   17.7000   25.5400   28.8400    8.5000  111.7006  118.3300    8.3661   -0.0100    4.2000    4.2000    0.5600    7.4500    7.4600    2.0100    2.1800    5.2500   49.8100    0.3600    8.3003    8.5000    2.9900    0.3600    2.0100    8.3003   -0.0100  111.7006  118.3300    2.9900 
2777.5000  129.8900  129.8900   36.6100   49.8100   93.5590    2.0600    0.2370    2.1900    0.2600    0.5349    0.2400   -0.1300   13.7400   10.4400   16.4800   23.8000   27.3600    8.5000  112.0970  129.8900    8.3738   -0.0100    4.8100    4.0900    0.5600    7.2800    8.5700    2.0600    2.1900    4.7100   49.8100    0.3600    8.3737    8.5000    2.7600    0.3600    2.0600    8.3737   -0.0100  112.0970  129.8900    2.7600 
2778.0000  127.1600  127.1600   39.1000   49.6900 -999.0000    2.0900 -999.0000    2.2000    0.2550    0.5488    0.2323   -0.1400   13.1900   10.3500   15.8400   22.0000   26.0600    8.5000  113.3135  127.1600    8.3585   -0.0100    5.4400    4.5100    0.6500    6.9000    8.3100    2.0900    2.2000    4.7500   49.6900    0.3500    8.3737    8.5000    2.5300    0.3500    2.0900    8.3737   -0.0100  113.3135  127.1600    2.5300 
2778.5000  107.0400  107.0400   34.7600   49.6300 -999.0000    2.0900 -999.0000    2.1900    0.2608    0.5308    0.2346   -0.1300   13.8700   10.6000   16.6700   22.8600   27.0500    8.5000  113.8173  107.0400    8.3661   -0.0100    4.4700    3.9500    0.6200    6.3900    7.2400    2.0900    2.1900    4.7100   49.6300    0.3600    8.3003    8.5000    2.1850    0.3600    2.0900    8.3003   -0.0100  113.8173  107.0400    2.1850 
2779.0000   92.5500   92.5500   30.1500   49.6300 -999.0000    2.0700 -999.0000    2.1600    0.2858    0.4862    0.1871   -0.1300   15.3900   11.4200   18.0300   24.7400   28.6300    8.5000  113.7710   92.5500    8.3700   -0.0100    3.8900    3.9700    0.6600    6.0200    5.9100    2.0700    2.1600    5.2800   49.6300    0.3800    8.3003    8.5000    1.8400    0.3800    2.0700    8.3003   -0.0100  113.7710   92.5500    1.8400 
