~VERSION INFORMATION
 VERS.                 2.0:   CWLS LOG ASCII STANDARD - VERSION 2.0
 WRAP.                  NO:   SINGLE LINE PER DEPTH STEP
 CREA.                 9/4/2023 1:15:44 PM
#CREATED USING DSPetro VERSION 10ep.4.05.01 BY C4372838 ON 9/4/2023 1:15:44 PM
~WELL INFORMATION
#MNEM.UNIT       DATA                          DESCRIPTION MNEMONIC
#---------      ---------------------------   --------------------------
 STRT    .FT        2533.0000                 : START DEPTH
 STOP    .FT        3150.0000                 : STOP DEPTH
 STEP    .FT        0.5000                    : STEP VALUE
 NULL    .      -999.0000                     : NULL VALUE
 DATE    .      9/4/2023                      : LAS file Creation Date
 WELL   .      ABANICO-2                    : Well Name
 COMP   .      Kappa Resources Colombia,Ltd : Company
 FLD    .      UNKNOWN                      : Field
 STATE  .      UNKNOWN                      : State
 COUNT  .      Colombia                     : Country
 UWI    .      ABAN0002                     : Unique Well Identifier (UWI)
 LOC    .      UNKNOWN                      : Location
 RWS    .      -999                         : Def_Rw
 WST    .      -999                         : Def_Rwt
 CNTY   .      UNKNOWN                      : County
 PROV   .                                   : Province
 SRVC   .      UNKNOWN                      : Contractor
 GDAT   .      WGS 84                       : Geodatum
 LONG   .      0                            : Longitude
 LATI   .      0                            : Latitude
 COORDIN.                                   : Grid System
 XCOORD .      910597.860948                : X or East-West Coordinate
 YCOORD .      957980.305104                : Y or North-South Coordinate
~CURVE INFORMATION
#MNEM                 UNIT       API CODE   Curve Type Comments
#----------     --------------- ----------  ---------- -----------
 DEPTH         .FT                        : Depth       
 GRGC          .API                       : GammaRay    GR:UNKNOWN:r1:MAIN:v1
 GRGC          .API                       : GammaRay    GR:UNKNOWN:r1:MAIN:v1
 SP            .mV                        : SP          SP:UNKNOWN:r1:MAIN:v1
 K_CORE_2023   .                          :             
 PDPE          .b/elec                    : PEF         PEF:UNKNOWN:r1:MAIN:v1
 POR_CORE_2023 .                          :             
 DEN           .g/cm3                     : Density     RHOB:PETROPHYSIC:rC:NONE:v0 (auto-composite)
 PHIE          .Dec                       : Phi         
 SWT           .Dec                       : Sw          
 VCLmix        .Dec                       : Vcl         
 AHT60         .ohm.m                     : DeepRes     HDRS:UNKNOWN:r1:MAIN:v1
 BS            .inches                    : BitSize     BS:UNKNOWN:r1:MAIN:v1
 DTCO          .uSec/ft                   : Sonic       DT:UNKNOWN:rC:NONE:v0 (auto-composite)
 GR            .API                       : GammaRay    GR:PETROPHYSIC:rC:NONE:v0 (auto-composite)
 HDRA          .g/cm3                     : Drho        DRHO:UNKNOWN:r1:MAIN:v1
 PEFZ          .b/elec                    : PEF         PEF:UNKNOWN:r1:MAIN:v1
 RHOZ          .g/cm3                     : Density     RHOB:PETROPHYSIC:rC:NONE:v0 (auto-composite)
 RXOZ          .ohm.m                     : MicroRes    MSFL:UNKNOWN:r1:MAIN:v1
 SP            .mV                        : SP          SP:UNKNOWN:r1:MAIN:v1
 TNPH          .v/v_decimal               : Neutron     NPHI:UNKNOWN:r1:MAIN:v1
 CALI          .inches                    : Caliper     CALI:PETROPHYSIC:rC:NONE:v0 (auto-composite)
 BS            .inches                    : BitSize     BS:UNKNOWN:r1:MAIN:v1
 HDRS          .ohm.m                     : DeepRes     HDRS:PETROPHYSIC:rC:NONE:v0 (auto-composite)
 HMRS          .ohm.m                     :             HMRS:PETROPHYSIC:rC:NONE:v0 (auto-composite)
 NPHI          .v/v_decimal               : Neutron     NPHI:UNKNOWN:r1:MAIN:v1
 PEF           .b/elec                    : PEF         PEF:UNKNOWN:r1:MAIN:v1
 CALI          .inches                    : Caliper     CALI:UNKNOWN:r1:MAIN:v1
 DRHO          .g/cm3                     : Drho        DRHO:UNKNOWN:r1:MAIN:v1
 DT            .us/ft                     : Sonic       DT:UNKNOWN:r1:MAIN:v1
 GR            .API                       : GammaRay    GR:UNKNOWN:r1:MAIN:v1
 HDRS          .ohm.m                     : DeepRes     HDRS:UNKNOWN:r1:MAIN:v1
 HMRS          .UNKNOWN                   :             HMRS:UNKNOWN:r1:MAIN:v1
~A  DEPTH    GRGC      GRGC       SP    K_CORE_2~    PDPE   POR_CORE~    DEN       PHIE      SWT      VCLmix    AHT60       BS       DTCO       GR       HDRA      PEFZ      RHOZ      RXOZ       SP       TNPH      CALI       BS       HDRS      HMRS      NPHI      PEF       CALI      DRHO       DT        GR       HDRS      HMRS   
# ...
2633.0000   75.9558   75.9558  -37.6133 -999.0000    2.4788 -999.0000    2.3456    0.1763    0.6683    0.2387   11.7122    8.5000   82.7020   66.3542    0.0872    2.4788    2.3456   20.1001  -37.6133    0.2952 -999.0000    8.5000   11.7122   10.3168    0.2952    2.4788   10.1219    0.0872   81.8234   75.9558   11.7122   10.3168 
2633.5000   77.9277   77.9277  -37.1400 -999.0000    2.4184 -999.0000    2.3537    0.1791    0.6652    0.2271   11.8228    8.5000   83.8917   63.3687    0.1091    2.4184    2.3537   17.1461  -37.1400    0.2921 -999.0000    8.5000   11.8228   10.0618    0.2921    2.4184   10.1536    0.1091   83.0813   77.9277   11.8228   10.0618 
2634.0000   81.5859   81.5859  -37.1733 -999.0000    2.3672 -999.0000    2.3532    0.1811    0.7000    0.2074   11.0788    8.5000   84.9056   58.3007    0.1223    2.3672    2.3532   14.5167  -37.1733    0.2812 -999.0000    8.5000   11.0788    9.4681    0.2812    2.3672   10.1853    0.1223   85.0062   81.5859   11.0788    9.4681 
2634.5000   94.3665   94.3665  -37.1400 -999.0000    2.3460 -999.0000    2.3472    0.1868    0.7343    0.1933    9.9771    8.5000   85.3731   54.6701    0.1270    2.3460    2.3472   13.3038  -37.1400    0.2804 -999.0000    8.5000    9.9771    8.7130    0.2804    2.3460   10.2350    0.1270   85.2609   94.3665    9.9771    8.7130 
2635.0000  104.2630  104.2630  -37.3067 -999.0000    2.3812 -999.0000    2.3359    0.1970    0.7426    0.1804    9.2267    8.5000   85.9358   51.3713    0.1282    2.3812    2.3359   15.5152  -37.3067    0.2861 -999.0000    8.5000    9.2267    8.1321    0.2861    2.3812   10.2842    0.1282   85.2375  104.2630    9.2267    8.1321 
2635.5000  114.1502  114.1502  -37.2800 -999.0000    2.4444 -999.0000    2.3297    0.2025    0.7360    0.1863    8.9010    8.5000   86.2206   52.8917    0.1361    2.4444    2.3297   19.7464  -37.2800    0.3016 -999.0000    8.5000    8.9010    7.7756    0.3016    2.4444   10.3055    0.1361   85.6453  114.1502    8.9010    7.7756 
2636.0000  118.6377  118.6377  -36.7933 -999.0000    2.5109 -999.0000    2.3259    0.2082    0.7309    0.1852    8.6478    8.5000   85.7246   52.5876    0.1451    2.5109    2.3259   18.4108  -36.7933    0.3083 -999.0000    8.5000    8.6478    7.4281    0.3083    2.5109   10.3087    0.1451   85.8031  118.6377    8.6478    7.4281 
2636.5000  112.4179  112.4179  -36.4000 -999.0000    2.5615 -999.0000    2.3225    0.2135    0.7274    0.1985    8.2088    8.5000   88.5743   56.0062    0.1562    2.5615    2.3225   15.0816  -36.4000    0.3215 -999.0000    8.5000    8.2088    7.0117    0.3215    2.5615   10.3071    0.1562   85.5375  112.4179    8.2088    7.0117 
2637.0000   97.0019   97.0019  -35.7267 -999.0000    2.5759 -999.0000    2.3186    0.2190    0.7402    0.2001    7.5977    8.5000   90.2070   56.4209    0.1637    2.5759    2.3186   12.7438  -35.7267    0.3310 -999.0000    8.5000    7.5977    6.5650    0.3310    2.5759   10.3016    0.1637   87.4844   97.0019    7.5977    6.5650 
2637.5000   78.3239   78.3239  -34.9400 -999.0000    2.5860 -999.0000    2.3160    0.2233    0.7631    0.1961    6.9610    8.5000   90.4406   55.4073    0.1718    2.5860    2.3160   11.5275  -34.9400    0.3355 -999.0000    8.5000    6.9610    6.1207    0.3355    2.5860   10.2814    0.1718   90.4594   78.3239    6.9610    6.1207 
2638.0000   64.6403   64.6403  -33.9733 -999.0000    2.5705 -999.0000    2.3213    0.2181    0.8029    0.2003    6.4849    8.5000   89.8316   56.4854    0.1802    2.5705    2.3213    9.5995  -33.9733    0.3301 -999.0000    8.5000    6.4849    5.7661    0.3301    2.5705   10.2705    0.1802   91.1375   64.6403    6.4849    5.7661 
2638.5000   57.4529   57.4529  -32.9067 -999.0000    2.5362 -999.0000    2.3327    0.2115    0.8354    0.2016    6.2767    8.5000   88.8246   56.8079    0.1824    2.5362    2.3327    7.8505  -32.9067    0.3229 -999.0000    8.5000    6.2767    5.6039    0.3229    2.5362   10.2672    0.1824   89.6781   57.4529    6.2767    5.6039 
2639.0000   54.7254   54.7254  -32.3933    0.9600    2.4876    0.1860    2.3490    0.2043    0.8574    0.1961    6.3622    8.5000   88.4580   55.3981    0.1745    2.4876    2.3490    7.8006  -32.3933    0.3123 -999.0000    8.5000    6.3622    5.7101    0.3123    2.4876   10.2710    0.1745   88.8141   54.7254    6.3622    5.7101 
2639.5000   55.5455   55.5455  -32.0000 -999.0000    2.4299 -999.0000    2.3604    0.1904    0.8779    0.2003    6.7467    8.5000   87.6348   56.4854    0.1514    2.4299    2.3604    9.2487  -32.0000    0.2941 -999.0000    8.5000    6.7467    6.1378    0.2941    2.4299   10.2842    0.1514   89.3281   55.5455    6.7467    6.1378 
2640.0000   57.2963   57.2963  -31.7200 -999.0000    2.4130 -999.0000    2.3638    0.1867    0.8469    0.2028    7.4472    8.5000   84.7166   57.1304    0.1237    2.4130    2.3638   11.3299  -31.7200    0.2905 -999.0000    8.5000    7.4472    6.8928    0.2905    2.4130   10.2852    0.1237   87.6250   57.2963    7.4472    6.8928 
2640.5000   55.8588   55.8588  -31.5800 -999.0000    2.4153 -999.0000    2.3567    0.1904    0.7923    0.1950    8.3616    8.5000   85.4043   55.1032    0.1013    2.4153    2.3567   16.2035  -31.5800    0.2901 -999.0000    8.5000    8.3616    7.7924    0.2901    2.4153   10.2869    0.1013   85.1266   55.8588    8.3616    7.7924 
2641.0000   56.5499   56.5499  -31.6000 -999.0000    2.4274 -999.0000    2.3490    0.1947    0.7419    0.2007    9.0737    8.5000   88.8685   56.5868    0.0899    2.4274    2.3490   21.1464  -31.6000    0.3040 -999.0000    8.5000    9.0737    8.3504    0.3040    2.4274   10.2858    0.0899   85.7516   56.5499    9.0737    8.3504 
2641.5000   55.1953   55.1953  -31.6000 -999.0000    2.4190 -999.0000    2.3422    0.1914    0.7380    0.2136    9.1961    8.5000   90.8554   59.8948    0.0833    2.4190    2.3422   20.5535  -31.6000    0.3036 -999.0000    8.5000    9.1961    8.2914    0.3036    2.4190   10.2923    0.0833   88.6781   55.1953    9.1961    8.2914 
2642.0000   55.4349   55.4349  -31.6200 -999.0000    2.3989 -999.0000    2.3353    0.1906    0.7403    0.2316    8.9161    8.5000   90.3408   64.5113    0.0714    2.3989    2.3353   16.3219  -31.6200    0.3085 -999.0000    8.5000    8.9161    7.9688    0.3085    2.3989   10.3082    0.0714   90.1016   55.4349    8.9161    7.9688 
2642.5000   59.5631   59.5631  -31.6067 -999.0000    2.4500 -999.0000    2.3272    0.1956    0.7240    0.2497    8.7082    8.5000   88.8295   69.1739    0.0518    2.4500    2.3272   13.0122  -31.6067    0.3225 -999.0000    8.5000    8.7082    7.8353    0.3225    2.4500   10.3229    0.0518   88.8328   59.5631    8.7082    7.8353 
2643.0000   63.1844   63.1844  -31.8000 -999.0000    2.5992 -999.0000    2.3183    0.1935    0.7118    0.2699    8.8343    8.5000   89.4165   74.3709    0.0306    2.5992    2.3183   12.9637  -31.8000    0.3281 -999.0000    8.5000    8.8343    8.1145    0.3281    2.5992   10.3060    0.0306   87.5563   63.1844    8.8343    8.1145 
2643.5000   64.0966   64.0966  -31.9867 -999.0000    2.8216 -999.0000    2.3117    0.1846    0.7035    0.2875    9.3312    8.5000   89.0302   78.8768    0.0160    2.8216    2.3117   14.3243  -31.9867    0.3244 -999.0000    8.5000    9.3312    8.8346    0.3244    2.8216   10.2661    0.0160   89.0813   64.0966    9.3312    8.8346 
2644.0000   62.0510   62.0510  -32.2133 -999.0000    3.0046 -999.0000    2.3021    0.1832    0.6607    0.3127   10.0846    8.5000   88.6435   85.3639    0.0129    3.0046    2.3021   20.2809  -32.2133    0.3380 -999.0000    8.5000   10.0846    9.8800    0.3380    3.0046   10.2257    0.0129   89.1937   62.0510   10.0846    9.8800 
2644.5000   54.5319   54.5319  -32.7933 -999.0000    3.0490 -999.0000    2.2931    0.1922    0.6102    0.3160   10.8149    8.5000   88.2086   86.2024    0.0206    3.0490    2.2931   26.4212  -32.7933    0.3559 -999.0000    8.5000   10.8149   10.9792    0.3559    3.0490   10.1978    0.0206   88.3609   54.5319   10.8149   10.9792 
2645.0000   45.6122   45.6122  -33.5267 -999.0000    2.9803 -999.0000    2.2855    0.1959    0.5943    0.3113   11.1165    8.5000   87.7237   85.0045    0.0295    2.9803    2.2855   28.4381  -33.5267    0.3574 -999.0000    8.5000   11.1165   11.5673    0.3574    2.9803   10.1525    0.0295   88.1609   45.6122   11.1165   11.5673 
