~VERSION INFORMATION
 VERS.                 2.0:   CWLS LOG ASCII STANDARD - VERSION 2.0
 WRAP.                  NO:   SINGLE LINE PER DEPTH STEP
 CREA.                 9/4/2023 1:15:44 PM
#CREATED USING DSPetro VERSION 10ep.4.05.01 BY C4372838 ON 9/4/2023 1:15:44 PM
~WELL INFORMATION
#MNEM.UNIT       DATA                          DESCRIPTION MNEMONIC
#---------      ---------------------------   --------------------------
 STRT    .FT        2533.0000                 : START DEPTH
 STOP    .FT        3150.0000                 : STOP DEPTH
 STEP    .FT        0.5000                    : STEP VALUE
 NULL    .      -999.0000                     : NULL VALUE
 DATE    .      9/4/2023                      : LAS file Creation Date
 WELL   .      ABANICO-2                    : Well Name
 COMP   .      Kappa Resources Colombia,Ltd : Company
 FLD    .      UNKNOWN                      : Field
 STATE  .      UNKNOWN                      : State
 COUNT  .      Colombia                     : Country
 UWI    .      ABAN0002                     : Unique Well Identifier (UWI)
 LOC    .      UNKNOWN                      : Location
 RWS    .      -999                         : Def_Rw
 WST    .      -999                         : Def_Rwt
 CNTY   .      UNKNOWN                      : County
 PROV   .                                   : Province
 SRVC   .      UNKNOWN                      : Contractor
 GDAT   .      WGS 84                       : Geodatum
 LONG   .      0                            : Longitude
 LATI   .      0                            : Latitude
 COORDIN.                                   : Grid System
 XCOORD .      910597.860948                : X or East-West Coordinate
 YCOORD .      957980.305104                : Y or North-South Coordinate
~CURVE INFORMATION
#MNEM                 UNIT       API CODE   Curve Type Comments
#----------     --------------- ----------  ---------- -----------
 DEPTH         .FT                        : Depth       
 GRGC          .API                       : GammaRay    GR:UNKNOWN:r1:MAIN:v1
 GRGC          .API                       : GammaRay    GR:UNKNOWN:r1:MAIN:v1
 SP            .mV                        : SP          SP:UNKNOWN:r1:MAIN:v1
 K_CORE_2023   .                          :             
 PDPE          .b/elec                    : PEF         PEF:UNKNOWN:r1:MAIN:v1
 POR_CORE_2023 .                          :             
 DEN           .g/cm3                     : Density     RHOB:PETROPHYSIC:rC:NONE:v0 (auto-composite)
 PHIE          .Dec                       : Phi         
 SWT           .Dec                       : Sw          
 VCLmix        .Dec                       : Vcl         
 AHT60         .ohm.m                     : DeepRes     HDRS:UNKNOWN:r1:MAIN:v1
 BS            .inches                    : BitSize     BS:UNKNOWN:r1:MAIN:v1
 DTCO          .uSec/ft                   : Sonic       DT:UNKNOWN:rC:NONE:v0 (auto-composite)
 GR            .API                       : GammaRay    GR:PETROPHYSIC:rC:NONE:v0 (auto-composite)
 HDRA          .g/cm3                     : Drho        DRHO:UNKNOWN:r1:MAIN:v1
 PEFZ          .b/elec                    : PEF         PEF:UNKNOWN:r1:MAIN:v1
 RHOZ          .g/cm3                     : Density     RHOB:PETROPHYSIC:rC:NONE:v0 (auto-composite)
 RXOZ          .ohm.m                     : MicroRes    MSFL:UNKNOWN:r1:MAIN:v1
 SP            .mV                        : SP          SP:UNKNOWN:r1:MAIN:v1
 TNPH          .v/v_decimal               : Neutron     NPHI:UNKNOWN:r1:MAIN:v1
 CALI          .inches                    : Caliper     CALI:PETROPHYSIC:rC:NONE:v0 (auto-composite)
 BS            .inches                    : BitSize     BS:UNKNOWN:r1:MAIN:v1
 HDRS          .ohm.m                     : DeepRes     HDRS:PETROPHYSIC:rC:NONE:v0 (auto-composite)
 HMRS          .ohm.m                     :             HMRS:PETROPHYSIC:rC:NONE:v0 (auto-composite)
 NPHI          .v/v_decimal               : Neutron     NPHI:UNKNOWN:r1:MAIN:v1
 PEF           .b/elec                    : PEF         PEF:UNKNOWN:r1:MAIN:v1
 CALI          .inches                    : Caliper     CALI:UNKNOWN:r1:MAIN:v1
 DRHO          .g/cm3                     : Drho        DRHO:UNKNOWN:r1:MAIN:v1
 DT            .us/ft                     : Sonic       DT:UNKNOWN:r1:MAIN:v1
 GR            .API                       : GammaRay    GR:UNKNOWN:r1:MAIN:v1
 HDRS          .ohm.m                     : DeepRes     HDRS:UNKNOWN:r1:MAIN:v1
 HMRS          .UNKNOWN                   :             HMRS:UNKNOWN:r1:MAIN:v1
~A  DEPTH    GRGC      GRGC       SP    K_CORE_2~    PDPE   POR_CORE~    DEN       PHIE      SWT      VCLmix    AHT60       BS       DTCO       GR       HDRA      PEFZ      RHOZ      RXOZ       SP       TNPH      CALI       BS       HDRS      HMRS      NPHI      PEF       CALI      DRHO       DT        GR       HDRS      HMRS   
# ...
2570.5000   58.7153   58.7153  -46.3600 -999.0000    1.9703 -999.0000    2.2055    0.2444    0.7013    0.1659    7.4534    8.5000   89.2361   47.6486    0.0024    1.9703    2.2055   39.8173  -46.3600    0.3168 -999.0000    8.5000    7.4534    7.4021    0.3168    1.9703    9.9493    0.0024   87.7500   58.7153    7.4534    7.4021 
2571.0000   54.2739   54.2739  -47.5867 -999.0000    1.9672 -999.0000    2.2089    0.2393    0.7415    0.1590    6.9828    8.5000   92.3102   45.8518    0.0044    1.9672    2.2089   37.3138  -47.5867    0.2976 -999.0000    8.5000    6.9828    6.9469    0.2976    1.9672    9.9640    0.0044   89.8672   54.2739    6.9828    6.9469 
2571.5000   53.9329   53.9329  -48.8133    1.3900    1.9785    0.2180    2.2216    0.2293    0.8015    0.1580    6.4405    8.5000   88.1359   45.6030    0.0086    1.9785    2.2216   33.6093  -48.8133    0.2748 -999.0000    8.5000    6.4405    6.4084    0.2748    1.9785    9.9597    0.0086   90.1078   53.9329    6.4405    6.4084 
2572.0000   55.3243   55.3243  -50.1000 -999.0000    1.9969 -999.0000    2.2382    0.2231    0.8487    0.1521    6.0768    8.5000   85.5514   44.1010    0.0112    1.9969    2.2382   34.3983  -50.1000    0.2667 -999.0000    8.5000    6.0768    6.0211    0.2667    1.9969    9.9542    0.0112   86.4141   55.3243    6.0768    6.0211 
2572.5000   57.7570   57.7570  -51.0067 -999.0000    2.0058 -999.0000    2.2414    0.2285    0.8372    0.1538    5.9708    8.5000   90.6483   44.5249    0.0126    2.0058    2.2414   36.1476  -51.0067    0.2914 -999.0000    8.5000    5.9708    5.8845    0.2914    2.0058    9.9504    0.0126   83.7094   57.7570    5.9708    5.8845 
2573.0000   66.9071   66.9071  -51.4600 -999.0000    1.9980 -999.0000    2.2273    0.2394    0.7950    0.1704    5.9515    8.5000   92.5920   50.3024    0.0118    1.9980    2.2273   39.5472  -51.4600    0.3165 -999.0000    8.5000    5.9515    5.8504    0.3165    1.9980    9.9504    0.0118   86.0609   66.9071    5.9515    5.8504 
2573.5000   82.1019   82.1019  -51.7267    2.2800    1.9853    0.2400    2.2048    0.2560    0.7610    0.1656    5.8149    8.5000   92.7007   55.0019    0.0100    1.9853    2.2048   40.9924  -51.7267    0.3351 -999.0000    8.5000    5.8149    5.7334    0.3351    1.9853    9.9477    0.0100   90.7188   82.1019    5.8149    5.7334 
2574.0000   89.7132   89.7132  -52.0533 -999.0000    1.9892 -999.0000    2.1897    0.2671    0.7492    0.1598    5.6045    8.5000   94.0637   55.0479    0.0096    1.9892    2.1897   39.0827  -52.0533    0.3457 -999.0000    8.5000    5.6045    5.5592    0.3457    1.9892    9.9482    0.0096   93.3375   89.7132    5.6045    5.5592 
2574.5000   97.2507   97.2507  -52.1600 -999.0000    2.0320 -999.0000    2.1885    0.2682    0.7490    0.1579    5.5792    8.5000   94.0411   59.8579    0.0079    2.0320    2.1885   38.8158  -52.1600    0.3460 -999.0000    8.5000    5.5792    5.5466    0.3460    2.0320    9.9548    0.0079   94.0406   97.2507    5.5792    5.5466 
2575.0000  108.7597  108.7597  -52.9800 -999.0000    2.1406 -999.0000    2.1926    0.2842    0.6969    0.1432    5.9183    8.5000   94.6278   80.9040    0.0044    2.1406    2.1926   40.5509  -52.9800    0.3729 -999.0000    8.5000    5.9183    5.8522    0.3729    2.1406    9.9646    0.0044   94.0875  108.7597    5.9183    5.8522 
2575.5000  117.3385  117.3385  -53.8067 -999.0000    2.3472 -999.0000    2.1909    0.3022    0.6283    0.1285    6.6200    8.5000   95.4926  138.2464   -0.0026    2.3472    2.1909   40.3444  -53.8067    0.4050 -999.0000    8.5000    6.6200    6.4491    0.4050    2.3472    9.9586   -0.0026   94.8984  117.3385    6.6200    6.4491 
2576.0000  123.6136  123.6136  -55.1733 -999.0000    2.6060 -999.0000    2.1847    0.3289    0.5502    0.1040    7.5248    8.5000   98.0732  213.3453   -0.0091    2.6060    2.1847   46.5316  -55.1733    0.4552 -999.0000    8.5000    7.5248    7.2642    0.4552    2.6060    9.9569   -0.0091   96.5656  123.6136    7.5248    7.2642 
2576.5000  130.1099  130.1099  -56.5867    1.0500    2.8155    0.2750    2.1762    0.3494    0.5027    0.0788    8.1646    8.5000   99.1474  258.8100   -0.0101    2.8155    2.1762   75.8822  -56.5867    0.4907 -999.0000    8.5000    8.1646    7.9966    0.4907    2.8155    9.9575   -0.0101   98.1672  130.1099    8.1646    7.9966 
2577.0000  129.4741  129.4741  -58.2467 -999.0000    2.8406 -999.0000    2.1649    0.3561    0.5154    0.0492    7.6587    8.5000   99.8302  267.8772   -0.0074    2.8406    2.1649  106.8039  -58.2467    0.4697 -999.0000    8.5000    7.6587    7.7547    0.4697    2.8406    9.9575   -0.0074   99.6203  129.4741    7.6587    7.7547 
2577.5000  118.6654  118.6654  -58.8533    2.6800    2.6441    0.2530    2.1526    0.3531    0.5755    0.0383    6.3324    8.5000  101.6784  234.4927   -0.0024    2.6441    2.1526   71.4742  -58.8533    0.4367 -999.0000    8.5000    6.3324    6.5171    0.4367    2.6441    9.9608   -0.0024  101.6375  118.6654    6.3324    6.5171 
2578.0000   99.5820   99.5820  -58.0600 -999.0000    2.4230 -999.0000    2.1391    0.3464    0.6364    0.0525    5.3279    8.5000  103.6012  168.4610   -0.0017    2.4230    2.1391   39.6564  -58.0600    0.4177 -999.0000    8.5000    5.3279    5.4451    0.4177    2.4230    9.9597   -0.0017  103.7766   99.5820    5.3279    5.4451 
2578.5000   82.4429   82.4429  -55.9933    1.7600    2.3984    0.2540    2.1397    0.3297    0.6750    0.0894    5.0376    8.5000  105.0758  132.2293   -0.0027    2.3984    2.1397   33.9106  -55.9933    0.4046 -999.0000    8.5000    5.0376    5.0415    0.4046    2.3984    9.9657   -0.0027  105.3812   82.4429    5.0376    5.0415 
2579.0000   72.5188   72.5188  -53.6400 -999.0000    2.5878 -999.0000    2.1595    0.3060    0.6820    0.1314    5.4502    8.5000  101.5273  144.4847   -0.0014    2.5878    2.1595   38.5066  -53.6400    0.3939 -999.0000    8.5000    5.4502    5.3066    0.3939    2.5878    9.9848   -0.0014  103.9281   72.5188    5.4502    5.3066 
2579.5000   67.2757   67.2757  -51.7800    1.6000    2.8384    0.2600    2.1943    0.2771    0.6704    0.1646    6.5320    8.5000   95.2337  157.5510    0.0003    2.8384    2.1943   49.8522  -51.7800    0.3753 -999.0000    8.5000    6.5320    6.2158    0.3753    2.8384    9.9853    0.0003   99.0234   67.2757    6.5320    6.2158 
2580.0000   66.3634   66.3634  -50.4533 -999.0000    2.9048 -999.0000    2.2236    0.2541    0.6423    0.1883    8.0489    8.5000   93.9790  161.2921    0.0043    2.9048    2.2236   61.9313  -50.4533    0.3603 -999.0000    8.5000    8.0489    7.6416    0.3603    2.9048    9.9793    0.0043   94.4484   66.3634    8.0489    7.6416 
2580.5000   74.4630   74.4630  -49.3800    2.3800    2.7261    0.3030    2.2340    0.2361    0.6262    0.2075    9.2921    8.5000   95.6831  149.1657    0.0073    2.7261    2.2340   54.1835  -49.3800    0.3428 -999.0000    8.5000    9.2921    8.9798    0.3428    2.7261    9.9717    0.0073   93.0516   74.4630    9.2921    8.9798 
2581.0000   77.0339   77.0339  -48.6267 -999.0000    2.4578 -999.0000    2.2262    0.2241    0.6250    0.2210    9.9019    8.5000   92.5550  115.9840    0.0088    2.4578    2.2262   39.4568  -48.6267    0.3257 -999.0000    8.5000    9.9019    9.7276    0.3257    2.4578    9.9788    0.0088   91.9281   77.0339    9.9019    9.7276 
2581.5000   76.2138   76.2138  -48.4000    1.3500    2.2092    0.2930    2.2158    0.2179    0.6223    0.2250   10.3249    8.5000   89.6258   80.4525    0.0130    2.2092    2.2158   36.4017  -48.4000    0.3133 -999.0000    8.5000   10.3249   10.2273    0.3133    2.2092    9.9804    0.0130   90.0422   76.2138   10.3249   10.2273 
2582.0000   73.0532   73.0532  -48.7467 -999.0000    2.0438 -999.0000    2.2053    0.2226    0.6050    0.2188   10.6355    8.5000   90.2905   66.6491    0.0160    2.0438    2.2053   42.8658  -48.7467    0.3102 -999.0000    8.5000   10.6355   10.5574    0.3102    2.0438    9.9925    0.0160   90.6922   73.0532   10.6355   10.5574 
2582.5000   69.6346   69.6346  -49.8133    0.4700    1.9515    0.3030    2.1930    0.2326    0.5992    0.1998   10.4282    8.5000   88.7959   62.1155    0.0173    1.9515    2.1930   45.8966  -49.8133    0.3084 -999.0000    8.5000   10.4282   10.3210    0.3084    1.9515    9.9815    0.0173   90.6516   69.6346   10.4282   10.3210 
