~VERSION INFORMATION
 VERS.                 2.0:   CWLS LOG ASCII STANDARD - VERSION 2.0
 WRAP.                  NO:   SINGLE LINE PER DEPTH STEP
 CREA.                 9/4/2023 1:15:46 PM
#CREATED USING DSPetro VERSION 10ep.4.05.01 BY C4372838 ON 9/4/2023 1:15:46 PM
~WELL INFORMATION
#MNEM.UNIT       DATA                          DESCRIPTION MNEMONIC
#---------      ---------------------------   --------------------------
 STRT    .FT        2741.0000                 : START DEPTH
 STOP    .FT        3159.5000                 : STOP DEPTH
 STEP    .FT        0.5000                    : STEP VALUE
 NULL    .      -999.0000                     : NULL VALUE
 DATE    .      9/4/2023                      : LAS file Creation Date
 WELL   .      ABANICO-34              : Well Name
 COMP   .      PACIFIC RUBIALES ENERGY : Company
 FLD    .      ABANICO                 : Field
 STATE  .      UNKNOWN                 : State
 COUNT  .      COLOMBIA                : Country
 API    .      ABAN0034                : API Number
 UWI    .      ABAN0034                : Unique Well Identifier (UWI)
 LOC    .      N                       : Location
 EPDAT  .      1017.000                : Elevation of Permanent Datum
 GL     .      1017.000                : GL Elevation
 RWS    .      -999                    : Def_Rw
 WST    .      -999                    : Def_Rwt
 CNTY   .      TOLIMA                  : County
 PROV   .      UNKNOWN                 : Province
 SRVC   .      WEATHERFORD             : Contractor
 GDAT   .      WGS 84                  : Geodatum
 LONG   .      -74.873885111279        : Longitude
 LATI   .      4.22623405562507        : Latitude
 COORDIN.                              : Grid System
 XCOORD .      911584.313002           : X or East-West Coordinate
 YCOORD .      959134.088873           : Y or North-South Coordinate
~CURVE INFORMATION
#MNEM                 UNIT       API CODE   Curve Type Comments
#----------     --------------- ----------  ---------- -----------
 DEPTH         .FT                        : Depth       
 GRGC          .GAPI                      : GammaRay    Gamma Ray
 GRGC          .GAPI                      : GammaRay    Gamma Ray
 SP            .MV                        : SP          Spontaneous Potential
 K_CORE_2023   .                          :             
 NPRS          .V/V                       :             Sandstone Neutron Por.
 PDPE          .B/E                       : PEF         PE
 POR_CORE_2023 .                          :             
 R85O          .OHMM                      :             Array Ind One Res 85
 R60O          .OHMM                      :             Array Ind One Res 60
 R40O          .OHMM                      :             Array Ind One Res 40
 R30O          .OHMM                      :             Array Ind One Res 30
 R20O          .OHMM                      :             Array Ind One Res 20
 DT46          .US/F                      : Sonic       4-6' Compensated Sonic
 DEN           .G/C3                      : Density     Compensated Density
 PHIE          .Dec                       : Phi         
 SWT           .Dec                       : Sw          
 VCLmix        .Dec                       : Vcl         
 BS            .inches                    : BitSize     Bit size
 DTCO          .US/F                      : Sonic       4-6' Compensated Sonic
 GR            .GAPI                      : GammaRay    Gamma Ray
 HDRA          .G/C3                      : Drho        Density Correction
 PEFZ          .B/E                       : PEF         PE
 RHOZ          .G/C3                      : Density     Compensated Density
 SP            .MV                        : SP          Spontaneous Potential
 TNPH          .V/V                       : Neutron     Neutron Posrosity
 BS            .inches                    : BitSize     Bit size
 NPHI          .V/V                       : Neutron     Neutron Posrosity
 PEF           .B/E                       : PEF         PE
 DRHO          .G/C3                      : Drho        Density Correction
 DT            .US/F                      : Sonic       4-6' Compensated Sonic
 GR            .GAPI                      : GammaRay    Gamma Ray
~A  DEPTH    GRGC      GRGC       SP    K_CORE_2~    NPRS      PDPE   POR_CORE~    R85O      R60O      R40O      R30O      R20O      DT46      DEN       PHIE      SWT      VCLmix      BS       DTCO       GR       HDRA      PEFZ      RHOZ       SP       TNPH       BS       NPHI      PEF       DRHO       DT        GR    
2741.0000   36.2760   36.2760    7.4380 -999.0000    0.2150    2.3980 -999.0000   17.1120   17.3080   18.1510   19.3720   21.3050   84.7820    2.3830    0.1564    0.5363    0.1274    8.5000   84.7820   36.2760    0.0980    2.3980    2.3830    7.4380    0.2150    8.5000    0.2150    2.3980    0.0980   84.7820   36.2760 
2741.5000   34.2710   34.2710    5.4450 -999.0000    0.2160    2.4210 -999.0000   15.9210   16.1120   16.9310   18.1100   19.9950   84.0300    2.3620    0.1702    0.5750    0.1107    8.5000   84.0300   34.2710    0.1000    2.4210    2.3620    5.4450    0.2160    8.5000    0.2160    2.4210    0.1000   84.0300   34.2710 
2742.0000   33.7960   33.7960    3.8330 -999.0000    0.2260    2.4420 -999.0000    9.3800    9.4970    9.9980   10.7220   11.8870   85.4870    2.3320    0.1878    0.7721    0.1067    8.5000   85.4870   33.7960    0.1030    2.4420    2.3320    3.8330    0.2260    8.5000    0.2260    2.4420    0.1030   85.4870   33.7960 
2742.5000   35.1450   35.1450    2.2500 -999.0000    0.2340    2.3870 -999.0000    5.8090    5.8840    6.2050    6.6690    7.4220   85.4870    2.3160    0.1948    0.9669    0.1180    8.5000   85.4870   35.1450    0.1060    2.3870    2.3160    2.2500    0.2340    8.5000    0.2340    2.3870    0.1060   85.4870   35.1450 
2743.0000   36.6790   36.6790    0.8750 -999.0000    0.2310    2.2830 -999.0000    5.9340    6.0120    6.3500    6.8390    7.6380   83.5300    2.3270    0.1856    0.9781    0.1308    8.5000   83.5300   36.6790    0.1040    2.2830    2.3270    0.8750    0.2310    8.5000    0.2310    2.2830    0.1040   83.5300   36.6790 
2743.5000   35.3190   35.3190   -0.3560 -999.0000    0.2190    2.1910 -999.0000   10.9940   11.1430   11.7830   12.7190   14.2520   81.2270    2.3470    0.1752    0.7222    0.1194    8.5000   81.2270   35.3190    0.0950    2.1910    2.3470   -0.3560    0.2190    8.5000    0.2190    2.1910    0.0950   81.2270   35.3190 
2744.0000   31.4730   31.4730   -1.0400 -999.0000    0.2090    2.1600 -999.0000   13.0040   13.1840   13.9560   15.0860   16.9430   80.2270    2.3600    0.1766    0.6930    0.0873    8.5000   80.2270   31.4730    0.0880    2.1600    2.3600   -1.0400    0.2090    8.5000    0.2090    2.1600    0.0880   80.2270   31.4730 
2744.5000   28.9500   28.9500   -1.2220 -999.0000    0.2070    2.1610 -999.0000   11.7030   11.8680   12.5750   13.6100   15.3200   80.1050    2.3600    0.1829    0.7527    0.0663    8.5000   80.1050   28.9500    0.0880    2.1610    2.3600   -1.2220    0.2070    8.5000    0.2070    2.1610    0.0880   80.1050   28.9500 
2745.0000   30.8600   30.8600   -1.1400 -999.0000    0.2140    2.1870 -999.0000   10.2960   10.2410   11.2520   12.3330   14.4470   80.9020    2.3510    0.1839    0.7808    0.0822    8.5000   80.9020   30.8600    0.0950    2.1870    2.3510   -1.1400    0.2140    8.5000    0.2140    2.1870    0.0950   80.9020   30.8600 
2745.5000   33.7110   33.7110   -1.0250 -999.0000    0.2240    2.2290 -999.0000   10.4840 -999.0000   11.8160   13.1950   16.4280   82.4190    2.3380    0.1847    0.7322    0.1060    8.5000   82.4190   33.7110    0.0990    2.2290    2.3380   -1.0250    0.2240    8.5000    0.2240    2.2290    0.0990   82.4190   33.7110 
2746.0000   35.2570   35.2570   -0.9520 -999.0000    0.2270    2.2190 -999.0000    9.4370 -999.0000   10.6310   11.8460   14.6750   81.8580    2.3450    0.1794    0.7822    0.1189    8.5000   81.8580   35.2570    0.0940    2.2190    2.3450   -0.9520    0.2270    8.5000    0.2270    2.2190    0.0940   81.8580   35.2570 
2746.5000   34.8890   34.8890   -0.6750 -999.0000    0.2260    2.2150 -999.0000    9.9630 -999.0000   11.1950   12.4910   15.4320   86.2810    2.3670    0.1716    0.7907    0.1158    8.5000   86.2810   34.8890    0.0980    2.2150    2.3670   -0.6750    0.2260    8.5000    0.2260    2.2150    0.0980   86.2810   34.8890 
2747.0000   32.7820   32.7820   -0.0680 -999.0000    0.2200    2.2200 -999.0000   10.0060 -999.0000   11.2530   12.5090   15.3600   96.2230    2.3900    0.1666    0.8406    0.0983    8.5000   96.2230   32.7820    0.1130    2.2200    2.3900   -0.0680    0.2200    8.5000    0.2200    2.2200    0.1130   96.2230   32.7820 
2747.5000   29.8000   29.8000    0.6810 -999.0000    0.2150    2.2240 -999.0000    9.4450 -999.0000   10.6000   11.7640   14.3600  106.6170    2.4010    0.1705    0.8980    0.0734    8.5000  106.6170   29.8000    0.1260    2.2240    2.4010    0.6810    0.2150    8.5000    0.2150    2.2240    0.1260  106.6170   29.8000 
2748.0000   27.5840   27.5840    1.7300 -999.0000    0.2170    2.2330 -999.0000    9.5500 -999.0000   10.7040   11.8720   14.4370  117.4160    2.4040    0.1799    0.8806    0.0549    8.5000  117.4160   27.5840    0.1240    2.2330    2.4040    1.7300    0.2170    8.5000    0.2170    2.2330    0.1240  117.4160   27.5840 
2748.5000   26.8910   26.8910    2.9580 -999.0000    0.2240    2.2940 -999.0000    9.1320 -999.0000   10.2360   11.3100   13.6630  127.6330    2.4070    0.1867    0.8800    0.0491    8.5000  127.6330   26.8910    0.1080    2.2940    2.4070    2.9580    0.2240    8.5000    0.2240    2.2940    0.1080  127.6330   26.8910 
2749.0000   29.0240   29.0240    4.4750 -999.0000    0.2360    2.4970 -999.0000    7.7130 -999.0000    8.6170    9.5200   11.4530  136.3910    2.4150    0.1856    0.9402    0.0669    8.5000  136.3910   29.0240    0.0930    2.4970    2.4150    4.4750    0.2360    8.5000    0.2360    2.4970    0.0930  136.3910   29.0240 
2749.5000   33.8160   33.8160    6.0940 -999.0000    0.2460    2.8120 -999.0000    6.5520 -999.0000    7.3120    8.0620    9.6540  142.1860    2.4200    0.1736    1.0000    0.1069    8.5000  142.1860   33.8160    0.0970    2.8120    2.4200    6.0940    0.2460    8.5000    0.2460    2.8120    0.0970  142.1860   33.8160 
2750.0000   40.2540   40.2540    7.3220 -999.0000    0.2560    3.0370 -999.0000    4.8880 -999.0000    5.4420    5.9870    7.1310  142.8720    2.4190    0.1562    1.0000    0.1606    8.5000  142.8720   40.2540    0.1190    3.0370    2.4190    7.3220    0.2560    8.5000    0.2560    3.0370    0.1190  142.8720   40.2540 
2750.5000   45.3340   45.3340    7.3290 -999.0000    0.2660    3.0500 -999.0000    4.0870 -999.0000    4.5340    4.9890    5.9260  144.3140    2.4080    0.1455    1.0000    0.2030    8.5000  144.3140   45.3340    0.1330    3.0500    2.4080    7.3290    0.2660    8.5000    0.2660    3.0500    0.1330  144.3140   45.3340 
2751.0000   46.6520   46.6520    6.1230 -999.0000    0.2710    2.8900 -999.0000    5.0010 -999.0000    5.5370    6.0740    7.1780  148.6260    2.3890    0.1495    1.0000    0.2139    8.5000  148.6260   46.6520    0.1310    2.8900    2.3890    6.1230    0.2710    8.5000    0.2710    2.8900    0.1310  148.6260   46.6520 
2751.5000   44.1960   44.1960    4.2250 -999.0000    0.2670    2.6530 -999.0000    4.6820 -999.0000    5.1660    5.6610    6.6630  152.0240    2.3740    0.1603    1.0000    0.1935    8.5000  152.0240   44.1960    0.1280    2.6530    2.3740    4.2250    0.2670    8.5000    0.2670    2.6530    0.1280  152.0240   44.1960 
2752.0000   38.5680   38.5680    2.4140 -999.0000    0.2520    2.4610 -999.0000    4.2540 -999.0000    4.6780    5.1230    6.0130  148.8470    2.3700    0.1713    1.0000    0.1465    8.5000  148.8470   38.5680    0.1270    2.4610    2.3700    2.4140    0.2520    8.5000    0.2520    2.4610    0.1270  148.8470   38.5680 
2752.5000   32.7190   32.7190    0.9970 -999.0000    0.2350    2.3410 -999.0000    5.0730 -999.0000    5.5660    6.0790    7.1020  138.4220    2.3810    0.1771    1.0000    0.0977    8.5000  138.4220   32.7190    0.1270    2.3410    2.3810    0.9970    0.2350    8.5000    0.2350    2.3410    0.1270  138.4220   32.7190 
2753.0000   29.0110   29.0110   -0.0570 -999.0000    0.2220    2.3000 -999.0000    7.4120 -999.0000    8.1050    8.8500   10.3170  128.5630    2.3960    0.1796    0.9915    0.0668    8.5000  128.5630   29.0110    0.1190    2.3000    2.3960   -0.0570    0.2220    8.5000    0.2220    2.3000    0.1190  128.5630   29.0110 
