~VERSION INFORMATION
 VERS.                 2.0:   CWLS LOG ASCII STANDARD - VERSION 2.0
 WRAP.                  NO:   SINGLE LINE PER DEPTH STEP
 CREA.                 9/4/2023 1:15:44 PM
#CREATED USING DSPetro VERSION 10ep.4.05.01 BY C4372838 ON 9/4/2023 1:15:44 PM
~WELL INFORMATION
#MNEM.UNIT       DATA                          DESCRIPTION MNEMONIC
#---------      ---------------------------   --------------------------
 STRT    .FT        2533.0000                 : START DEPTH
 STOP    .FT        3150.0000                 : STOP DEPTH
 STEP    .FT        0.5000                    : STEP VALUE
 NULL    .      -999.0000                     : NULL VALUE
 DATE    .      9/4/2023                      : LAS file Creation Date
 WELL   .      ABANICO-2                    : Well Name
 COMP   .      Kappa Resources Colombia,Ltd : Company
 FLD    .      UNKNOWN                      : Field
 STATE  .      UNKNOWN                      : State
 COUNT  .      Colombia                     : Country
 UWI    .      ABAN0002                     : Unique Well Identifier (UWI)
 LOC    .      UNKNOWN                      : Location
 RWS    .      -999                         : Def_Rw
 WST    .      -999                         : Def_Rwt
 CNTY   .      UNKNOWN                      : County
 PROV   .                                   : Province
 SRVC   .      UNKNOWN                      : Contractor
 GDAT   .      WGS 84                       : Geodatum
 LONG   .      0                            : Longitude
 LATI   .      0                            : Latitude
 COORDIN.                                   : Grid System
 XCOORD .      910597.860948                : X or East-West Coordinate
 YCOORD .      957980.305104                : Y or North-South Coordinate
~CURVE INFORMATION
#MNEM                 UNIT       API CODE   Curve Type Comments
#----------     --------------- ----------  ---------- -----------
 DEPTH         .FT                        : Depth       
 GRGC          .API                       : GammaRay    GR:UNKNOWN:r1:MAIN:v1
 GRGC          .API                       : GammaRay    GR:UNKNOWN:r1:MAIN:v1
 SP            .mV                        : SP          SP:UNKNOWN:r1:MAIN:v1
 K_CORE_2023   .                          :             
 PDPE          .b/elec                    : PEF         PEF:UNKNOWN:r1:MAIN:v1
 POR_CORE_2023 .                          :             
 DEN           .g/cm3                     : Density     RHOB:PETROPHYSIC:rC:NONE:v0 (auto-composite)
 PHIE          .Dec                       : Phi         
 SWT           .Dec                       : Sw          
 VCLmix        .Dec                       : Vcl         
 AHT60         .ohm.m                     : DeepRes     HDRS:UNKNOWN:r1:MAIN:v1
 BS            .inches                    : BitSize     BS:UNKNOWN:r1:MAIN:v1
 DTCO          .uSec/ft                   : Sonic       DT:UNKNOWN:rC:NONE:v0 (auto-composite)
 GR            .API                       : GammaRay    GR:PETROPHYSIC:rC:NONE:v0 (auto-composite)
 HDRA          .g/cm3                     : Drho        DRHO:UNKNOWN:r1:MAIN:v1
 PEFZ          .b/elec                    : PEF         PEF:UNKNOWN:r1:MAIN:v1
 RHOZ          .g/cm3                     : Density     RHOB:PETROPHYSIC:rC:NONE:v0 (auto-composite)
 RXOZ          .ohm.m                     : MicroRes    MSFL:UNKNOWN:r1:MAIN:v1
 SP            .mV                        : SP          SP:UNKNOWN:r1:MAIN:v1
 TNPH          .v/v_decimal               : Neutron     NPHI:UNKNOWN:r1:MAIN:v1
 CALI          .inches                    : Caliper     CALI:PETROPHYSIC:rC:NONE:v0 (auto-composite)
 BS            .inches                    : BitSize     BS:UNKNOWN:r1:MAIN:v1
 HDRS          .ohm.m                     : DeepRes     HDRS:PETROPHYSIC:rC:NONE:v0 (auto-composite)
 HMRS          .ohm.m                     :             HMRS:PETROPHYSIC:rC:NONE:v0 (auto-composite)
 NPHI          .v/v_decimal               : Neutron     NPHI:UNKNOWN:r1:MAIN:v1
 PEF           .b/elec                    : PEF         PEF:UNKNOWN:r1:MAIN:v1
 CALI          .inches                    : Caliper     CALI:UNKNOWN:r1:MAIN:v1
 DRHO          .g/cm3                     : Drho        DRHO:UNKNOWN:r1:MAIN:v1
 DT            .us/ft                     : Sonic       DT:UNKNOWN:r1:MAIN:v1
 GR            .API                       : GammaRay    GR:UNKNOWN:r1:MAIN:v1
 HDRS          .ohm.m                     : DeepRes     HDRS:UNKNOWN:r1:MAIN:v1
 HMRS          .UNKNOWN                   :             HMRS:UNKNOWN:r1:MAIN:v1
~A  DEPTH    GRGC      GRGC       SP    K_CORE_2~    PDPE   POR_CORE~    DEN       PHIE      SWT      VCLmix    AHT60       BS       DTCO       GR       HDRA      PEFZ      RHOZ      RXOZ       SP       TNPH      CALI       BS       HDRS      HMRS      NPHI      PEF       CALI      DRHO       DT        GR       HDRS      HMRS   
# ...
2695.5000   38.0286   38.0286  -49.5667   57.3200    1.9134    0.2540    2.1935    0.2489    0.1715    0.1463 3127.9922    8.5000   85.9760   41.4380    0.1024    1.9134    2.1935   56.9941  -49.5667    0.3058 -999.0000    8.5000 3127.9922  417.7202    0.3058    1.9134   10.7042    0.1024   82.3125   38.0286 3127.9922  417.7202 
2696.0000   38.4709   38.4709  -48.4933 -999.0000    1.9661 -999.0000    2.1886    0.2503    0.1720    0.1477 1715.3257    8.5000   88.0854   41.5578    0.0622    1.9661    2.1886   60.8321  -48.4933    0.3051 -999.0000    8.5000 1715.3257  393.8643    0.3051    1.9661   10.6725    0.0622   83.2641   38.4709 1715.3257  393.8643 
2696.5000   38.9961   38.9961  -47.2800 -999.0000    2.0012 -999.0000    2.1911    0.2513    0.1705    0.1468  763.2203    8.5000   90.6511   41.4748    0.0523    2.0012    2.1911   74.9321  -47.2800    0.3141 -999.0000    8.5000  763.2203  295.6661    0.3141    2.0012   10.6769    0.0523   88.5375   38.9961  763.2203  295.6661 
2697.0000   40.1940   40.1940  -46.5533 -999.0000    2.0007 -999.0000    2.1953    0.2526    0.1642    0.1409  414.3303    8.5000   95.9094   40.9773    0.0687    2.0007    2.1953   77.5856  -46.5533    0.3199 -999.0000    8.5000  414.3303  210.0812    0.3199    2.0007   10.7594    0.0687   93.6953   40.1940  414.3303  210.0812 
2697.5000   43.7324   43.7324  -45.7933  202.0800    1.9801    0.2700    2.1996    0.2493    0.1862    0.1622  250.0981    8.5000   94.6976   42.7833    0.0993    1.9801    2.1996   63.1497  -45.7933    0.3289 -999.0000    8.5000  250.0981  150.8262    0.3289    1.9801   10.8178    0.0993   94.5188   43.7324  250.0981  150.8262 
2698.0000   50.9106   50.9106  -45.2333 -999.0000    1.9419 -999.0000    2.2010    0.2524    0.1777    0.1549  210.6474    8.5000   88.6370   42.1659    0.1211    1.9419    2.2010   45.0222  -45.2333    0.3335 -999.0000    8.5000  210.6474  133.5733    0.3335    1.9419   10.7490    0.1211   90.8609   50.9106  210.6474  133.5733 
2698.5000   56.8908   56.8908  -44.6400  106.1900    1.8936    0.2380    2.1991    0.2557    0.1697    0.1485  254.8831    8.5000   90.4427   41.6223    0.1291    1.8936    2.1991   47.7518  -44.6400    0.3350 -999.0000    8.5000  254.8831  154.3586    0.3350    1.8936   10.5824    0.1291   88.3906   56.8908  254.8831  154.3586 
2699.0000   59.5078   59.5078  -44.4333 -999.0000    1.8324 -999.0000    2.1974    0.2520    0.1766    0.1535  400.1157    8.5000   88.7701   42.0461    0.1251    1.8324    2.1974   55.8185  -44.4333    0.3280 -999.0000    8.5000  400.1157  216.6626    0.3280    1.8324   10.4863    0.1251   86.3453   59.5078  400.1157  216.6626 
2699.5000   60.7241   60.7241  -44.1867 -999.0000    1.7943 -999.0000    2.2121    0.2381    0.1997    0.1689  705.2164    8.5000   80.9285   43.3546    0.1181    1.7943    2.2121   57.7448  -44.1867    0.3112 -999.0000    8.5000  705.2164  306.5952    0.3112    1.7943   10.4786    0.1181   85.9500   60.7241  705.2164  306.5952 
2700.0000   56.7895   56.7895  -44.2467 -999.0000    1.7947 -999.0000    2.2321    0.2201    0.2203    0.1769 1593.9141    8.5000   81.8456   44.0365    0.1199    1.7947    2.2321   38.9337  -44.2467    0.2814 -999.0000    8.5000 1593.9141  425.6547    0.2814    1.7947   10.4628    0.1199   90.2047   56.7895 1593.9141  425.6547 
2700.5000   54.0896   54.0896  -44.2533 -999.0000    1.8290 -999.0000    2.2498    0.2084    0.2237    0.1708 4857.0654    8.5000   88.2652   44.8842    0.1263    1.8290    2.2498   38.4425  -44.2533    0.2603 -999.0000    8.5000 4857.0654  505.9056    0.2603    1.8290   10.4704    0.1263   93.3875   54.0896 4857.0654  505.9056 
2701.0000   54.6609   54.6609  -44.3400 -999.0000    1.8788 -999.0000    2.2557    0.2083    0.2229    0.1700 20000.0000    8.5000   86.6211   43.4468    0.1390    1.8788    2.2557   44.8159  -44.3400    0.2669 -999.0000    8.5000 20000.0000  520.7836    0.2669    1.8788   10.5234    0.1390   91.2438   54.6609 20000.0000  520.7836 
2701.5000   55.3981   55.3981  -44.2667 -999.0000    1.9297 -999.0000    2.2574    0.2183    0.1703    0.1272 20000.0000    8.5000   83.3015   39.8162    0.1567    1.9297    2.2574   46.6170  -44.2667    0.2691 -999.0000    8.5000 20000.0000  518.0840    0.2691    1.9297   10.5163    0.1567   86.3031   55.3981 20000.0000  518.0840 
2702.0000   54.2739   54.2739  -44.2267 -999.0000    1.9729 -999.0000    2.2558    0.2285    0.1179    0.0865 20000.0000    8.5000   81.2019   36.3515    0.1786    1.9729    2.2558   47.8330  -44.2267    0.2687 -999.0000    8.5000 20000.0000  504.0134    0.2687    1.9729   10.5294    0.1786   81.9000   54.2739 20000.0000  504.0134 
2702.5000   51.5740   51.5740  -43.9600 -999.0000    2.0283 -999.0000    2.2549    0.2329    0.0961    0.0700 20000.0000    8.5000   80.6936   34.9509    0.2086    2.0283    2.2549   54.4196  -43.9600    0.2689 -999.0000    8.5000 20000.0000  455.5292    0.2689    2.0283   10.6458    0.2086   81.0344   51.5740 20000.0000  455.5292 
2703.0000   48.0264   48.0264  -43.8133 -999.0000    2.0848 -999.0000    2.2552    0.2325    0.0970    0.0707 11808.1133    8.5000   83.8451   35.0062    0.2337    2.0848    2.2552   64.5616  -43.8133    0.2686 -999.0000    8.5000 11808.1133  389.8014    0.2686    2.0848   10.8266    0.2337   82.5813   48.0264 11808.1133  389.8014 
2703.5000   45.9531   45.9531  -43.3933 -999.0000    2.1477 -999.0000    2.2548    0.2317    0.1163    0.0864 10023.3838    8.5000   88.0499   36.3423    0.2515    2.1477    2.2548   56.4331  -43.3933    0.2780 -999.0000    8.5000 10023.3838  339.9664    0.2780    2.1477   10.8971    0.2515   84.7125   45.9531 10023.3838  339.9664 
2704.0000   46.9207   46.9207  -43.0333 -999.0000    2.2090 -999.0000    2.2600    0.2283    0.1155    0.0844 13015.7441    8.5000   91.7349   36.1765    0.2652    2.2090    2.2600   44.1502  -43.0333    0.2714 -999.0000    8.5000 13015.7441  312.3461    0.2714    2.2090   10.9276    0.2652   87.9859   46.9207 13015.7441  312.3461 
2704.5000   49.3257   49.3257  -42.6133 -999.0000    2.2215 -999.0000    2.2589    0.2262    0.1338    0.0991 20000.0000    8.5000   90.4714   37.4204    0.2690    2.2215    2.2589   45.0267  -42.6133    0.2750 -999.0000    8.5000 20000.0000  295.2001    0.2750    2.2215   10.9927    0.2690   89.9938   49.3257 20000.0000  295.2001 
2705.0000   52.6890   52.6890  -42.1000 -999.0000    2.1923 -999.0000    2.2511    0.2308    0.1369    0.1038 20000.0000    8.5000   88.9511   37.8259    0.2651    2.1923    2.2511   50.2233  -42.1000    0.2843 -999.0000    8.5000 20000.0000  278.0529    0.2843    2.1923   11.2445    0.2651   88.0188   52.6890 20000.0000  278.0529 
2705.5000   51.3805   51.3805  -41.6200 -999.0000    2.1341 -999.0000    2.2364    0.2524    0.1131    0.0912 20000.0000    8.5000   83.8619   36.7478    0.2470    2.1341    2.2364   51.9775  -41.6200    0.3099 -999.0000    8.5000 20000.0000  263.4998    0.3099    2.1341   11.5569    0.2470   87.7031   51.3805 20000.0000  263.4998 
2706.0000   49.2335   49.2335  -40.9867 -999.0000    2.0681 -999.0000    2.2172    0.2572    0.1094    0.0894 20000.0000    8.5000   81.9541   36.6003    0.2151    2.0681    2.2172   45.6020  -40.9867    0.3099 -999.0000    8.5000 20000.0000  260.1158    0.3099    2.0681   11.6864    0.2151   90.0594   49.2335 20000.0000  260.1158 
2706.5000   48.5977   48.5977  -40.4467 -999.0000    2.0050 -999.0000    2.1946    0.2664    0.0862    0.0710 20000.0000    8.5000   86.0204   35.0338    0.1847    2.0050    2.1946   38.4619  -40.4467    0.3064 -999.0000    8.5000 20000.0000  272.3302    0.3064    2.0050   11.7612    0.1847   90.3891   48.5977 20000.0000  272.3302 
2707.0000   46.7364   46.7364  -39.8600 -999.0000    1.9137 -999.0000    2.1723    0.2746    0.0857    0.0727 16508.0742    8.5000   90.9454   35.1813    0.1504    1.9137    2.1723   36.4313  -39.8600    0.3077 -999.0000    8.5000 16508.0742  301.1465    0.3077    1.9137   11.7765    0.1504   89.8547   46.7364 16508.0742  301.1465 
2707.5000   45.5661   45.5661  -39.1333 -999.0000    1.8182 -999.0000    2.1479    0.2796    0.0883    0.0765 5890.3301    8.5000   95.4516   35.5038    0.1200    1.8182    2.1479   40.7715  -39.1333    0.2959 -999.0000    8.5000 5890.3301  338.4429    0.2959    1.8182   11.6596    0.1200   91.2734   45.5661 5890.3301  338.4429 
