~VERSION INFORMATION
 VERS.                 2.0:   CWLS LOG ASCII STANDARD - VERSION 2.0
 WRAP.                  NO:   SINGLE LINE PER DEPTH STEP
 CREA.                 9/4/2023 1:15:46 PM
#CREATED USING DSPetro VERSION 10ep.4.05.01 BY C4372838 ON 9/4/2023 1:15:46 PM
~WELL INFORMATION
#MNEM.UNIT       DATA                          DESCRIPTION MNEMONIC
#---------      ---------------------------   --------------------------
 STRT    .FT        2741.0000                 : START DEPTH
 STOP    .FT        3159.5000                 : STOP DEPTH
 STEP    .FT        0.5000                    : STEP VALUE
 NULL    .      -999.0000                     : NULL VALUE
 DATE    .      9/4/2023                      : LAS file Creation Date
 WELL   .      ABANICO-34              : Well Name
 COMP   .      PACIFIC RUBIALES ENERGY : Company
 FLD    .      ABANICO                 : Field
 STATE  .      UNKNOWN                 : State
 COUNT  .      COLOMBIA                : Country
 API    .      ABAN0034                : API Number
 UWI    .      ABAN0034                : Unique Well Identifier (UWI)
 LOC    .      N                       : Location
 EPDAT  .      1017.000                : Elevation of Permanent Datum
 GL     .      1017.000                : GL Elevation
 RWS    .      -999                    : Def_Rw
 WST    .      -999                    : Def_Rwt
 CNTY   .      TOLIMA                  : County
 PROV   .      UNKNOWN                 : Province
 SRVC   .      WEATHERFORD             : Contractor
 GDAT   .      WGS 84                  : Geodatum
 LONG   .      -74.873885111279        : Longitude
 LATI   .      4.22623405562507        : Latitude
 COORDIN.                              : Grid System
 XCOORD .      911584.313002           : X or East-West Coordinate
 YCOORD .      959134.088873           : Y or North-South Coordinate
~CURVE INFORMATION
#MNEM                 UNIT       API CODE   Curve Type Comments
#----------     --------------- ----------  ---------- -----------
 DEPTH         .FT                        : Depth       
 GRGC          .GAPI                      : GammaRay    Gamma Ray
 GRGC          .GAPI                      : GammaRay    Gamma Ray
 SP            .MV                        : SP          Spontaneous Potential
 K_CORE_2023   .                          :             
 NPRS          .V/V                       :             Sandstone Neutron Por.
 PDPE          .B/E                       : PEF         PE
 POR_CORE_2023 .                          :             
 R85O          .OHMM                      :             Array Ind One Res 85
 R60O          .OHMM                      :             Array Ind One Res 60
 R40O          .OHMM                      :             Array Ind One Res 40
 R30O          .OHMM                      :             Array Ind One Res 30
 R20O          .OHMM                      :             Array Ind One Res 20
 DT46          .US/F                      : Sonic       4-6' Compensated Sonic
 DEN           .G/C3                      : Density     Compensated Density
 PHIE          .Dec                       : Phi         
 SWT           .Dec                       : Sw          
 VCLmix        .Dec                       : Vcl         
 BS            .inches                    : BitSize     Bit size
 DTCO          .US/F                      : Sonic       4-6' Compensated Sonic
 GR            .GAPI                      : GammaRay    Gamma Ray
 HDRA          .G/C3                      : Drho        Density Correction
 PEFZ          .B/E                       : PEF         PE
 RHOZ          .G/C3                      : Density     Compensated Density
 SP            .MV                        : SP          Spontaneous Potential
 TNPH          .V/V                       : Neutron     Neutron Posrosity
 BS            .inches                    : BitSize     Bit size
 NPHI          .V/V                       : Neutron     Neutron Posrosity
 PEF           .B/E                       : PEF         PE
 DRHO          .G/C3                      : Drho        Density Correction
 DT            .US/F                      : Sonic       4-6' Compensated Sonic
 GR            .GAPI                      : GammaRay    Gamma Ray
~A  DEPTH    GRGC      GRGC       SP    K_CORE_2~    NPRS      PDPE   POR_CORE~    R85O      R60O      R40O      R30O      R20O      DT46      DEN       PHIE      SWT      VCLmix      BS       DTCO       GR       HDRA      PEFZ      RHOZ       SP       TNPH       BS       NPHI      PEF       DRHO       DT        GR    
# ...
3028.5000   81.8010   81.8010   68.2150 -999.0000    0.3160    2.8170 -999.0000   11.3390 -999.0000   11.4470   11.6440   11.9030   89.6830    2.4550    0.0001    1.0000    0.6348    8.5000   89.6830   81.8010    0.0940    2.8170    2.4550   68.2150    0.3160    8.5000    0.3160    2.8170    0.0940   89.6830   81.8010 
3029.0000   82.4400   82.4400   67.7450 -999.0000    0.3150    2.7910 -999.0000   11.1980 -999.0000   11.3010   11.4950   11.7480   89.4320    2.4410    0.0001    1.0000    0.6117    8.5000   89.4320   82.4400    0.0970    2.7910    2.4410   67.7450    0.3150    8.5000    0.3150    2.7910    0.0970   89.4320   82.4400 
3029.5000   82.8220   82.8220   67.5610 -999.0000    0.3130    2.8170 -999.0000   11.4250 -999.0000   11.5270   11.7280   11.9870   88.4160    2.4290    0.0001    1.0000    0.5888    8.5000   88.4160   82.8220    0.0940    2.8170    2.4290   67.5610    0.3130    8.5000    0.3130    2.8170    0.0940   88.4160   82.8220 
3030.0000   81.4290   81.4290   67.6540 -999.0000    0.3080    2.8590 -999.0000   12.0680 -999.0000   12.1720   12.3820   12.6540   86.8470    2.4290    0.0001    1.0000    0.5752    8.5000   86.8470   81.4290    0.0970    2.8590    2.4290   67.6540    0.3080    8.5000    0.3080    2.8590    0.0970   86.8470   81.4290 
3030.5000   78.4570   78.4570   67.7480 -999.0000    0.3000    2.8610 -999.0000   12.7080 -999.0000   12.8140   13.0370   13.3240   85.6030    2.4430    0.0001    1.0000    0.5740    8.5000   85.6030   78.4570    0.1100    2.8610    2.4430   67.7480    0.3000    8.5000    0.3000    2.8610    0.1100   85.6030   78.4570 
3031.0000   74.1930   74.1930   67.6720 -999.0000    0.2930    2.8400 -999.0000   13.5600 -999.0000   13.6710   13.9100   14.2190   85.0110    2.4480    0.0001    1.0000    0.5624    8.5000   85.0110   74.1930    0.1160    2.8400    2.4480   67.6720    0.2930    8.5000    0.2930    2.8400    0.1160   85.0110   74.1930 
3031.5000   71.5890   71.5890   67.2460 -999.0000    0.2870    2.7970 -999.0000   13.0480 -999.0000   13.1520   13.3800   13.6750   85.2500    2.4420    0.0001    1.0000    0.5374    8.5000   85.2500   71.5890    0.1100    2.7970    2.4420   67.2460    0.2870    8.5000    0.2870    2.7970    0.1100   85.2500   71.5890 
3032.0000   71.0520   71.0520   66.9000 -999.0000    0.2840    2.7510 -999.0000   12.7710 -999.0000   12.8720   13.0990   13.3910   85.9340    2.4370    0.0001    1.0000    0.5220    8.5000   85.9340   71.0520    0.1060    2.7510    2.4370   66.9000    0.2840    8.5000    0.2840    2.7510    0.1060   85.9340   71.0520 
3032.5000   72.2140   72.2140   66.7950 -999.0000    0.2830    2.7510 -999.0000   12.5200 -999.0000   12.6200   12.8380   13.1230   86.4930    2.4390    0.0001    1.0000    0.5222    8.5000   86.4930   72.2140    0.0990    2.7510    2.4390   66.7950    0.2830    8.5000    0.2830    2.7510    0.0990   86.4930   72.2140 
3033.0000   73.8990   73.8990   66.2110 -999.0000    0.2850    2.7860 -999.0000   12.5640 -999.0000   12.6630   12.8820   13.1670   86.7540    2.4590    0.0001    1.0000    0.5568    8.5000   86.7540   73.8990    0.0960    2.7860    2.4590   66.2110    0.2850    8.5000    0.2850    2.7860    0.0960   86.7540   73.8990 
3033.5000   74.8160   74.8160   64.7300 -999.0000    0.2900    2.8620 -999.0000   12.2730 -999.0000   12.3710   12.5850   12.8650   86.4800    2.4810    0.0001    1.0000    0.6025    8.5000   86.4800   74.8160    0.0870    2.8620    2.4810   64.7300    0.2900    8.5000    0.2900    2.8620    0.0870   86.4800   74.8160 
3034.0000   75.2840   75.2840   63.5150 -999.0000    0.2930    2.9130 -999.0000   11.7840 -999.0000   11.8760   12.0760   12.3390   85.6710    2.4880    0.0001    1.0000    0.6122    8.5000   85.6710   75.2840    0.0780    2.9130    2.4880   63.5150    0.2930    8.5000    0.2930    2.9130    0.0780   85.6710   75.2840 
3034.5000   74.6000   74.6000   63.1550 -999.0000    0.2930    2.8870 -999.0000   14.2400 -999.0000   14.3510   14.5950   14.9140   84.8330    2.4920    0.0001    1.0000    0.6000    8.5000   84.8330   74.6000    0.0840    2.8870    2.4920   63.1550    0.2930    8.5000    0.2930    2.8870    0.0840   84.8330   74.6000 
3035.0000   74.2970   74.2970   63.7610 -999.0000    0.2910    2.8200 -999.0000   15.1080 -999.0000   15.2260   15.4770   15.8080   84.5780    2.4840    0.0001    1.0000    0.5946    8.5000   84.5780   74.2970    0.0870    2.8200    2.4840   63.7610    0.2910    8.5000    0.2910    2.8200    0.0870   84.5780   74.2970 
3035.5000   76.1560   76.1560   64.4700 -999.0000    0.2930    2.7360 -999.0000   14.0040 -999.0000   14.1100   14.3380   14.6370   85.1330    2.4740    0.0001    1.0000    0.6004    8.5000   85.1330   76.1560    0.0820    2.7360    2.4740   64.4700    0.2930    8.5000    0.2930    2.7360    0.0820   85.1330   76.1560 
3036.0000   78.7750   78.7750   64.5800 -999.0000    0.3010    2.6850 -999.0000   13.4890 -999.0000   13.5900   13.8070   14.0910   86.1580    2.4600    0.0001    1.0000    0.6016    8.5000   86.1580   78.7750    0.0700    2.6850    2.4600   64.5800    0.3010    8.5000    0.3010    2.6850    0.0700   86.1580   78.7750 
3036.5000   80.9040   80.9040   64.5560 -999.0000    0.3150    2.6950 -999.0000   13.0880 -999.0000   13.1850   13.3860   13.6500   87.0210    2.4390    0.0001    1.0000    0.6088    8.5000   87.0210   80.9040    0.0620    2.6950    2.4390   64.5560    0.3150    8.5000    0.3150    2.6950    0.0620   87.0210   80.9040 
3037.0000   82.1720   82.1720   64.5020 -999.0000    0.3270    2.7180 -999.0000   12.6100 -999.0000   12.6990   12.8910   13.1410   87.6070    2.4270    0.0001    1.0000    0.6237    8.5000   87.6070   82.1720    0.0790    2.7180    2.4270   64.5020    0.3270    8.5000    0.3270    2.7180    0.0790   87.6070   82.1720 
3037.5000   82.1750   82.1750   64.6280 -999.0000    0.3350    2.7430 -999.0000   12.3830 -999.0000   12.4690   12.6510   12.8890   87.8670    2.4180    0.0001    1.0000    0.6322    8.5000   87.8670   82.1750    0.1080    2.7430    2.4180   64.6280    0.3350    8.5000    0.3350    2.7430    0.1080   87.8670   82.1750 
3038.0000   82.3220   82.3220   64.5630 -999.0000    0.3370    2.7280 -999.0000   12.3790 -999.0000   12.4610   12.6380   12.8670   87.5490    2.4160    0.0001    1.0000    0.6347    8.5000   87.5490   82.3220    0.1270    2.7280    2.4160   64.5630    0.3370    8.5000    0.3370    2.7280    0.1270   87.5490   82.3220 
3038.5000   83.1480   83.1480   64.6810 -999.0000    0.3350    2.7280 -999.0000   12.2530 -999.0000   12.3310   12.5030   12.7260   86.6840    2.4250    0.0001    1.0000    0.6425    8.5000   86.6840   83.1480    0.1200    2.7280    2.4250   64.6810    0.3350    8.5000    0.3350    2.7280    0.1200   86.6840   83.1480 
3039.0000   85.0000   85.0000   65.1090 -999.0000    0.3310    2.7810 -999.0000   13.0820 -999.0000   13.1630   13.3390   13.5670   85.8380    2.4380    0.0001    1.0000    0.6506    8.5000   85.8380   85.0000    0.0910    2.7810    2.4380   65.1090    0.3310    8.5000    0.3310    2.7810    0.0910   85.8380   85.0000 
3039.5000   87.9800   87.9800   65.4710 -999.0000    0.3260    2.8240 -999.0000   13.3880 -999.0000   13.4660   13.6450   13.8750   85.7550    2.4540    0.0001    1.0000    0.6605    8.5000   85.7550   87.9800    0.0670    2.8240    2.4540   65.4710    0.3260    8.5000    0.3260    2.8240    0.0670   85.7550   87.9800 
3040.0000   90.6440   90.6440   65.8710 -999.0000    0.3260    2.8580 -999.0000   12.6090 -999.0000   12.6810   12.8460   13.0590   86.7290    2.4560    0.0001    1.0000    0.6634    8.5000   86.7290   90.6440    0.0570    2.8580    2.4560   65.8710    0.3260    8.5000    0.3260    2.8580    0.0570   86.7290   90.6440 
3040.5000   91.3230   91.3230   65.7360 -999.0000    0.3300    2.8330 -999.0000   12.0380 -999.0000   12.1030   12.2590   12.4590   87.9570    2.4500    0.0001    1.0000    0.6654    8.5000   87.9570   91.3230    0.0620    2.8330    2.4500   65.7360    0.3300    8.5000    0.3300    2.8330    0.0620   87.9570   91.3230 
