~VERSION INFORMATION
 VERS.                 2.0:   CWLS LOG ASCII STANDARD - VERSION 2.0
 WRAP.                  NO:   SINGLE LINE PER DEPTH STEP
 CREA.                 9/4/2023 1:15:46 PM
#CREATED USING DSPetro VERSION 10ep.4.05.01 BY C4372838 ON 9/4/2023 1:15:46 PM
~WELL INFORMATION
#MNEM.UNIT       DATA                          DESCRIPTION MNEMONIC
#---------      ---------------------------   --------------------------
 STRT    .FT        2741.0000                 : START DEPTH
 STOP    .FT        3159.5000                 : STOP DEPTH
 STEP    .FT        0.5000                    : STEP VALUE
 NULL    .      -999.0000                     : NULL VALUE
 DATE    .      9/4/2023                      : LAS file Creation Date
 WELL   .      ABANICO-34              : Well Name
 COMP   .      PACIFIC RUBIALES ENERGY : Company
 FLD    .      ABANICO                 : Field
 STATE  .      UNKNOWN                 : State
 COUNT  .      COLOMBIA                : Country
 API    .      ABAN0034                : API Number
 UWI    .      ABAN0034                : Unique Well Identifier (UWI)
 LOC    .      N                       : Location
 EPDAT  .      1017.000                : Elevation of Permanent Datum
 GL     .      1017.000                : GL Elevation
 RWS    .      -999                    : Def_Rw
 WST    .      -999                    : Def_Rwt
 CNTY   .      TOLIMA                  : County
 PROV   .      UNKNOWN                 : Province
 SRVC   .      WEATHERFORD             : Contractor
 GDAT   .      WGS 84                  : Geodatum
 LONG   .      -74.873885111279        : Longitude
 LATI   .      4.22623405562507        : Latitude
 COORDIN.                              : Grid System
 XCOORD .      911584.313002           : X or East-West Coordinate
 YCOORD .      959134.088873           : Y or North-South Coordinate
~CURVE INFORMATION
#MNEM                 UNIT       API CODE   Curve Type Comments
#----------     --------------- ----------  ---------- -----------
 DEPTH         .FT                        : Depth       
 GRGC          .GAPI                      : GammaRay    Gamma Ray
 GRGC          .GAPI                      : GammaRay    Gamma Ray
 SP            .MV                        : SP          Spontaneous Potential
 K_CORE_2023   .                          :             
 NPRS          .V/V                       :             Sandstone Neutron Por.
 PDPE          .B/E                       : PEF         PE
 POR_CORE_2023 .                          :             
 R85O          .OHMM                      :             Array Ind One Res 85
 R60O          .OHMM                      :             Array Ind One Res 60
 R40O          .OHMM                      :             Array Ind One Res 40
 R30O          .OHMM                      :             Array Ind One Res 30
 R20O          .OHMM                      :             Array Ind One Res 20
 DT46          .US/F                      : Sonic       4-6' Compensated Sonic
 DEN           .G/C3                      : Density     Compensated Density
 PHIE          .Dec                       : Phi         
 SWT           .Dec                       : Sw          
 VCLmix        .Dec                       : Vcl         
 BS            .inches                    : BitSize     Bit size
 DTCO          .US/F                      : Sonic       4-6' Compensated Sonic
 GR            .GAPI                      : GammaRay    Gamma Ray
 HDRA          .G/C3                      : Drho        Density Correction
 PEFZ          .B/E                       : PEF         PE
 RHOZ          .G/C3                      : Density     Compensated Density
 SP            .MV                        : SP          Spontaneous Potential
 TNPH          .V/V                       : Neutron     Neutron Posrosity
 BS            .inches                    : BitSize     Bit size
 NPHI          .V/V                       : Neutron     Neutron Posrosity
 PEF           .B/E                       : PEF         PE
 DRHO          .G/C3                      : Drho        Density Correction
 DT            .US/F                      : Sonic       4-6' Compensated Sonic
 GR            .GAPI                      : GammaRay    Gamma Ray
~A  DEPTH    GRGC      GRGC       SP    K_CORE_2~    NPRS      PDPE   POR_CORE~    R85O      R60O      R40O      R30O      R20O      DT46      DEN       PHIE      SWT      VCLmix      BS       DTCO       GR       HDRA      PEFZ      RHOZ       SP       TNPH       BS       NPHI      PEF       DRHO       DT        GR    
# ...
2916.0000   61.6570   61.6570   -8.8350 -999.0000    0.3200    2.1490 -999.0000   47.9450 -999.0000   49.9270   52.3230   56.6180   85.7200    2.2290    0.2276    0.4596    0.2053    8.5000   85.7200   61.6570    0.0690    2.1490    2.2290   -8.8350    0.3200    8.5000    0.3200    2.1490    0.0690   85.7200   61.6570 
2916.5000   61.8590   61.8590   -7.2200 -999.0000    0.3200    2.1500 -999.0000   43.9450 -999.0000   45.8700   47.8530   51.4640   84.5600    2.2160    0.2326    0.4799    0.2077    8.5000   84.5600   61.8590    0.0840    2.1500    2.2160   -7.2200    0.3200    8.5000    0.3200    2.1500    0.0840   84.5600   61.8590 
2917.0000   62.0090   62.0090   -4.9850 -999.0000    0.3190    2.2110 -999.0000   40.7940 -999.0000   42.6850   44.3900   47.5260   84.6320    2.2020    0.2390    0.4952    0.2055    8.5000   84.6320   62.0090    0.0960    2.2110    2.2020   -4.9850    0.3190    8.5000    0.3190    2.2110    0.0960   84.6320   62.0090 
2917.5000   64.0790   64.0790   -2.0050 -999.0000    0.3180    2.2980 -999.0000   39.8290 -999.0000   41.7840   43.3650   46.2840   85.4030    2.1970    0.2430    0.5001    0.1980    8.5000   85.4030   64.0790    0.1000    2.2980    2.1970   -2.0050    0.3180    8.5000    0.3180    2.2980    0.1000   85.4030   64.0790 
2918.0000   69.4420   69.4420    2.5200  335.0000    0.3170    2.3730    0.2551   40.1730 -999.0000   42.2500   43.7440   46.5430   86.1530    2.2050    0.2374    0.5030    0.2047    8.5000   86.1530   69.4420    0.0960    2.3730    2.2050    2.5200    0.3170    8.5000    0.3170    2.3730    0.0960   86.1530   69.4420 
2918.5000   77.4380   77.4380    8.6570 -999.0000    0.3200    2.4500 -999.0000   34.2740 -999.0000   36.0980   37.3740   39.7250   86.5300    2.2180    0.2277    0.5619    0.2251    8.5000   86.5300   77.4380    0.0900    2.4500    2.2180    8.6570    0.3200    8.5000    0.3200    2.4500    0.0900   86.5300   77.4380 
2919.0000   92.1080   92.1080   16.8670 -999.0000    0.3280    2.6350 -999.0000   21.8980 -999.0000   23.0910   23.8990   25.3800   86.6770    2.2490    0.2044    0.7441    0.2754    8.5000   86.6770   92.1080    0.0880    2.6350    2.2490   16.8670    0.3280    8.5000    0.3280    2.6350    0.0880   86.6770   92.1080 
2919.5000  110.3820  110.3820   25.7190 -999.0000    0.3420    2.8600 -999.0000   10.8200 -999.0000   11.4090   11.8160   12.5480   86.7050    2.2960    0.1682    1.0000    0.3554    8.5000   86.7050  110.3820    0.0940    2.8600    2.2960   25.7190    0.3420    8.5000    0.3420    2.8600    0.0940   86.7050  110.3820 
2920.0000  125.1780  125.1780   32.1340 -999.0000    0.3610    3.0260 -999.0000    8.8130 -999.0000    9.2840    9.6370   10.2510   86.4660    2.3500    0.1226    1.0000    0.4534    8.5000   86.4660  125.1780    0.1100    3.0260    2.3500   32.1340    0.3610    8.5000    0.3610    3.0260    0.1100   86.4660  125.1780 
2920.5000  127.0830  127.0830   33.5940 -999.0000    0.3790    3.0260 -999.0000    8.5920 -999.0000    9.0390    9.3970   10.0070   85.9710    2.3730    0.1002    1.0000    0.5152    8.5000   85.9710  127.0830    0.1300    3.0260    2.3730   33.5940    0.3790    8.5000    0.3790    3.0260    0.1300   85.9710  127.0830 
2921.0000  112.8140  112.8140   28.7620 -999.0000    0.3880    2.8250 -999.0000   10.6430 -999.0000   11.1700   11.6550   12.4510   85.9070    2.3430    0.1202    1.0000    0.5006    8.5000   85.9070  112.8140    0.1470    2.8250    2.3430   28.7620    0.3880    8.5000    0.3880    2.8250    0.1470   85.9070  112.8140 
2921.5000   92.6160   92.6160   20.5040 -999.0000    0.3810    2.5720 -999.0000   27.7230 -999.0000   29.0260   30.3770   32.5460   87.0380    2.2830    0.1636    0.6613    0.4205    8.5000   87.0380   92.6160    0.1640    2.5720    2.2830   20.5040    0.3810    8.5000    0.3810    2.5720    0.1640   87.0380   92.6160 
2922.0000   73.8170   73.8170   11.7530 -999.0000    0.3630    2.3140 -999.0000   36.0480 -999.0000   37.6390   39.5070   42.4480   89.3980    2.2280    0.2079    0.5254    0.3235    8.5000   89.3980   73.8170    0.1800    2.3140    2.2280   11.7530    0.3630    8.5000    0.3630    2.3140    0.1800   89.3980   73.8170 
2922.5000   63.0480   63.0480    4.6750 -999.0000    0.3430    2.1490 -999.0000   32.6420 -999.0000   33.9900   35.8240   38.6520   92.3700    2.2050    0.2406    0.5569    0.2215    8.5000   92.3700   63.0480    0.1850    2.1490    2.2050    4.6750    0.3430    8.5000    0.3430    2.1490    0.1850   92.3700   63.0480 
2923.0000   59.3430   59.3430   -0.6340 -999.0000    0.3280    2.0970 -999.0000   29.9840 -999.0000   31.1380   32.9070   35.6070   94.8690    2.1960    0.2525    0.5817    0.1784    8.5000   94.8690   59.3430    0.1640    2.0970    2.1960   -0.6340    0.3280    8.5000    0.3280    2.0970    0.1640   94.8690   59.3430 
2923.5000   58.3860   58.3860   -4.6310 -999.0000    0.3200    2.1010 -999.0000   28.6400 -999.0000   29.6580   31.4430   34.1340   96.1130    2.1930    0.2547    0.5971    0.1673    8.5000   96.1130   58.3860    0.1290    2.1010    2.1930   -4.6310    0.3200    8.5000    0.3200    2.1010    0.1290   96.1130   58.3860 
2924.0000   61.1820   61.1820   -7.6610 -999.0000    0.3160    2.1350 -999.0000   29.2150 -999.0000   30.1860   32.0750   34.9030   96.3700    2.1980    0.2438    0.5988    0.1950    8.5000   96.3700   61.1820    0.1040    2.1350    2.1980   -7.6610    0.3160    8.5000    0.3160    2.1350    0.1040   96.3700   61.1820 
2924.5000   64.4450   64.4450   -9.8060 -999.0000    0.3140    2.1950 -999.0000   28.3960 -999.0000   29.2710   31.1340   33.9060   96.4880    2.2150    0.2321    0.6240    0.2096    8.5000   96.4880   64.4450    0.0940    2.1950    2.2150   -9.8060    0.3140    8.5000    0.3140    2.1950    0.0940   96.4880   64.4450 
2925.0000   65.1070   65.1070  -11.4950 -999.0000    0.3170    2.2280 -999.0000   26.7090 -999.0000   27.4720   29.2580   31.8850   97.0490    2.2320    0.2192    0.6598    0.2343    8.5000   97.0490   65.1070    0.0890    2.2280    2.2320  -11.4950    0.3170    8.5000    0.3170    2.2280    0.0890   97.0490   65.1070 
2925.5000   64.4550   64.4550  -12.7710 -999.0000    0.3240    2.1980 -999.0000   26.8570 -999.0000   27.5790   29.3330   31.8970   98.3260    2.2370    0.2181    0.6584    0.2378    8.5000   98.3260   64.4550    0.0850    2.1980    2.2370  -12.7710    0.3240    8.5000    0.3240    2.1980    0.0850   98.3260   64.4550 
2926.0000   62.8340   62.8340  -13.7860 -999.0000    0.3280    2.1340 -999.0000   27.1130 -999.0000   27.7840   29.5130   32.0120   99.9870    2.2320    0.2266    0.6467    0.2190    8.5000   99.9870   62.8340    0.0800    2.1340    2.2320  -13.7860    0.3280    8.5000    0.3280    2.1340    0.0800   99.9870   62.8340 
2926.5000   62.7650   62.7650  -14.5570  632.0000    0.3250    2.0810    0.2609   27.5260 -999.0000   28.1660   29.8620   32.2770  101.2990    2.2260    0.2284    0.6381    0.2182    8.5000  101.2990   62.7650    0.0770    2.0810    2.2260  -14.5570    0.3250    8.5000    0.3250    2.0810    0.0770  101.2990   62.7650 
2927.0000   63.1300   63.1300  -15.3150 -999.0000    0.3180    2.0580 -999.0000   33.4750 -999.0000   34.1960   36.1360   38.8730  102.2880    2.2210    0.2266    0.5728    0.2224    8.5000  102.2880   63.1300    0.0750    2.0580    2.2210  -15.3150    0.3180    8.5000    0.3180    2.0580    0.0750  102.2880   63.1300 
2927.5000   62.1620   62.1620  -16.2450 -999.0000    0.3130    2.0570 -999.0000   38.5180 -999.0000   39.2800   41.4310   44.4080  102.5370    2.2200    0.2283    0.5285    0.2112    8.5000  102.5370   62.1620    0.0770    2.0570    2.2200  -16.2450    0.3130    8.5000    0.3130    2.0570    0.0770  102.5370   62.1620 
2928.0000   61.6510   61.6510  -17.0750 -999.0000    0.3110    2.0580 -999.0000   38.2740 -999.0000   38.9830   40.9950   43.7490  102.0320    2.2170    0.2307    0.5295    0.2052    8.5000  102.0320   61.6510    0.0780    2.0580    2.2170  -17.0750    0.3110    8.5000    0.3110    2.0580    0.0780  102.0320   61.6510 
