~VERSION INFORMATION
 VERS.                 2.0:   CWLS LOG ASCII STANDARD - VERSION 2.0
 WRAP.                  NO:   SINGLE LINE PER DEPTH STEP
 CREA.                 9/4/2023 1:15:45 PM
#CREATED USING DSPetro VERSION 10ep.4.05.01 BY C4372838 ON 9/4/2023 1:15:45 PM
~WELL INFORMATION
#MNEM.UNIT       DATA                          DESCRIPTION MNEMONIC
#---------      ---------------------------   --------------------------
 STRT    .FT        2599.0000                 : START DEPTH
 STOP    .FT        3150.0000                 : STOP DEPTH
 STEP    .FT        0.5000                    : STEP VALUE
 NULL    .      -999.0000                     : NULL VALUE
 DATE    .      9/4/2023                      : LAS file Creation Date
 WELL   .      ABANICO-19                   : Well Name
 COMP   .      Kappa Resources Colombia,Ltd : Company
 FLD    .      UNKNOWN                      : Field
 STATE  .      UNKNOWN                      : State
 COUNT  .      Colombia                     : Country
 UWI    .      ABAN0019                     : Unique Well Identifier (UWI)
 LOC    .      UNKNOWN                      : Location
 PDAT   .      GROUND LEVEL                 : Permanent Datum
 EPDAT  .      1039.000000                  : Elevation of Permanent Datum
 LGMEA  .      DRILL FLOOR                  : Log Measured from
 APDAT  .      12.000000                    : Elevation Above Permanent Datum
 KB     .      1052.00000                   : KB Elevation
 DF     .      1051.00000                   : DF Elevation
 RWS    .      -999                         : Def_Rw
 WST    .      -999                         : Def_Rwt
 CNTY   .      UNKNOWN                      : County
 PROV   .      TOLIMA                       : Province
 SRVC   .      UNKNOWN                      : Contractor
 GDAT   .      WGS 84                       : Geodatum
 LONG   .      0.252833333280351            : Longitude
 LATI   .      0.26609722243415             : Latitude
 COORDIN.                                   : Grid System
 XCOORD .      910201.721945                : X or East-West Coordinate
 YCOORD .      958010.866493                : Y or North-South Coordinate
~CURVE INFORMATION
#MNEM                 UNIT       API CODE   Curve Type Comments
#----------     --------------- ----------  ---------- -----------
 DEPTH         .FT                        : Depth       
 GRGC          .API                       : GammaRay    GR:UNKNOWN:r1:0001:v1
 GRGC          .API                       : GammaRay    GR:UNKNOWN:r1:0001:v1
 HCGR          .GAPI                      :             HNGS Computed Gamma Ray {F13.2}
 SP            .MV                        : SP          Spontaneous Potential {F13.2}
 K_CORE_2023   .                          :             
 PDPE          .B/E                       : PEF         PEFZ:UNKNOWN:rC:NONE:v0 (auto-composite)
 POR_CORE_2023 .                          :             
 DEN           .g/cm3                     : Density     RHOZ:UNKNOWN:rC:NONE:v0 (auto-composite)
 PHIE          .Dec                       : Phi         
 SWT           .Dec                       : Sw          
 VCLmix        .Dec                       : Vcl         
 DCAL          .IN                        :             Differential Caliper {F13.2}
 AHT20         .OHMM                      : MedRes      Array Induction Two Foot Resistivity A20 {F13.2}
 AHT10         .OHMM                      : ShalRes     Array Induction Two Foot Resistivity A10 {F13.2}
 AHT30         .OHMM                      : MedRes      Array Induction Two Foot Resistivity A30 {F13.2}
 AHT60         .ohm.m                     : MedRes      AHT60:UNKNOWN:rC:NONE:v0 (auto-composite)
 AHT90         .ohm.m                     : DeepRes     AHT90:UNKNOWN:rC:NONE:v0 (auto-composite)
 BS            .IN                        : BitSize     Bit Size {F13.2}
 DTCO          .us/ft                     : Sonic       DTCO:UNKNOWN:rC:NONE:v0 (auto-composite)
 GR            .API                       : GammaRay    GR:UNKNOWN:rC:NONE:v0 (auto-composite)
 HCAL          .inch                      : Caliper     HCAL:UNKNOWN:rC:NONE:v0 (auto-composite)
 HDRA          .G/C3                      : Drho        HRDD Density Correction {F13.2}
 HTHO          .PPM                       :             HNGS Formation Thorium Concentration {F13.2}
 HTPR          .                          :             HNGS Thorium/Potassium Ratio {F13.2}
 HTUR          .                          :             HNGS Thorium/Uranium Ratio {F13.2}
 HUPR          .                          :             HNGS Uranium/Potassium Ratio {F13.2}
 HURA          .PPM                       :             HNGS Formation Uranium Concentration {F13.2}
 PEFZ          .B/E                       : PEF         PEFZ:UNKNOWN:rC:NONE:v0 (auto-composite)
 RHOZ          .g/cm3                     : Density     RHOZ:UNKNOWN:rC:NONE:v0 (auto-composite)
 RXOZ          .OHMM                      : MicroRes    MCFL Standard Resolution Invaded Zone Resistivity {F13.2}
 SP            .MV                        : SP          Spontaneous Potential {F13.2}
 TNPH          .dec                       : Neutron     TNPH:UNKNOWN:rC:NONE:v0 (auto-composite)
 CALI          .inch                      : Caliper     C1:UNKNOWN:rC:NONE:v0 (auto-composite)
 BS            .IN                        : BitSize     Bit Size {F13.2}
 HDRS          .ohm.m                     : DeepRes     Lateralog Deep Resistivity, ohmm
 NPHI          .dec                       : Neutron     TNPH:UNKNOWN:rC:NONE:v0 (auto-composite)
 PEF           .B/E                       : PEF         PEFZ:UNKNOWN:rC:NONE:v0 (auto-composite)
 CALI          .inch                      : Caliper     C1:UNKNOWN:rC:NONE:v0 (auto-composite)
 DRHO          .G/C3                      : Drho        HRDD Density Correction {F13.2}
 DT            .us/ft                     : Sonic       DTCO:UNKNOWN:rC:NONE:v0 (auto-composite)
 GR            .API                       : GammaRay    GR:UNKNOWN:r1:0001:v1
 HDRS          .ohm.m                     : DeepRes     Lateralog Deep Resistivity, ohmm
~A  DEPTH    GRGC      GRGC      HCGR       SP    K_CORE_2~    PDPE   POR_CORE~    DEN       PHIE      SWT      VCLmix     DCAL     AHT20     AHT10     AHT30     AHT60     AHT90       BS       DTCO       GR       HCAL      HDRA      HTHO      HTPR      HTUR      HUPR      HURA      PEFZ      RHOZ      RXOZ       SP       TNPH      CALI       BS       HDRS      NPHI      PEF       CALI      DRHO       DT        GR       HDRS   
# ...
2941.0000   53.2900   53.2900   32.8100   55.7500 -999.0000    1.9100 -999.0000    2.2600    0.2459    1.0000    0.0837   -0.2300    7.2600    4.1900   11.3000   20.8700   20.5900    8.5000  101.3429   53.2900    8.2741   -0.0100    6.2800    8.7400    3.8200    2.2800    1.6400    1.9100    2.2600    2.5100   55.7500    0.2600    8.3248    8.5000    1.9500    0.2600    1.9100    8.3248   -0.0100  101.3429   53.2900    1.9500 
2941.5000   55.4000   55.4000   34.0800   57.0600 -999.0000    1.9100 -999.0000    2.2600    0.2434    1.0000    0.0962   -0.2300    7.2000    4.1400   11.4300   20.4400   20.7600    8.5000   99.0685   55.4000    8.2665   -0.0100    6.6000    8.9900    3.7500    2.4000    1.7600    1.9100    2.2600    2.4000   57.0600    0.2600    8.3370    8.5000    1.9550    0.2600    1.9100    8.3370   -0.0100   99.0685   55.4000    1.9550 
2942.0000   61.0700   61.0700   33.0000   56.8800 -999.0000    1.9300 -999.0000    2.2500    0.2494    1.0000    0.0855   -0.2100    7.2000    4.0900   11.3100   20.4100   22.4300    8.5000   98.2025   61.0700    8.2895   -0.0100    6.5300    9.5000    3.5600    2.6600    1.8300    1.9300    2.2500    2.3600   56.8800    0.2600    8.3492    8.5000    1.9600    0.2600    1.9300    8.3492   -0.0100   98.2025   61.0700    1.9600 
2942.5000   65.1300   65.1300   36.1800   57.4400 -999.0000    1.9500 -999.0000    2.2500    0.2432    1.0000    0.1168   -0.2000    7.2200    4.0900   11.2800   20.5700   23.1900    8.5000   97.3172   65.1300    8.3010   -0.0100    7.3700   10.2800    3.6300    2.8400    2.0300    1.9500    2.2500    2.3300   57.4400    0.2600    8.3003    8.5000    1.6500    0.2600    1.9500    8.3003   -0.0100   97.3172   65.1300    1.6500 
2943.0000   67.3700   67.3700   35.4900   57.1900  431.0000    1.9400    0.2321    2.2500    0.2414    1.0000    0.1065   -0.2200    7.2200    4.0100   11.3300   21.0000   23.3400    8.5000   96.4550   67.3700    8.2780   -0.0100    7.3900   10.9100    3.1400    3.4700    2.3500    1.9400    2.2500    2.3900   57.1900    0.2500    8.3003    8.5000    1.3400    0.2500    1.9400    8.3003   -0.0100   96.4550   67.3700    1.3400 
2943.5000   68.2100   68.2100   37.9900   57.5000 -999.0000    1.9500 -999.0000    2.2600    0.2353    1.0000    0.0980   -0.2100    7.2500    3.9500   11.0900   20.2700   22.9100    8.5000   95.5556   68.2100    8.2895   -0.0100    8.0600   11.5400    3.1600    3.6600    2.5500    1.9500    2.2600    2.4500   57.5000    0.2400    8.3003    8.5000    1.1300    0.2400    1.9500    8.3003   -0.0100   95.5556   68.2100    1.1300 
2944.0000   70.2000   70.2000   38.9600   57.7500 -999.0000    1.9600 -999.0000    2.2700    0.2296    1.0000    0.1263   -0.2000    7.4900    3.9800   11.2900   20.4800   22.2500    8.5000   94.9479   70.2000    8.3010   -0.0100    8.3900   12.0800    3.4700    3.4800    2.4200    1.9600    2.2700    2.6200   57.7500    0.2500    8.3003    8.5000    0.9200    0.2500    1.9600    8.3003   -0.0100   94.9479   70.2000    0.9200 
2944.5000   69.0100   69.0100   41.1500   57.9400 -999.0000    1.9600 -999.0000    2.2800    0.2237    1.0000    0.1362   -0.2100    7.8300    4.1000   11.7900   21.7100   22.7100    8.5000   94.1249   69.0100    8.2895   -0.0100    8.6400   11.2000    3.6800    3.0400    2.3500    1.9600    2.2800    2.8300   57.9400    0.2500    8.3003    8.5000    0.8650    0.2500    1.9600    8.3003   -0.0100   94.1249   69.0100    0.8650 
2945.0000   67.2900   67.2900   41.2100   57.8100 -999.0000    1.9500 -999.0000    2.3000    0.2118    1.0000    0.1560   -0.2000    8.2100    4.1700   12.2700   22.2800   22.1600    8.5000   93.7915   67.2900    8.3010   -0.0100    8.9400   12.3500    4.3700    2.8300    2.0500    1.9500    2.3000    3.1300   57.8100    0.2500    8.3003    8.5000    0.8100    0.2500    1.9500    8.3003   -0.0100   93.7915   67.2900    0.8100 
2945.5000   61.6600   61.6600   38.0500   58.3100 -999.0000    1.9500 -999.0000    2.3100    0.2122    1.0000    0.1352   -0.2000    8.5900    4.2700   13.2300   24.3400   23.2100    8.5000   93.5745   61.6600    8.2971   -0.0100    8.4200   13.1300    4.0600    3.2400    2.0700    1.9500    2.3100    3.4900   58.3100    0.2500    8.3003    8.5000    0.8950    0.2500    1.9500    8.3003   -0.0100   93.5745   61.6600    0.8950 
2946.0000   60.4700   60.4700   34.3800   58.8800 -999.0000    1.9700 -999.0000    2.3100    0.2199    1.0000    0.0991   -0.2000    8.5200    4.2600   13.1300   23.8600   22.1800    8.5000   94.0007   60.4700    8.3010   -0.0100    7.5600   12.8700    3.9000    3.3000    1.9400    1.9700    2.3100    3.9600   58.8800    0.2500    8.3003    8.5000    0.9800    0.2500    1.9700    8.3003   -0.0100   94.0007   60.4700    0.9800 
2946.5000   59.7300   59.7300   33.0100   58.6900 -999.0000    1.9700 -999.0000    2.3000    0.2265    1.0000    0.0856   -0.2100    7.6500    4.0600   11.3300   20.4100   19.9600    8.5000   93.8759   59.7300    8.2895   -0.0100    7.4400   13.9600    3.8500    3.6200    1.9300    1.9700    2.3000    3.4800   58.6900    0.2500    8.3003    8.5000    1.0250    0.2500    1.9700    8.3003   -0.0100   93.8759   59.7300    1.0250 
2947.0000   63.2900   63.2900   33.0600   58.8800 -999.0000    1.9600 -999.0000    2.2900    0.2302    1.0000    0.0861   -0.2000    7.2800    3.9600   10.5800   19.1100   18.2600    8.5000   93.8221   63.2900    8.2971   -0.0100    7.3800   13.5100    3.9200    3.4400    1.8800    1.9600    2.2900    3.1900   58.8800    0.2500    8.3003    8.5000    1.0700    0.2500    1.9600    8.3003   -0.0100   93.8221   63.2900    1.0700 
2947.5000   61.4300   61.4300   33.1800   58.6900 -999.0000    1.9300 -999.0000    2.2900    0.2299    1.0000    0.0873   -0.1900    7.4800    4.0600   11.2000   20.4400   20.1100    8.5000   93.8037   61.4300    8.3125   -0.0100    7.2300   12.5200    3.7400    3.3500    1.9400    1.9300    2.2900    2.9200   58.6900    0.2500    8.3003    8.5000    1.1150    0.2500    1.9300    8.3003   -0.0100   93.8037   61.4300    1.1150 
2948.0000   62.5500   62.5500   33.7600   59.1300 -999.0000    1.9100 -999.0000    2.2900    0.2287    1.0000    0.0930   -0.2100    7.6200    4.1100   11.4500   20.8700   20.7700    8.5000   93.9919   62.5500    8.2895   -0.0100    7.1700   11.5700    3.5900    3.2200    2.0000    1.9100    2.2900    2.8400   59.1300    0.2500    8.3003    8.5000    1.1600    0.2500    1.9100    8.3003   -0.0100   93.9919   62.5500    1.1600 
2948.5000   58.6900   58.6900   35.0000   59.1900 -999.0000    1.9100 -999.0000    2.2800    0.2339    1.0000    0.1052   -0.1900    7.2200    4.0400   10.8200   19.8200   19.9100    8.5000   94.1225   58.6900    8.3125   -0.0100    7.5400   12.0900    3.8200    3.1700    1.9800    1.9100    2.2800    2.5300   59.1900    0.2600    8.3003    8.5000    1.2200    0.2600    1.9100    8.3003   -0.0100   94.1225   58.6900    1.2200 
2949.0000   58.8400   58.8400   35.1200   59.1300 -999.0000    1.9100 -999.0000    2.2700    0.2412    1.0000    0.1064   -0.1900    6.9200    3.9800   10.0800   18.3400   18.5700    8.5000   94.3035   58.8400    8.3125   -0.0100    7.5000   11.7600    4.1800    2.8100    1.8000    1.9100    2.2700    2.4100   59.1300    0.2700    8.3003    8.5000    1.2800    0.2700    1.9100    8.3003   -0.0100   94.3035   58.8400    1.2800 
2949.5000   59.2000   59.2000   34.9200   59.0000 -999.0000    1.9100 -999.0000    2.2700    0.2416    1.0000    0.1044   -0.2000    6.9400    3.9700   10.0000   17.8300   17.9300    8.5000   94.0669   59.2000    8.2971   -0.0100    7.4500   11.7200    4.1200    2.8400    1.8100    1.9100    2.2700    2.4300   59.0000    0.2700    8.3003    8.5000    1.4250    0.2700    1.9100    8.3003   -0.0100   94.0669   59.2000    1.4250 
2950.0000   59.4600   59.4600   33.1100   58.5600 -999.0000    1.8900 -999.0000    2.2800    0.2414    1.0000    0.0866   -0.2000    7.4900    4.0300   10.8800   19.4000   19.7500    8.5000   93.8818   59.4600    8.3010   -0.0100    7.1600   12.2400    3.5300    3.4600    2.0300    1.8900    2.2800    2.4900   58.5600    0.2700    8.3003    8.5000    1.5700    0.2700    1.8900    8.3003   -0.0100   93.8818   59.4600    1.5700 
