~VERSION INFORMATION
 VERS.                 2.0:   CWLS LOG ASCII STANDARD - VERSION 2.0
 WRAP.                  NO:   SINGLE LINE PER DEPTH STEP
 CREA.                 9/4/2023 1:15:45 PM
#CREATED USING DSPetro VERSION 10ep.4.05.01 BY C4372838 ON 9/4/2023 1:15:45 PM
~WELL INFORMATION
#MNEM.UNIT       DATA                          DESCRIPTION MNEMONIC
#---------      ---------------------------   --------------------------
 STRT    .FT        2599.0000                 : START DEPTH
 STOP    .FT        3150.0000                 : STOP DEPTH
 STEP    .FT        0.5000                    : STEP VALUE
 NULL    .      -999.0000                     : NULL VALUE
 DATE    .      9/4/2023                      : LAS file Creation Date
 WELL   .      ABANICO-19                   : Well Name
 COMP   .      Kappa Resources Colombia,Ltd : Company
 FLD    .      UNKNOWN                      : Field
 STATE  .      UNKNOWN                      : State
 COUNT  .      Colombia                     : Country
 UWI    .      ABAN0019                     : Unique Well Identifier (UWI)
 LOC    .      UNKNOWN                      : Location
 PDAT   .      GROUND LEVEL                 : Permanent Datum
 EPDAT  .      1039.000000                  : Elevation of Permanent Datum
 LGMEA  .      DRILL FLOOR                  : Log Measured from
 APDAT  .      12.000000                    : Elevation Above Permanent Datum
 KB     .      1052.00000                   : KB Elevation
 DF     .      1051.00000                   : DF Elevation
 RWS    .      -999                         : Def_Rw
 WST    .      -999                         : Def_Rwt
 CNTY   .      UNKNOWN                      : County
 PROV   .      TOLIMA                       : Province
 SRVC   .      UNKNOWN                      : Contractor
 GDAT   .      WGS 84                       : Geodatum
 LONG   .      0.252833333280351            : Longitude
 LATI   .      0.26609722243415             : Latitude
 COORDIN.                                   : Grid System
 XCOORD .      910201.721945                : X or East-West Coordinate
 YCOORD .      958010.866493                : Y or North-South Coordinate
~CURVE INFORMATION
#MNEM                 UNIT       API CODE   Curve Type Comments
#----------     --------------- ----------  ---------- -----------
 DEPTH         .FT                        : Depth       
 GRGC          .API                       : GammaRay    GR:UNKNOWN:r1:0001:v1
 GRGC          .API                       : GammaRay    GR:UNKNOWN:r1:0001:v1
 HCGR          .GAPI                      :             HNGS Computed Gamma Ray {F13.2}
 SP            .MV                        : SP          Spontaneous Potential {F13.2}
 K_CORE_2023   .                          :             
 PDPE          .B/E                       : PEF         PEFZ:UNKNOWN:rC:NONE:v0 (auto-composite)
 POR_CORE_2023 .                          :             
 DEN           .g/cm3                     : Density     RHOZ:UNKNOWN:rC:NONE:v0 (auto-composite)
 PHIE          .Dec                       : Phi         
 SWT           .Dec                       : Sw          
 VCLmix        .Dec                       : Vcl         
 DCAL          .IN                        :             Differential Caliper {F13.2}
 AHT20         .OHMM                      : MedRes      Array Induction Two Foot Resistivity A20 {F13.2}
 AHT10         .OHMM                      : ShalRes     Array Induction Two Foot Resistivity A10 {F13.2}
 AHT30         .OHMM                      : MedRes      Array Induction Two Foot Resistivity A30 {F13.2}
 AHT60         .ohm.m                     : MedRes      AHT60:UNKNOWN:rC:NONE:v0 (auto-composite)
 AHT90         .ohm.m                     : DeepRes     AHT90:UNKNOWN:rC:NONE:v0 (auto-composite)
 BS            .IN                        : BitSize     Bit Size {F13.2}
 DTCO          .us/ft                     : Sonic       DTCO:UNKNOWN:rC:NONE:v0 (auto-composite)
 GR            .API                       : GammaRay    GR:UNKNOWN:rC:NONE:v0 (auto-composite)
 HCAL          .inch                      : Caliper     HCAL:UNKNOWN:rC:NONE:v0 (auto-composite)
 HDRA          .G/C3                      : Drho        HRDD Density Correction {F13.2}
 HTHO          .PPM                       :             HNGS Formation Thorium Concentration {F13.2}
 HTPR          .                          :             HNGS Thorium/Potassium Ratio {F13.2}
 HTUR          .                          :             HNGS Thorium/Uranium Ratio {F13.2}
 HUPR          .                          :             HNGS Uranium/Potassium Ratio {F13.2}
 HURA          .PPM                       :             HNGS Formation Uranium Concentration {F13.2}
 PEFZ          .B/E                       : PEF         PEFZ:UNKNOWN:rC:NONE:v0 (auto-composite)
 RHOZ          .g/cm3                     : Density     RHOZ:UNKNOWN:rC:NONE:v0 (auto-composite)
 RXOZ          .OHMM                      : MicroRes    MCFL Standard Resolution Invaded Zone Resistivity {F13.2}
 SP            .MV                        : SP          Spontaneous Potential {F13.2}
 TNPH          .dec                       : Neutron     TNPH:UNKNOWN:rC:NONE:v0 (auto-composite)
 CALI          .inch                      : Caliper     C1:UNKNOWN:rC:NONE:v0 (auto-composite)
 BS            .IN                        : BitSize     Bit Size {F13.2}
 HDRS          .ohm.m                     : DeepRes     Lateralog Deep Resistivity, ohmm
 NPHI          .dec                       : Neutron     TNPH:UNKNOWN:rC:NONE:v0 (auto-composite)
 PEF           .B/E                       : PEF         PEFZ:UNKNOWN:rC:NONE:v0 (auto-composite)
 CALI          .inch                      : Caliper     C1:UNKNOWN:rC:NONE:v0 (auto-composite)
 DRHO          .G/C3                      : Drho        HRDD Density Correction {F13.2}
 DT            .us/ft                     : Sonic       DTCO:UNKNOWN:rC:NONE:v0 (auto-composite)
 GR            .API                       : GammaRay    GR:UNKNOWN:r1:0001:v1
 HDRS          .ohm.m                     : DeepRes     Lateralog Deep Resistivity, ohmm
~A  DEPTH    GRGC      GRGC      HCGR       SP    K_CORE_2~    PDPE   POR_CORE~    DEN       PHIE      SWT      VCLmix     DCAL     AHT20     AHT10     AHT30     AHT60     AHT90       BS       DTCO       GR       HCAL      HDRA      HTHO      HTPR      HTUR      HUPR      HURA      PEFZ      RHOZ      RXOZ       SP       TNPH      CALI       BS       HDRS      NPHI      PEF       CALI      DRHO       DT        GR       HDRS   
# ...
2836.5000   61.3000   61.3000   40.9400   57.6300 -999.0000    1.8400 -999.0000    2.1700    0.2880    1.0000    0.1621   -0.1600    6.7900    4.2000    9.2700   15.3500   17.6200    8.5000  111.2787   61.3000    8.3355   -0.0100    7.8200    8.6700    5.6400    1.5400    1.3900    1.8400    2.1700    2.1800   57.6300    0.3200    8.3003    8.5000    2.1050    0.3200    1.8400    8.3003   -0.0100  111.2787   61.3000    2.1050 
2837.0000   53.1500   53.1500   35.9100   57.5600 -999.0000    1.8500 -999.0000    2.1700    0.2880    1.0000    0.1239   -0.1600    6.6500    4.1300    8.8400   13.9900   16.8600    8.5000  112.2536   53.1500    8.3355   -0.0100    6.9000    8.8100    5.9800    1.4700    1.1500    1.8500    2.1700    2.1400   57.5600    0.3000    8.3003    8.5000    2.0000    0.3000    1.8500    8.3003   -0.0100  112.2536   53.1500    2.0000 
2837.5000   52.1700   52.1700   32.0500   57.6300 -999.0000    1.8600 -999.0000    2.1800    0.2820    1.0000    0.1342   -0.1600    7.2800    4.3800    9.8300   15.2400   19.8600    8.5000  112.6365   52.1700    8.3355   -0.0100    6.1400    8.7400    4.4300    1.9700    1.3900    1.8600    2.1800    2.3700   57.6300    0.3000    8.3003    8.5000    1.9550    0.3000    1.8600    8.3003   -0.0100  112.6365   52.1700    1.9550 
2838.0000   47.9800   47.9800   30.2200   57.8800 -999.0000    1.8700 -999.0000    2.2000    0.2755    1.0000    0.1247   -0.1600    8.3800    4.7300   11.6400   17.5600   22.3600    8.5000  112.8616   47.9800    8.3355   -0.0100    5.7200    8.5000    4.8500    1.7500    1.1800    1.8700    2.2000    3.0000   57.8800    0.3000    8.3003    8.5000    1.9100    0.3000    1.8700    8.3003   -0.0100  112.8616   47.9800    1.9100 
2838.5000   45.1700   45.1700   29.8500   57.5000 -999.0000    1.8900 -999.0000    2.2000    0.2796    1.0000    0.1212   -0.1600    9.1400    4.8700   12.3000   18.0300   22.5400    8.5000  111.9959   45.1700    8.3355   -0.0100    5.7200    8.7500    5.6400    1.5500    1.0100    1.8900    2.2000    4.1100   57.5000    0.3100    8.3003    8.5000    1.9500    0.3100    1.8900    8.3003   -0.0100  111.9959   45.1700    1.9500 
2839.0000   45.1700   45.1700   32.0300   57.4400 -999.0000    1.8900 -999.0000    2.2100    0.2683    1.0000    0.1418   -0.1800    9.5800    4.9900   12.5400   19.1500   21.0300    8.5000  109.8010   45.1700    8.3240   -0.0100    6.1400    8.7700    7.2200    1.2200    0.8500    1.8900    2.2100    4.8600   57.4400    0.3000    8.3003    8.5000    1.9900    0.3000    1.8900    8.3003   -0.0100  109.8010   45.1700    1.9900 
2839.5000   50.5700   50.5700   35.0800   57.6300 -999.0000    1.8900 -999.0000    2.2300    0.2548    1.0000    0.1706   -0.1700   10.1100    5.1100   13.2200   20.2300   20.3400    8.5000  109.0966   50.5700    8.3278   -0.0100    6.5100    8.0900    5.5200    1.4600    1.1800    1.8900    2.2300    4.9000   57.6300    0.3000    8.3003    8.5000    2.1150    0.3000    1.8900    8.3003   -0.0100  109.0966   50.5700    2.1150 
2840.0000   53.5300   53.5300   37.6900   57.8100 -999.0000    1.8900 -999.0000    2.2500    0.2400    1.0000    0.1682   -0.1900   11.2000    5.4400   14.8200   22.2900   19.5700    8.5000  108.1884   53.5300    8.3125    0.0000    7.0600    8.2800    4.7200    1.7500    1.4900    1.8900    2.2500    5.0300   57.8100    0.2800    8.3003    8.5000    2.2400    0.2800    1.8900    8.3003    0.0000  108.1884   53.5300    2.2400 
2840.5000   58.3100   58.3100   39.1000   58.1300 -999.0000    1.8900 -999.0000    2.2500    0.2399    1.0000    0.1873   -0.1900   12.5700    5.7600   17.4300   27.3700   20.5700    8.5000  106.6961   58.3100    8.3125    0.0000    7.2400    8.0500    4.8300    1.6700    1.5000    1.8900    2.2500    5.0000   58.1300    0.2900    8.3003    8.5000    2.3800    0.2900    1.8900    8.3003    0.0000  106.6961   58.3100    2.3800 
2841.0000   53.5400   53.5400   38.2000   58.1300 -999.0000    1.9000 -999.0000    2.2400    0.2460    1.0000    0.1770   -0.2100   11.5300    5.6500   16.0500   26.4100   19.3200    8.5000  104.4127   53.5400    8.2895    0.0000    7.1700    8.3200    5.1400    1.6200    1.4000    1.9000    2.2400    4.5700   58.1300    0.2900    8.3003    8.5000    2.5200    0.2900    1.9000    8.3003    0.0000  104.4127   53.5400    2.5200 
2841.5000   56.1700   56.1700   34.6600   58.1300 -999.0000    1.9000 -999.0000    2.2300    0.2555    1.0000    0.1666   -0.2300   10.3900    5.4500   14.9700   24.7600   18.9200    8.5000  100.8387   56.1700    8.2665   -0.0100    6.3700    7.9100    3.8400    2.0600    1.6600    1.9000    2.2300    3.8800   58.1300    0.3000    8.3003    8.5000    2.5000    0.3000    1.9000    8.3003   -0.0100  100.8387   56.1700    2.5000 
2842.0000   52.3500   52.3500   33.9400   58.1300 -999.0000    1.9000 -999.0000    2.2200    0.2609    1.0000    0.1598   -0.2100    9.7300    5.3300   14.0700   23.4800   18.5000    8.5000  100.0944   52.3500    8.2895   -0.0100    6.4200    8.4600    3.7400    2.2600    1.7100    1.9000    2.2200    3.7700   58.1300    0.3000    8.3003    8.5000    2.4800    0.3000    1.9000    8.3003   -0.0100  100.0944   52.3500    2.4800 
2842.5000   55.6900   55.6900   30.3700   58.1300 -999.0000    1.8900 -999.0000    2.2200    0.2672    1.0000    0.1261   -0.2100    9.3000    5.2500   13.3600   21.6300   18.6400    8.5000   99.5225   55.6900    8.2895   -0.0100    5.9100    9.0900    3.2500    2.8000    1.8200    1.8900    2.2200    3.5900   58.1300    0.3000    8.3003    8.5000    2.2500    0.3000    1.8900    8.3003   -0.0100   99.5225   55.6900    2.2500 
2843.0000   58.2400   58.2400   32.5300   58.1300 -999.0000    1.9000 -999.0000    2.2200    0.2599    1.0000    0.1465   -0.2100    8.7500    5.0800   12.7800   20.6500   18.5300    8.5000   99.0876   58.2400    8.2895   -0.0100    6.3400    9.1200    3.5200    2.5900    1.8000    1.9000    2.2200    3.5500   58.1300    0.2900    8.3003    8.5000    2.0200    0.2900    1.9000    8.3003   -0.0100   99.0876   58.2400    2.0200 
2843.5000   60.3300   60.3300   32.5400   58.2500 -999.0000    1.9200 -999.0000    2.2300    0.2558    1.0000    0.1466   -0.2100    8.2000    4.8800   11.5400   18.1200   18.2200    8.5000   98.9537   60.3300    8.2895   -0.0100    6.3100    9.0000    3.2000    2.8100    1.9700    1.9200    2.2300    3.4500   58.2500    0.2900    8.3003    8.5000    1.9300    0.2900    1.9200    8.3003   -0.0100   98.9537   60.3300    1.9300 
2844.0000   61.1200   61.1200   32.5300   58.1900 -999.0000    1.9300 -999.0000    2.2300    0.2558    1.0000    0.1465   -0.2100    8.0400    4.8000   11.0300   17.0700   18.7100    8.5000   99.1759   61.1200    8.2895   -0.0100    6.4100    9.4100    2.7500    3.4300    2.3400    1.9300    2.2300    3.3800   58.1900    0.2900    8.3003    8.5000    1.8400    0.2900    1.9300    8.3003   -0.0100   99.1759   61.1200    1.8400 
2844.5000   57.6700   57.6700   30.2300   57.9400 -999.0000    1.9000 -999.0000    2.2400    0.2559    1.0000    0.1248   -0.2100    8.3500    4.8800   11.5000   18.0200   20.2600    8.5000   98.7575   57.6700    8.2895   -0.0100    5.9300    9.3000    2.6100    3.5600    2.2700    1.9000    2.2400    3.1700   57.9400    0.2900    8.3003    8.5000    1.8000    0.2900    1.9000    8.3003   -0.0100   98.7575   57.6700    1.8000 
2845.0000   55.8300   55.8300   31.1600   57.9400 -999.0000    1.9000 -999.0000    2.2300    0.2548    1.0000    0.1336   -0.2200    8.8300    4.9900   12.4800   20.0900   22.1100    8.5000   97.9639   55.8300    8.2818   -0.0100    6.1100    9.2800    3.3700    2.7600    1.8200    1.9000    2.2300    3.0100   57.9400    0.2800    8.3003    8.5000    1.7600    0.2800    1.9000    8.3003   -0.0100   97.9639   55.8300    1.7600 
2845.5000   58.7300   58.7300   32.3800   57.9400 -999.0000    1.9200 -999.0000    2.2300    0.2521    1.0000    0.1284   -0.2100    8.9500    5.0400   12.4800   20.3600   22.1000    8.5000   97.8238   58.7300    8.2895   -0.0100    6.2600    8.9300    3.5100    2.5500    1.7800    1.9200    2.2300    3.1500   57.9400    0.2700    8.3003    8.5000    1.8350    0.2700    1.9200    8.3003   -0.0100   97.8238   58.7300    1.8350 
