~VERSION INFORMATION
 VERS.                 2.0:   CWLS LOG ASCII STANDARD - VERSION 2.0
 WRAP.                  NO:   SINGLE LINE PER DEPTH STEP
 CREA.                 9/4/2023 1:15:46 PM
#CREATED USING DSPetro VERSION 10ep.4.05.01 BY C4372838 ON 9/4/2023 1:15:46 PM
~WELL INFORMATION
#MNEM.UNIT       DATA                          DESCRIPTION MNEMONIC
#---------      ---------------------------   --------------------------
 STRT    .FT        2741.0000                 : START DEPTH
 STOP    .FT        3159.5000                 : STOP DEPTH
 STEP    .FT        0.5000                    : STEP VALUE
 NULL    .      -999.0000                     : NULL VALUE
 DATE    .      9/4/2023                      : LAS file Creation Date
 WELL   .      ABANICO-34              : Well Name
 COMP   .      PACIFIC RUBIALES ENERGY : Company
 FLD    .      ABANICO                 : Field
 STATE  .      UNKNOWN                 : State
 COUNT  .      COLOMBIA                : Country
 API    .      ABAN0034                : API Number
 UWI    .      ABAN0034                : Unique Well Identifier (UWI)
 LOC    .      N                       : Location
 EPDAT  .      1017.000                : Elevation of Permanent Datum
 GL     .      1017.000                : GL Elevation
 RWS    .      -999                    : Def_Rw
 WST    .      -999                    : Def_Rwt
 CNTY   .      TOLIMA                  : County
 PROV   .      UNKNOWN                 : Province
 SRVC   .      WEATHERFORD             : Contractor
 GDAT   .      WGS 84                  : Geodatum
 LONG   .      -74.873885111279        : Longitude
 LATI   .      4.22623405562507        : Latitude
 COORDIN.                              : Grid System
 XCOORD .      911584.313002           : X or East-West Coordinate
 YCOORD .      959134.088873           : Y or North-South Coordinate
~CURVE INFORMATION
#MNEM                 UNIT       API CODE   Curve Type Comments
#----------     --------------- ----------  ---------- -----------
 DEPTH         .FT                        : Depth       
 GRGC          .GAPI                      : GammaRay    Gamma Ray
 GRGC          .GAPI                      : GammaRay    Gamma Ray
 SP            .MV                        : SP          Spontaneous Potential
 K_CORE_2023   .                          :             
 NPRS          .V/V                       :             Sandstone Neutron Por.
 PDPE          .B/E                       : PEF         PE
 POR_CORE_2023 .                          :             
 R85O          .OHMM                      :             Array Ind One Res 85
 R60O          .OHMM                      :             Array Ind One Res 60
 R40O          .OHMM                      :             Array Ind One Res 40
 R30O          .OHMM                      :             Array Ind One Res 30
 R20O          .OHMM                      :             Array Ind One Res 20
 DT46          .US/F                      : Sonic       4-6' Compensated Sonic
 DEN           .G/C3                      : Density     Compensated Density
 PHIE          .Dec                       : Phi         
 SWT           .Dec                       : Sw          
 VCLmix        .Dec                       : Vcl         
 BS            .inches                    : BitSize     Bit size
 DTCO          .US/F                      : Sonic       4-6' Compensated Sonic
 GR            .GAPI                      : GammaRay    Gamma Ray
 HDRA          .G/C3                      : Drho        Density Correction
 PEFZ          .B/E                       : PEF         PE
 RHOZ          .G/C3                      : Density     Compensated Density
 SP            .MV                        : SP          Spontaneous Potential
 TNPH          .V/V                       : Neutron     Neutron Posrosity
 BS            .inches                    : BitSize     Bit size
 NPHI          .V/V                       : Neutron     Neutron Posrosity
 PEF           .B/E                       : PEF         PE
 DRHO          .G/C3                      : Drho        Density Correction
 DT            .US/F                      : Sonic       4-6' Compensated Sonic
 GR            .GAPI                      : GammaRay    Gamma Ray
~A  DEPTH    GRGC      GRGC       SP    K_CORE_2~    NPRS      PDPE   POR_CORE~    R85O      R60O      R40O      R30O      R20O      DT46      DEN       PHIE      SWT      VCLmix      BS       DTCO       GR       HDRA      PEFZ      RHOZ       SP       TNPH       BS       NPHI      PEF       DRHO       DT        GR    
# ...
2841.0000   52.9010   52.9010   -3.5270 -999.0000    0.2960    2.1150 -999.0000   14.5470 -999.0000   15.9030   17.4100   19.9820  118.0140    2.2920    0.1853    0.9880    0.2541    8.5000  118.0140   52.9010    0.0840    2.1150    2.2920   -3.5270    0.2960    8.5000    0.2960    2.1150    0.0840  118.0140   52.9010 
2841.5000   55.3290   55.3290   -2.6400 -999.0000    0.2910    2.0780 -999.0000   15.9490 -999.0000   17.4610   19.1430   22.0310  123.9950    2.2880    0.1871    0.9457    0.2469    8.5000  123.9950   55.3290    0.0760    2.0780    2.2880   -2.6400    0.2910    8.5000    0.2910    2.0780    0.0760  123.9950   55.3290 
2842.0000   57.0080   57.0080   -1.1930 -999.0000    0.2840    2.0700 -999.0000   17.0700 -999.0000   18.7120   20.5470   23.7170  131.2520    2.2850    0.1910    0.9171    0.2291    8.5000  131.2520   57.0080    0.0750    2.0700    2.2850   -1.1930    0.2840    8.5000    0.2840    2.0700    0.0750  131.2520   57.0080 
2842.5000   56.4790   56.4790    0.8190 -999.0000    0.2770    2.1180 -999.0000   17.8160 -999.0000   19.5430   21.4810   24.8400  139.9840    2.2840    0.1935    0.9027    0.2135    8.5000  139.9840   56.4790    0.0760    2.1180    2.2840    0.8190    0.2770    8.5000    0.2770    2.1180    0.0760  139.9840   56.4790 
2843.0000   57.6120   57.6120    3.3700 -999.0000    0.2700    2.1770 -999.0000   17.5400 -999.0000   19.2450   21.1770   24.5400  150.0790    2.2840    0.1955    0.9153    0.1991    8.5000  150.0790   57.6120    0.0760    2.1770    2.2840    3.3700    0.2700    8.5000    0.2700    2.1770    0.0760  150.0790   57.6120 
2843.5000   62.8390   62.8390    7.0420 -999.0000    0.2650    2.2380 -999.0000   15.6370 -999.0000   17.1510   18.8920   21.9310  160.6420    2.2920    0.1916    0.9843    0.1977    8.5000  160.6420   62.8390    0.0800    2.2380    2.2920    7.0420    0.2650    8.5000    0.2650    2.2380    0.0800  160.6420   62.8390 
2844.0000   70.8840   70.8840   11.5030 -999.0000    0.2630    2.2710 -999.0000   11.9060 -999.0000   13.0450   14.3770   16.7090  167.8580    2.3050    0.1825    1.0000    0.2080    8.5000  167.8580   70.8840    0.0850    2.2710    2.3050   11.5030    0.2630    8.5000    0.2630    2.2710    0.0850  167.8580   70.8840 
2844.5000   76.9650   76.9650   16.2160   25.8000    0.2670    2.2840    0.2009    8.9430 -999.0000    9.7820   10.7910   12.5600  167.3870    2.3160    0.1732    1.0000    0.2286    8.5000  167.3870   76.9650    0.0880    2.2840    2.3160   16.2160    0.2670    8.5000    0.2670    2.2840    0.0880  167.3870   76.9650 
2845.0000   79.4970   79.4970   20.1690 -999.0000    0.2790    2.3800 -999.0000    9.7200 -999.0000   10.6060   11.7040   13.6300  160.4540    2.3110    0.1736    1.0000    0.2478    8.5000  160.4540   79.4970    0.0840    2.3800    2.3110   20.1690    0.2790    8.5000    0.2790    2.3800    0.0840  160.4540   79.4970 
2845.5000   80.0400   80.0400   22.2070 -999.0000    0.2960    2.5080 -999.0000    8.7190 -999.0000    9.4850   10.4700   12.2000  147.2430    2.2860    0.1877    1.0000    0.2551    8.5000  147.2430   80.0400    0.0710    2.5080    2.2860   22.2070    0.2960    8.5000    0.2960    2.5080    0.0710  147.2430   80.0400 
2846.0000   79.6010   79.6010   22.0950 -999.0000    0.3060    2.5410 -999.0000    8.5940 -999.0000    9.3170   10.2870   11.9900  131.4350    2.2690    0.1976    1.0000    0.2568    8.5000  131.4350   79.6010    0.0610    2.5410    2.2690   22.0950    0.3060    8.5000    0.3060    2.5410    0.0610  131.4350   79.6010 
2846.5000   77.3870   77.3870   19.5060  786.0000    0.3030    2.4400    0.2730   10.4850 -999.0000   11.3230   12.4980   14.5560  120.2630    2.2730    0.1954    1.0000    0.2550    8.5000  120.2630   77.3870    0.0590    2.4400    2.2730   19.5060    0.3030    8.5000    0.3030    2.4400    0.0590  120.2630   77.3870 
2847.0000   73.1560   73.1560   15.0570 -999.0000    0.2910    2.2470 -999.0000   16.1010 -999.0000   17.3170   19.1100   22.2480  117.8680    2.2870    0.1878    0.9400    0.2458    8.5000  117.8680   73.1560    0.0640    2.2470    2.2870   15.0570    0.2910    8.5000    0.2910    2.2470    0.0640  117.8680   73.1560 
2847.5000   69.9060   69.9060    9.8990 -999.0000    0.2790    2.1560 -999.0000   21.6230 -999.0000   23.1640   25.5440   29.7010  120.6150    2.2940    0.1850    0.8332    0.2288    8.5000  120.6150   69.9060    0.0640    2.1560    2.2940    9.8990    0.2790    8.5000    0.2790    2.1560    0.0640  120.6150   69.9060 
2848.0000   69.7770   69.7770    5.0180 -999.0000    0.2750    2.1810 -999.0000   24.2850 -999.0000   25.9090   28.5470   33.1450  123.5240    2.2910    0.1879    0.7847    0.2172    8.5000  123.5240   69.7770    0.0590    2.1810    2.2910    5.0180    0.2750    8.5000    0.2750    2.1810    0.0590  123.5240   69.7770 
2848.5000   69.6280   69.6280    0.8910 -999.0000    0.2780    2.2120 -999.0000   24.1520 -999.0000   25.6650   28.2490   32.7450  125.7630    2.2830    0.1929    0.7746    0.2145    8.5000  125.7630   69.6280    0.0580    2.2120    2.2830    0.8910    0.2780    8.5000    0.2780    2.2120    0.0580  125.7630   69.6280 
2849.0000   67.7530   67.7530   -2.3170  768.0000    0.2850    2.1910    0.2891   23.4050 -999.0000   24.7690   27.2230   31.4780  128.2010    2.2740    0.1976    0.7713    0.2189    8.5000  128.2010   67.7530    0.0630    2.1910    2.2740   -2.3170    0.2850    8.5000    0.2850    2.1910    0.0630  128.2010   67.7530 
2849.5000   65.0240   65.0240   -5.1040 -999.0000    0.2910    2.1270 -999.0000   23.0130 -999.0000   24.2550   26.6220   30.7070  131.0500    2.2620    0.2047    0.7597    0.2179    8.5000  131.0500   65.0240    0.0690    2.1270    2.2620   -5.1040    0.2910    8.5000    0.2910    2.1270    0.0690  131.0500   65.0240 
2850.0000   64.2380   64.2380   -7.4140 -999.0000    0.2940    2.0870 -999.0000   22.3470 -999.0000   23.4610   25.7030   29.5510  129.7110    2.2520    0.2112    0.7574    0.2130    8.5000  129.7110   64.2380    0.0700    2.0870    2.2520   -7.4140    0.2940    8.5000    0.2940    2.0870    0.0700  129.7110   64.2380 
2850.5000   65.6110   65.6110   -9.4550 -999.0000    0.2900    2.0810 -999.0000   22.0430 -999.0000   23.0460   25.2000   28.8720  124.1430    2.2560    0.2095    0.7697    0.2092    8.5000  124.1430   65.6110    0.0690    2.0810    2.2560   -9.4550    0.2900    8.5000    0.2900    2.0810    0.0690  124.1430   65.6110 
2851.0000   66.7080   66.7080  -10.8670  826.0000    0.2830    2.0890    0.2670   21.0750 -999.0000   21.9450   23.9460   27.3320  117.8300    2.2710    0.2007    0.8103    0.2114    8.5000  117.8300   66.7080    0.0710    2.0890    2.2710  -10.8670    0.2830    8.5000    0.2830    2.0890    0.0710  117.8300   66.7080 
2851.5000   66.8500   66.8500  -11.7710 -999.0000    0.2780    2.0930 -999.0000   20.1730 -999.0000   20.9150   22.7690   25.8770  113.1210    2.2870    0.1906    0.8530    0.2190    8.5000  113.1210   66.8500    0.0740    2.0930    2.2870  -11.7710    0.2780    8.5000    0.2780    2.0930    0.0740  113.1210   66.8500 
2852.0000   64.7590   64.7590  -12.5670 -999.0000    0.2750    2.0960 -999.0000   21.2490 -999.0000   21.9340   23.8240   26.9600  111.9290    2.2860    0.1920    0.8321    0.2116    8.5000  111.9290   64.7590    0.0760    2.0960    2.2860  -12.5670    0.2750    8.5000    0.2750    2.0960    0.0760  111.9290   64.7590 
2852.5000   62.1580   62.1580  -13.6210 -999.0000    0.2750    2.0910 -999.0000   21.2720 -999.0000   21.8630   23.6870   26.6860  111.4590    2.2690    0.2044    0.8092    0.1927    8.5000  111.4590   62.1580    0.0770    2.0910    2.2690  -13.6210    0.2750    8.5000    0.2750    2.0910    0.0770  111.4590   62.1580 
2853.0000   60.9220   60.9220  -14.6890 -999.0000    0.2800    2.0790 -999.0000   22.0750 -999.0000   22.5830   24.4090   27.3790  109.1490    2.2460    0.2195    0.7629    0.1773    8.5000  109.1490   60.9220    0.0760    2.0790    2.2460  -14.6890    0.2800    8.5000    0.2800    2.0790    0.0760  109.1490   60.9220 
