~VERSION INFORMATION
 VERS.                 2.0:   CWLS LOG ASCII STANDARD - VERSION 2.0
 WRAP.                  NO:   SINGLE LINE PER DEPTH STEP
 CREA.                 9/4/2023 1:15:45 PM
#CREATED USING DSPetro VERSION 10ep.4.05.01 BY C4372838 ON 9/4/2023 1:15:45 PM
~WELL INFORMATION
#MNEM.UNIT       DATA                          DESCRIPTION MNEMONIC
#---------      ---------------------------   --------------------------
 STRT    .FT        2599.0000                 : START DEPTH
 STOP    .FT        3150.0000                 : STOP DEPTH
 STEP    .FT        0.5000                    : STEP VALUE
 NULL    .      -999.0000                     : NULL VALUE
 DATE    .      9/4/2023                      : LAS file Creation Date
 WELL   .      ABANICO-19                   : Well Name
 COMP   .      Kappa Resources Colombia,Ltd : Company
 FLD    .      UNKNOWN                      : Field
 STATE  .      UNKNOWN                      : State
 COUNT  .      Colombia                     : Country
 UWI    .      ABAN0019                     : Unique Well Identifier (UWI)
 LOC    .      UNKNOWN                      : Location
 PDAT   .      GROUND LEVEL                 : Permanent Datum
 EPDAT  .      1039.000000                  : Elevation of Permanent Datum
 LGMEA  .      DRILL FLOOR                  : Log Measured from
 APDAT  .      12.000000                    : Elevation Above Permanent Datum
 KB     .      1052.00000                   : KB Elevation
 DF     .      1051.00000                   : DF Elevation
 RWS    .      -999                         : Def_Rw
 WST    .      -999                         : Def_Rwt
 CNTY   .      UNKNOWN                      : County
 PROV   .      TOLIMA                       : Province
 SRVC   .      UNKNOWN                      : Contractor
 GDAT   .      WGS 84                       : Geodatum
 LONG   .      0.252833333280351            : Longitude
 LATI   .      0.26609722243415             : Latitude
 COORDIN.                                   : Grid System
 XCOORD .      910201.721945                : X or East-West Coordinate
 YCOORD .      958010.866493                : Y or North-South Coordinate
~CURVE INFORMATION
#MNEM                 UNIT       API CODE   Curve Type Comments
#----------     --------------- ----------  ---------- -----------
 DEPTH         .FT                        : Depth       
 GRGC          .API                       : GammaRay    GR:UNKNOWN:r1:0001:v1
 GRGC          .API                       : GammaRay    GR:UNKNOWN:r1:0001:v1
 HCGR          .GAPI                      :             HNGS Computed Gamma Ray {F13.2}
 SP            .MV                        : SP          Spontaneous Potential {F13.2}
 K_CORE_2023   .                          :             
 PDPE          .B/E                       : PEF         PEFZ:UNKNOWN:rC:NONE:v0 (auto-composite)
 POR_CORE_2023 .                          :             
 DEN           .g/cm3                     : Density     RHOZ:UNKNOWN:rC:NONE:v0 (auto-composite)
 PHIE          .Dec                       : Phi         
 SWT           .Dec                       : Sw          
 VCLmix        .Dec                       : Vcl         
 DCAL          .IN                        :             Differential Caliper {F13.2}
 AHT20         .OHMM                      : MedRes      Array Induction Two Foot Resistivity A20 {F13.2}
 AHT10         .OHMM                      : ShalRes     Array Induction Two Foot Resistivity A10 {F13.2}
 AHT30         .OHMM                      : MedRes      Array Induction Two Foot Resistivity A30 {F13.2}
 AHT60         .ohm.m                     : MedRes      AHT60:UNKNOWN:rC:NONE:v0 (auto-composite)
 AHT90         .ohm.m                     : DeepRes     AHT90:UNKNOWN:rC:NONE:v0 (auto-composite)
 BS            .IN                        : BitSize     Bit Size {F13.2}
 DTCO          .us/ft                     : Sonic       DTCO:UNKNOWN:rC:NONE:v0 (auto-composite)
 GR            .API                       : GammaRay    GR:UNKNOWN:rC:NONE:v0 (auto-composite)
 HCAL          .inch                      : Caliper     HCAL:UNKNOWN:rC:NONE:v0 (auto-composite)
 HDRA          .G/C3                      : Drho        HRDD Density Correction {F13.2}
 HTHO          .PPM                       :             HNGS Formation Thorium Concentration {F13.2}
 HTPR          .                          :             HNGS Thorium/Potassium Ratio {F13.2}
 HTUR          .                          :             HNGS Thorium/Uranium Ratio {F13.2}
 HUPR          .                          :             HNGS Uranium/Potassium Ratio {F13.2}
 HURA          .PPM                       :             HNGS Formation Uranium Concentration {F13.2}
 PEFZ          .B/E                       : PEF         PEFZ:UNKNOWN:rC:NONE:v0 (auto-composite)
 RHOZ          .g/cm3                     : Density     RHOZ:UNKNOWN:rC:NONE:v0 (auto-composite)
 RXOZ          .OHMM                      : MicroRes    MCFL Standard Resolution Invaded Zone Resistivity {F13.2}
 SP            .MV                        : SP          Spontaneous Potential {F13.2}
 TNPH          .dec                       : Neutron     TNPH:UNKNOWN:rC:NONE:v0 (auto-composite)
 CALI          .inch                      : Caliper     C1:UNKNOWN:rC:NONE:v0 (auto-composite)
 BS            .IN                        : BitSize     Bit Size {F13.2}
 HDRS          .ohm.m                     : DeepRes     Lateralog Deep Resistivity, ohmm
 NPHI          .dec                       : Neutron     TNPH:UNKNOWN:rC:NONE:v0 (auto-composite)
 PEF           .B/E                       : PEF         PEFZ:UNKNOWN:rC:NONE:v0 (auto-composite)
 CALI          .inch                      : Caliper     C1:UNKNOWN:rC:NONE:v0 (auto-composite)
 DRHO          .G/C3                      : Drho        HRDD Density Correction {F13.2}
 DT            .us/ft                     : Sonic       DTCO:UNKNOWN:rC:NONE:v0 (auto-composite)
 GR            .API                       : GammaRay    GR:UNKNOWN:r1:0001:v1
 HDRS          .ohm.m                     : DeepRes     Lateralog Deep Resistivity, ohmm
~A  DEPTH    GRGC      GRGC      HCGR       SP    K_CORE_2~    PDPE   POR_CORE~    DEN       PHIE      SWT      VCLmix     DCAL     AHT20     AHT10     AHT30     AHT60     AHT90       BS       DTCO       GR       HCAL      HDRA      HTHO      HTPR      HTUR      HUPR      HURA      PEFZ      RHOZ      RXOZ       SP       TNPH      CALI       BS       HDRS      NPHI      PEF       CALI      DRHO       DT        GR       HDRS   
# ...
3007.5000  116.7500  116.7500   48.7600   31.8800 -999.0000    2.9300 -999.0000    2.5300    0.1660    1.0000    0.2475    0.0900   17.5300   16.0800   16.9400   18.2200   16.9600    8.5000   89.5132  116.7500    8.5885   -0.0100    6.7300    4.4500    1.1100    3.9900    6.0400    2.9300    2.5300   17.2100   31.8800    0.3100    8.4470    8.5000    1.0300    0.3100    2.9300    8.4470   -0.0100   89.5132  116.7500    1.0300 
3008.0000  104.1100  104.1100   47.3500   31.1900 -999.0000    2.9000 -999.0000    2.5300    0.1695    1.0000    0.2331    0.0800   16.1600   15.1700   15.4000   16.5400   16.4900    8.5000   89.7369  104.1100    8.5808   -0.0100    6.3800    4.2600    1.1300    3.7700    5.6500    2.9000    2.5300   15.8600   31.1900    0.3100    8.4348    8.5000    1.0500    0.3100    2.9000    8.4348   -0.0100   89.7369  104.1100    1.0500 
3008.5000  103.2700  103.2700   46.0200   30.5000 -999.0000    2.8800 -999.0000    2.5200    0.1702    1.0000    0.2188    0.0400   16.4800   15.7500   15.4400   16.5900   17.1500    8.5000   89.6675  103.2700    8.5425   -0.0100    5.9200    3.9400    1.0700    3.6700    5.5200    2.8800    2.5200   15.9800   30.5000    0.3000    8.3981    8.5000    1.0150    0.3000    2.8800    8.3981   -0.0100   89.6675  103.2700    1.0150 
3009.0000   98.2600   98.2600   48.6400   29.8100 -999.0000    2.8600 -999.0000    2.5200    0.1737    1.0000    0.2044   -0.0300   16.8100   15.4700   15.7500   17.2400   17.3900    8.5000   89.9006   98.2600    8.4735   -0.0100    6.5500    4.2600    1.3100    3.2600    5.0100    2.8600    2.5200   17.1300   29.8100    0.3000    8.3981    8.5000    0.9800    0.3000    2.8600    8.3981   -0.0100   89.9006   98.2600    0.9800 
3009.5000  102.1700  102.1700   46.8700   29.1900 -999.0000    2.8200 -999.0000    2.5200    0.1668    1.0000    0.1915   -0.0600   18.1100   15.5600   16.6100   18.3000   18.5600    8.5000   89.8834  102.1700    8.4428   -0.0100    6.0000    3.9000    1.1000    3.5300    5.4300    2.8200    2.5200   19.2100   29.1900    0.2800    8.3737    8.5000    1.0300    0.2800    2.8200    8.3737   -0.0100   89.8834  102.1700    1.0300 
3010.0000   99.9700   99.9700   46.6500   28.5600 -999.0000    2.7700 -999.0000    2.5200    0.1701    1.0000    0.1783   -0.0900   20.2400   16.1700   17.9800   20.2300   20.6900    8.5000   90.3229   99.9700    8.4121   -0.0100    6.4100    4.4100    1.1300    3.8900    5.6600    2.7700    2.5200   19.7700   28.5600    0.2800    8.4104    8.5000    1.0800    0.2800    2.7700    8.4104   -0.0100   90.3229   99.9700    1.0800 
3010.5000  103.9800  103.9800   48.0400   28.1300 -999.0000    2.7600 -999.0000    2.5300    0.1651    1.0000    0.1694   -0.0400   20.8900   16.4800   18.1300   20.4500   20.8400    8.5000   89.7685  103.9800    8.4620   -0.0100    6.6900    4.5100    1.2000    3.7600    5.5700    2.7600    2.5300   17.1900   28.1300    0.2700    8.4348    8.5000    1.1300    0.2700    2.7600    8.4348   -0.0100   89.7685  103.9800    1.1300 
3011.0000  100.6600  100.6600   47.4000   27.9400 -999.0000    2.8000 -999.0000    2.5200    0.1733    1.0000    0.1654   -0.0500   18.8900   14.6600   16.4500   18.7800   19.5000    8.5000   90.1943  100.6600    8.4505   -0.0100    6.9700    4.9900    1.2700    3.9300    5.5000    2.8000    2.5200   14.6200   27.9400    0.2800    8.4226    8.5000    1.1800    0.2800    2.8000    8.4226   -0.0100   90.1943  100.6600    1.1800 
3011.5000  100.2700  100.2700   45.7400   27.5600 -999.0000    2.8400 -999.0000    2.5100    0.1823    1.0000    0.1575   -0.0400   17.7700   13.3500   15.6600   17.6100   17.6600    8.5000   90.4554  100.2700    8.4581   -0.0100    7.0100    5.3800    1.3200    4.0800    5.3100    2.8400    2.5100   13.4700   27.5600    0.2900    8.4470    8.5000    1.4100    0.2900    2.8400    8.4470   -0.0100   90.4554  100.2700    1.4100 
3012.0000   94.8400   94.8400   46.0700   27.3100 -999.0000    2.8100 -999.0000    2.5100    0.1835    1.0000    0.1523   -0.1200   17.7900   13.2900   15.4700   17.3600   17.0900    8.5000   91.2564   94.8400    8.3815   -0.0100    7.1500    5.5100    1.4000    3.9500    5.1100    2.8100    2.5100   14.8700   27.3100    0.2900    8.4470    8.5000    1.6400    0.2900    2.8100    8.4470   -0.0100   91.2564   94.8400    1.6400 
3012.5000   96.6000   96.6000   46.5100   27.0600 -999.0000    2.7400 -999.0000    2.5200    0.1827    1.0000    0.1471   -0.1400   18.0500   13.6300   16.4500   19.2000   18.3000    8.5000   91.5382   96.6000    8.3585    0.0000    7.0900    5.3300    1.4300    3.7400    4.9700    2.7400    2.5200   15.9300   27.0600    0.2900    8.4470    8.5000    1.7050    0.2900    2.7400    8.4470    0.0000   91.5382   96.6000    1.7050 
3013.0000   98.3800   98.3800   47.5700   27.0000 -999.0000    2.7000 -999.0000    2.5100    0.1801    1.0000    0.1458   -0.1300   17.4000   13.4600   16.2000   18.2500   18.2900    8.5000   91.1363   98.3800    8.3661    0.0000    7.3700    5.5000    1.4600    3.7600    5.0400    2.7000    2.5100   16.1500   27.0000    0.2800    8.4470    8.5000    1.7700    0.2800    2.7000    8.4470    0.0000   91.1363   98.3800    1.7700 
3013.5000  101.1500  101.1500   48.3600   27.0600 -999.0000    2.6600 -999.0000    2.5100    0.1848    1.0000    0.1471   -0.1500   17.9000   13.8900   16.9600   18.6300   19.1700    8.5000   90.4845  101.1500    8.3470    0.0000    7.7300    5.8400    1.5100    3.8800    5.1200    2.6600    2.5100   14.6300   27.0600    0.2900    8.4470    8.5000    1.7800    0.2900    2.6600    8.4470    0.0000   90.4845  101.1500    1.7800 
3014.0000  101.9900  101.9900   49.8300   26.8100 -999.0000    2.6700 -999.0000    2.5100    0.1861    1.0000    0.1419   -0.2300   18.8600   14.7200   18.5000   20.7000   20.5600    8.5000   90.1831  101.9900    8.2741   -0.0100    8.2000    6.2000    1.6300    3.8000    5.0200    2.6700    2.5100   15.0400   26.8100    0.2900    8.3737    8.5000    1.7900    0.2900    2.6700    8.3737   -0.0100   90.1831  101.9900    1.7900 
3014.5000  102.3100  102.3100   49.1400   27.0000 -999.0000    2.6600 -999.0000    2.5200    0.1781    1.0000    0.1458   -0.2100   18.1400   14.3000   18.1200   20.4700   20.4800    8.5000   91.0650  102.3100    8.2895   -0.0100    8.1700    6.3400    1.6400    3.8600    4.9800    2.6600    2.5200   17.0500   27.0000    0.2800    8.4470    8.5000    1.8800    0.2800    2.6600    8.4470   -0.0100   91.0650  102.3100    1.8800 
3015.0000   98.2700   98.2700   51.0000   24.8100 -999.0000    2.6800 -999.0000    2.5300    0.1873    1.0000    0.1002   -0.1900   17.8600   14.3500   17.9200   19.2800   18.6600    8.5000   90.4219   98.2700    8.3125   -0.0100    8.8200    6.9000    1.9800    3.4900    4.4600    2.6800    2.5300   18.8500   24.8100    0.2800    8.4226    8.5000    1.9700    0.2800    2.6800    8.4226   -0.0100   90.4219   98.2700    1.9700 
3015.5000   97.2700   97.2700   53.3100   26.4400 -999.0000    2.6800 -999.0000    2.5400    0.1720    1.0000    0.1342   -0.1800   18.8300   15.2900   19.1400   20.7700   19.7000    8.5000   89.2316   97.2700    8.3240   -0.0100    9.1300    6.7600    2.2800    2.9600    4.0000    2.6800    2.5400   20.4700   26.4400    0.2700    8.4104    8.5000    1.9750    0.2700    2.6800    8.4104   -0.0100   89.2316   97.2700    1.9750 
3016.0000   97.0200   97.0200   53.0100   26.5000 -999.0000    2.7200 -999.0000    2.5500    0.1646    1.0000    0.1354   -0.1800   20.9500   17.0200   20.8800   22.9600   21.8900    8.5000   89.2694   97.0200    8.3240   -0.0100    8.9800    6.6000    2.0500    3.2300    4.3900    2.7200    2.5500   21.5200   26.5000    0.2600    8.4104    8.5000    1.9800    0.2600    2.7200    8.4104   -0.0100   89.2694   97.0200    1.9800 
3016.5000  106.3500  106.3500   53.8200   26.7500 -999.0000    2.7700 -999.0000    2.5500    0.1633    1.0000    0.1406   -0.2000   23.2900   19.7800   23.1700   25.4500   23.4900    8.5000   85.6439  106.3500    8.3010   -0.0100    9.1700    6.6800    2.1000    3.1700    4.3600    2.7700    2.5500   22.9500   26.7500    0.2600    8.3981    8.5000    2.1000    0.2600    2.7700    8.3981   -0.0100   85.6439  106.3500    2.1000 
