~VERSION INFORMATION
 VERS.                 2.0:   CWLS LOG ASCII STANDARD - VERSION 2.0
 WRAP.                  NO:   SINGLE LINE PER DEPTH STEP
 CREA.                 9/4/2023 1:15:46 PM
#CREATED USING DSPetro VERSION 10ep.4.05.01 BY C4372838 ON 9/4/2023 1:15:46 PM
~WELL INFORMATION
#MNEM.UNIT       DATA                          DESCRIPTION MNEMONIC
#---------      ---------------------------   --------------------------
 STRT    .FT        2741.0000                 : START DEPTH
 STOP    .FT        3159.5000                 : STOP DEPTH
 STEP    .FT        0.5000                    : STEP VALUE
 NULL    .      -999.0000                     : NULL VALUE
 DATE    .      9/4/2023                      : LAS file Creation Date
 WELL   .      ABANICO-34              : Well Name
 COMP   .      PACIFIC RUBIALES ENERGY : Company
 FLD    .      ABANICO                 : Field
 STATE  .      UNKNOWN                 : State
 COUNT  .      COLOMBIA                : Country
 API    .      ABAN0034                : API Number
 UWI    .      ABAN0034                : Unique Well Identifier (UWI)
 LOC    .      N                       : Location
 EPDAT  .      1017.000                : Elevation of Permanent Datum
 GL     .      1017.000                : GL Elevation
 RWS    .      -999                    : Def_Rw
 WST    .      -999                    : Def_Rwt
 CNTY   .      TOLIMA                  : County
 PROV   .      UNKNOWN                 : Province
 SRVC   .      WEATHERFORD             : Contractor
 GDAT   .      WGS 84                  : Geodatum
 LONG   .      -74.873885111279        : Longitude
 LATI   .      4.22623405562507        : Latitude
 COORDIN.                              : Grid System
 XCOORD .      911584.313002           : X or East-West Coordinate
 YCOORD .      959134.088873           : Y or North-South Coordinate
~CURVE INFORMATION
#MNEM                 UNIT       API CODE   Curve Type Comments
#----------     --------------- ----------  ---------- -----------
 DEPTH         .FT                        : Depth       
 GRGC          .GAPI                      : GammaRay    Gamma Ray
 GRGC          .GAPI                      : GammaRay    Gamma Ray
 SP            .MV                        : SP          Spontaneous Potential
 K_CORE_2023   .                          :             
 NPRS          .V/V                       :             Sandstone Neutron Por.
 PDPE          .B/E                       : PEF         PE
 POR_CORE_2023 .                          :             
 R85O          .OHMM                      :             Array Ind One Res 85
 R60O          .OHMM                      :             Array Ind One Res 60
 R40O          .OHMM                      :             Array Ind One Res 40
 R30O          .OHMM                      :             Array Ind One Res 30
 R20O          .OHMM                      :             Array Ind One Res 20
 DT46          .US/F                      : Sonic       4-6' Compensated Sonic
 DEN           .G/C3                      : Density     Compensated Density
 PHIE          .Dec                       : Phi         
 SWT           .Dec                       : Sw          
 VCLmix        .Dec                       : Vcl         
 BS            .inches                    : BitSize     Bit size
 DTCO          .US/F                      : Sonic       4-6' Compensated Sonic
 GR            .GAPI                      : GammaRay    Gamma Ray
 HDRA          .G/C3                      : Drho        Density Correction
 PEFZ          .B/E                       : PEF         PE
 RHOZ          .G/C3                      : Density     Compensated Density
 SP            .MV                        : SP          Spontaneous Potential
 TNPH          .V/V                       : Neutron     Neutron Posrosity
 BS            .inches                    : BitSize     Bit size
 NPHI          .V/V                       : Neutron     Neutron Posrosity
 PEF           .B/E                       : PEF         PE
 DRHO          .G/C3                      : Drho        Density Correction
 DT            .US/F                      : Sonic       4-6' Compensated Sonic
 GR            .GAPI                      : GammaRay    Gamma Ray
~A  DEPTH    GRGC      GRGC       SP    K_CORE_2~    NPRS      PDPE   POR_CORE~    R85O      R60O      R40O      R30O      R20O      DT46      DEN       PHIE      SWT      VCLmix      BS       DTCO       GR       HDRA      PEFZ      RHOZ       SP       TNPH       BS       NPHI      PEF       DRHO       DT        GR    
# ...
2816.0000   78.0700   78.0700   17.2990  159.0000    0.3140    2.1210    0.2797    2.7500 -999.0000    2.8870    3.0690    3.3500  104.5480    2.3240    0.1435    1.0000    0.3545    8.5000  104.5480   78.0700    0.0680    2.1210    2.3240   17.2990    0.3140    8.5000    0.3140    2.1210    0.0680  104.5480   78.0700 
2816.5000   82.7920   82.7920   19.2110 -999.0000    0.3170    2.1330 -999.0000    2.6330 -999.0000    2.7580    2.9300    3.1930  103.8940    2.3330    0.1355    1.0000    0.3716    8.5000  103.8940   82.7920    0.0750    2.1330    2.3330   19.2110    0.3170    8.5000    0.3170    2.1330    0.0750  103.8940   82.7920 
2817.0000   87.3300   87.3300   21.4910 -999.0000    0.3230    2.1620 -999.0000    2.3670 -999.0000    2.4710    2.6230    2.8520  103.3900    2.3370    0.1303    1.0000    0.3891    8.5000  103.3900   87.3300    0.0830    2.1620    2.3370   21.4910    0.3230    8.5000    0.3230    2.1620    0.0830  103.3900   87.3300 
2817.5000   89.8000   89.8000   23.2780 -999.0000    0.3290    2.1950 -999.0000    2.3790 -999.0000    2.4760    2.6260    2.8480  102.3590    2.3330    0.1315    1.0000    0.3971    8.5000  102.3590   89.8000    0.0870    2.1950    2.3330   23.2780    0.3290    8.5000    0.3290    2.1950    0.0870  102.3590   89.8000 
2818.0000   92.1080   92.1080   25.0770 -999.0000    0.3330    2.2330 -999.0000    2.7080 -999.0000    2.8080    2.9760    3.2190  100.9380    2.3310    0.1318    1.0000    0.4032    8.5000  100.9380   92.1080    0.0930    2.2330    2.3310   25.0770    0.3330    8.5000    0.3330    2.2330    0.0930  100.9380   92.1080 
2818.5000   95.3610   95.3610   26.5410 -999.0000    0.3380    2.3330 -999.0000    2.8700 -999.0000    2.9640    3.1390    3.3870  100.0290    2.3350    0.1270    1.0000    0.4186    8.5000  100.0290   95.3610    0.1050    2.3330    2.3350   26.5410    0.3380    8.5000    0.3380    2.3330    0.1050  100.0290   95.3610 
2819.0000   95.0750   95.0750   27.5190 -999.0000    0.3480    2.4210 -999.0000    2.9450 -999.0000    3.0310    3.2070    3.4530  100.1220    2.3390    0.1205    1.0000    0.4446    8.5000  100.1220   95.0750    0.1240    2.4210    2.3390   27.5190    0.3480    8.5000    0.3480    2.4210    0.1240  100.1220   95.0750 
2819.5000   84.3880   84.3880   24.7350 -999.0000    0.3610    2.4130 -999.0000    3.7970 -999.0000    3.8930    4.1160    4.4220  101.0690    2.3230    0.1289    1.0000    0.4533    8.5000  101.0690   84.3880    0.1410    2.4130    2.3230   24.7350    0.3610    8.5000    0.3610    2.4130    0.1410  101.0690   84.3880 
2820.0000   66.8070   66.8070   18.8860 -999.0000    0.3710    2.3080 -999.0000    7.8760 -999.0000    8.0510    8.5080    9.1280  102.5340    2.2820    0.1723    1.0000    0.3960    8.5000  102.5340   66.8070    0.1480    2.3080    2.2820   18.8860    0.3710    8.5000    0.3710    2.3080    0.1480  102.5340   66.8070 
2820.5000   50.8940   50.8940   10.8480  709.0000    0.3730    2.1590    0.2909   12.3750 -999.0000   12.6210   13.3340   14.2970  104.6270    2.2300    0.2390    0.9129    0.2336    8.5000  104.6270   50.8940    0.1410    2.1590    2.2300   10.8480    0.3730    8.5000    0.3730    2.1590    0.1410  104.6270   50.8940 
2821.0000   41.6610   41.6610    3.8220 -999.0000    0.3670    2.0730 -999.0000   13.3180 -999.0000   13.5600   14.3240   15.3540  106.9710    2.1880    0.2825    0.8324    0.1394    8.5000  106.9710   41.6610    0.1270    2.0730    2.1880    3.8220    0.3670    8.5000    0.3670    2.0730    0.1270  106.9710   41.6610 
2821.5000   39.3300   39.3300   -1.0750 -999.0000    0.3610    2.0520 -999.0000   13.2710 -999.0000   13.5040   14.2680   15.3050  107.8550    2.1720    0.2928    0.8236    0.1156    8.5000  107.8550   39.3300    0.1140    2.0520    2.1720   -1.0750    0.3610    8.5000    0.3610    2.0520    0.1140  107.8550   39.3300 
2822.0000   39.3210   39.3210   -4.7600 -999.0000    0.3610    2.0520 -999.0000   12.7310 -999.0000   12.9570   13.6960   14.7100  106.4460    2.1720    0.2930    0.8408    0.1155    8.5000  106.4460   39.3210    0.1070    2.0520    2.1720   -4.7600    0.3610    8.5000    0.3610    2.0520    0.1070  106.4460   39.3210 
2822.5000   40.8440   40.8440   -7.1700   47.3000    0.3610    2.0390    0.2500   12.0120 -999.0000   12.2420   12.9490   13.9340  103.4650    2.1820    0.2847    0.8766    0.1311    8.5000  103.4650   40.8440    0.1000    2.0390    2.1820   -7.1700    0.3610    8.5000    0.3610    2.0390    0.1000  103.4650   40.8440 
2823.0000   42.3550   42.3550   -8.8230 -999.0000    0.3590    2.0240 -999.0000   12.0820 -999.0000   12.3420   13.0680   14.0990  101.8330    2.1890    0.2768    0.8838    0.1465    8.5000  101.8330   42.3550    0.0880    2.0240    2.1890   -8.8230    0.3590    8.5000    0.3590    2.0240    0.0880  101.8330   42.3550 
2823.5000   43.2010   43.2010   -9.7500 -999.0000    0.3560    2.0120 -999.0000   12.6680 -999.0000   12.9810   13.7590   14.8860  104.2750    2.1910    0.2724    0.8685    0.1551    8.5000  104.2750   43.2010    0.0750    2.0120    2.1910   -9.7500    0.3560    8.5000    0.3560    2.0120    0.0750  104.2750   43.2010 
2824.0000   43.2140   43.2140  -10.4040 -999.0000    0.3550    2.0110 -999.0000   14.0330 -999.0000   14.4340   15.3180   16.6250  109.0600    2.1860    0.2737    0.8221    0.1552    8.5000  109.0600   43.2140    0.0660    2.0110    2.1860  -10.4040    0.3550    8.5000    0.3550    2.0110    0.0660  109.0600   43.2140 
2824.5000   43.2630   43.2630  -10.6680 -999.0000    0.3580    2.0120 -999.0000   21.8990 -999.0000   22.6290   24.0520   26.1990  113.3940    2.1790    0.2756    0.6523    0.1557    8.5000  113.3940   43.2630    0.0640    2.0120    2.1790  -10.6680    0.3580    8.5000    0.3580    2.0120    0.0640  113.3940   43.2630 
2825.0000   42.5080   42.5080  -10.5130 -999.0000    0.3600    2.0030 -999.0000   30.2170 -999.0000   31.3610   33.3720   36.4630  115.4780    2.1750    0.2789    0.5475    0.1480    8.5000  115.4780   42.5080    0.0680    2.0030    2.1750  -10.5130    0.3600    8.5000    0.3600    2.0030    0.0680  115.4780   42.5080 
2825.5000   42.3100   42.3100  -10.0700 -999.0000    0.3600    1.9980 -999.0000   33.3870 -999.0000   34.8240   37.1040   40.6800  115.5080    2.1710    0.2808    0.5162    0.1460    8.5000  115.5080   42.3100    0.0720    1.9980    2.1710  -10.0700    0.3600    8.5000    0.3600    1.9980    0.0720  115.5080   42.3100 
2826.0000   44.5140   44.5140   -9.4010 -999.0000    0.3580    2.0110 -999.0000   34.4070 -999.0000   36.0630   38.4710   42.3150  115.0210    2.1590    0.2787    0.5026    0.1685    8.5000  115.0210   44.5140    0.0780    2.0110    2.1590   -9.4010    0.3580    8.5000    0.3580    2.0110    0.0780  115.0210   44.5140 
2826.5000   48.0020   48.0020   -8.5040 -999.0000    0.3520    2.0460 -999.0000   29.7950 -999.0000   31.3750   33.4970   36.9430  114.1080    2.1460    0.2735    0.5401    0.2041    8.5000  114.1080   48.0020    0.0910    2.0460    2.1460   -8.5040    0.3520    8.5000    0.3520    2.0460    0.0910  114.1080   48.0020 
2827.0000   50.9010   50.9010   -7.1120 -999.0000    0.3450    2.1300 -999.0000   23.6090 -999.0000   24.9840   26.6980   29.5280  111.7190    2.1420    0.2764    0.6101    0.1957    8.5000  111.7190   50.9010    0.1010    2.1300    2.1420   -7.1120    0.3450    8.5000    0.3450    2.1300    0.1010  111.7190   50.9010 
2827.5000   51.0510   51.0510   -5.2430 -999.0000    0.3390    2.2720 -999.0000   21.7860 -999.0000   23.1620   24.7610   27.4410  107.8160    2.1530    0.2704    0.6469    0.1956    8.5000  107.8160   51.0510    0.0990    2.2720    2.1530   -5.2430    0.3390    8.5000    0.3390    2.2720    0.0990  107.8160   51.0510 
2828.0000   50.5160   50.5160   -3.0410 -999.0000    0.3340    2.4150 -999.0000   20.7300 -999.0000   22.1340   23.6690   26.2770  103.6170    2.1720    0.2583    0.6823    0.2064    8.5000  103.6170   50.5160    0.0970    2.4150    2.1720   -3.0410    0.3340    8.5000    0.3340    2.4150    0.0970  103.6170   50.5160 
