~VERSION INFORMATION
 VERS.                 2.0:   CWLS LOG ASCII STANDARD - VERSION 2.0
 WRAP.                  NO:   SINGLE LINE PER DEPTH STEP
 CREA.                 9/4/2023 1:15:46 PM
#CREATED USING DSPetro VERSION 10ep.4.05.01 BY C4372838 ON 9/4/2023 1:15:46 PM
~WELL INFORMATION
#MNEM.UNIT       DATA                          DESCRIPTION MNEMONIC
#---------      ---------------------------   --------------------------
 STRT    .FT        2741.0000                 : START DEPTH
 STOP    .FT        3159.5000                 : STOP DEPTH
 STEP    .FT        0.5000                    : STEP VALUE
 NULL    .      -999.0000                     : NULL VALUE
 DATE    .      9/4/2023                      : LAS file Creation Date
 WELL   .      ABANICO-34              : Well Name
 COMP   .      PACIFIC RUBIALES ENERGY : Company
 FLD    .      ABANICO                 : Field
 STATE  .      UNKNOWN                 : State
 COUNT  .      COLOMBIA                : Country
 API    .      ABAN0034                : API Number
 UWI    .      ABAN0034                : Unique Well Identifier (UWI)
 LOC    .      N                       : Location
 EPDAT  .      1017.000                : Elevation of Permanent Datum
 GL     .      1017.000                : GL Elevation
 RWS    .      -999                    : Def_Rw
 WST    .      -999                    : Def_Rwt
 CNTY   .      TOLIMA                  : County
 PROV   .      UNKNOWN                 : Province
 SRVC   .      WEATHERFORD             : Contractor
 GDAT   .      WGS 84                  : Geodatum
 LONG   .      -74.873885111279        : Longitude
 LATI   .      4.22623405562507        : Latitude
 COORDIN.                              : Grid System
 XCOORD .      911584.313002           : X or East-West Coordinate
 YCOORD .      959134.088873           : Y or North-South Coordinate
~CURVE INFORMATION
#MNEM                 UNIT       API CODE   Curve Type Comments
#----------     --------------- ----------  ---------- -----------
 DEPTH         .FT                        : Depth       
 GRGC          .GAPI                      : GammaRay    Gamma Ray
 GRGC          .GAPI                      : GammaRay    Gamma Ray
 SP            .MV                        : SP          Spontaneous Potential
 K_CORE_2023   .                          :             
 NPRS          .V/V                       :             Sandstone Neutron Por.
 PDPE          .B/E                       : PEF         PE
 POR_CORE_2023 .                          :             
 R85O          .OHMM                      :             Array Ind One Res 85
 R60O          .OHMM                      :             Array Ind One Res 60
 R40O          .OHMM                      :             Array Ind One Res 40
 R30O          .OHMM                      :             Array Ind One Res 30
 R20O          .OHMM                      :             Array Ind One Res 20
 DT46          .US/F                      : Sonic       4-6' Compensated Sonic
 DEN           .G/C3                      : Density     Compensated Density
 PHIE          .Dec                       : Phi         
 SWT           .Dec                       : Sw          
 VCLmix        .Dec                       : Vcl         
 BS            .inches                    : BitSize     Bit size
 DTCO          .US/F                      : Sonic       4-6' Compensated Sonic
 GR            .GAPI                      : GammaRay    Gamma Ray
 HDRA          .G/C3                      : Drho        Density Correction
 PEFZ          .B/E                       : PEF         PE
 RHOZ          .G/C3                      : Density     Compensated Density
 SP            .MV                        : SP          Spontaneous Potential
 TNPH          .V/V                       : Neutron     Neutron Posrosity
 BS            .inches                    : BitSize     Bit size
 NPHI          .V/V                       : Neutron     Neutron Posrosity
 PEF           .B/E                       : PEF         PE
 DRHO          .G/C3                      : Drho        Density Correction
 DT            .US/F                      : Sonic       4-6' Compensated Sonic
 GR            .GAPI                      : GammaRay    Gamma Ray
~A  DEPTH    GRGC      GRGC       SP    K_CORE_2~    NPRS      PDPE   POR_CORE~    R85O      R60O      R40O      R30O      R20O      DT46      DEN       PHIE      SWT      VCLmix      BS       DTCO       GR       HDRA      PEFZ      RHOZ       SP       TNPH       BS       NPHI      PEF       DRHO       DT        GR    
# ...
3053.5000   81.5740   81.5740   65.6440 -999.0000    0.3270    2.6580 -999.0000   11.5730 -999.0000   11.6690   11.9750   12.3900   88.7430    2.4560    0.0001    1.0000    0.6661    8.5000   88.7430   81.5740    0.0820    2.6580    2.4560   65.6440    0.3270    8.5000    0.3270    2.6580    0.0820   88.7430   81.5740 
3054.0000   77.4060   77.4060   65.9690 -999.0000    0.3070    2.7290 -999.0000   13.1060 -999.0000   13.2010   13.5620   14.0550   85.2470    2.4710    0.0001    1.0000    0.6339    8.5000   85.2470   77.4060    0.0680    2.7290    2.4710   65.9690    0.3070    8.5000    0.3070    2.7290    0.0680   85.2470   77.4060 
3054.5000   71.1360   71.1360   66.2250 -999.0000    0.2790    2.9210 -999.0000   15.1240 -999.0000   15.2250   15.6560   16.2490   79.6710    2.4950    0.0001    1.0000    0.5381    8.5000   79.6710   71.1360    0.0600    2.9210    2.4950   66.2250    0.2790    8.5000    0.2790    2.9210    0.0600   79.6710   71.1360 
3055.0000   63.1710   63.1710   66.3130 -999.0000    0.2470    3.2330 -999.0000   19.9500 -999.0000   20.0750   20.6520   21.4550   72.9810    2.5260    0.0001    1.0000    0.3959    8.5000   72.9810   63.1710    0.0630    3.2330    2.5260   66.3130    0.2470    8.5000    0.2470    3.2330    0.0630   72.9810   63.1710 
3055.5000   54.2760   54.2760   66.2940 -999.0000    0.2160    3.5520 -999.0000   30.2720 -999.0000   30.4680   31.3590   32.6110   67.2050    2.5600    0.0001    1.0000    0.2371    8.5000   67.2050   54.2760    0.0710    3.5520    2.5600   66.2940    0.2160    8.5000    0.2160    3.5520    0.0710   67.2050   54.2760 
3056.0000   49.3570   49.3570   65.9510 -999.0000    0.1940    3.7000 -999.0000   39.9100 -999.0000   40.2000   41.3790   43.0540   64.8550    2.5830    0.1044    0.9612    0.1492    8.5000   64.8550   49.3570    0.0780    3.7000    2.5830   65.9510    0.1940    8.5000    0.1940    3.7000    0.0780   64.8550   49.3570 
3056.5000   51.5640   51.5640   65.4680 -999.0000    0.1890    3.5780 -999.0000   36.1360 -999.0000   36.4400   37.5020   39.0260   66.5700    2.5860    0.0001    1.0000    0.1886    8.5000   66.5700   51.5640    0.0830    3.5780    2.5860   65.4680    0.1890    8.5000    0.1890    3.5780    0.0830   66.5700   51.5640 
3057.0000   58.7700   58.7700   65.2330 -999.0000    0.2040    3.2740 -999.0000   29.0740 -999.0000   29.3720   30.2250   31.4590   70.9580    2.5570    0.0001    1.0000    0.3173    8.5000   70.9580   58.7700    0.0850    3.2740    2.5570   65.2330    0.2040    8.5000    0.2040    3.2740    0.0850   70.9580   58.7700 
3057.5000   67.1760   67.1760   65.3270 -999.0000    0.2340    2.9880 -999.0000   24.3350 -999.0000   24.6320   25.3330   26.3550   75.9180    2.5170    0.0001    1.0000    0.4674    8.5000   75.9180   67.1760    0.0860    2.9880    2.5170   65.3270    0.2340    8.5000    0.2340    2.9880    0.0860   75.9180   67.1760 
3058.0000   74.7810   74.7810   65.3510 -999.0000    0.2710    2.8360 -999.0000   19.7780 -999.0000   20.0540   20.6180   21.4430   80.3430    2.4830    0.0001    1.0000    0.5540    8.5000   80.3430   74.7810    0.0860    2.8360    2.4830   65.3510    0.2710    8.5000    0.2710    2.8360    0.0860   80.3430   74.7810 
3058.5000   81.3470   81.3470   65.2810 -999.0000    0.3060    2.8080 -999.0000   15.3890 -999.0000   15.6310   16.0610   16.6910   84.4040    2.4670    0.0001    1.0000    0.6253    8.5000   84.4040   81.3470    0.0950    2.8080    2.4670   65.2810    0.3060    8.5000    0.3060    2.8080    0.0950   84.4040   81.3470 
3059.0000   85.4610   85.4610   64.9780 -999.0000    0.3270    2.8020 -999.0000   12.6840 -999.0000   12.8940   13.2370   13.7400   88.0280    2.4640    0.0001    1.0000    0.6778    8.5000   88.0280   85.4610    0.1090    2.8020    2.4640   64.9780    0.3270    8.5000    0.3270    2.8020    0.1090   88.0280   85.4610 
3059.5000   87.3880   87.3880   64.6170 -999.0000    0.3360    2.7550 -999.0000   11.9620 -999.0000   12.1660   12.4810   12.9420   90.7240    2.4600    0.0001    1.0000    0.6963    8.5000   90.7240   87.3880    0.1220    2.7550    2.4600   64.6170    0.3360    8.5000    0.3360    2.7550    0.1220   90.7240   87.3880 
3060.0000   86.9830   86.9830   64.3480 -999.0000    0.3340    2.7100 -999.0000   11.1360 -999.0000   11.3210   11.5990   12.0040   91.3140    2.4530    0.0001    1.0000    0.6806    8.5000   91.3140   86.9830    0.1220    2.7100    2.4530   64.3480    0.3340    8.5000    0.3340    2.7100    0.1220   91.3140   86.9830 
3060.5000   84.7530   84.7530   64.1420 -999.0000    0.3270    2.6950 -999.0000   11.8690 -999.0000   12.0530   12.3350   12.7430   89.5210    2.4500    0.0001    1.0000    0.6573    8.5000   89.5210   84.7530    0.1110    2.6950    2.4500   64.1420    0.3270    8.5000    0.3270    2.6950    0.1110   89.5210   84.7530 
3061.0000   81.6390   81.6390   64.2800 -999.0000    0.3170    2.7560 -999.0000   15.2650 -999.0000   15.4800   15.8210   16.3100   85.7630    2.4620    0.0001    1.0000    0.6478    8.5000   85.7630   81.6390    0.0950    2.7560    2.4620   64.2800    0.3170    8.5000    0.3170    2.7560    0.0950   85.7630   81.6390 
3061.5000   78.4830   78.4830   64.5220 -999.0000    0.3030    2.8440 -999.0000   19.3710 -999.0000   19.6110   20.0110   20.5850   81.9950    2.4790    0.0001    1.0000    0.6347    8.5000   81.9950   78.4830    0.0760    2.8440    2.4790   64.5220    0.3030    8.5000    0.3030    2.8440    0.0760   81.9950   78.4830 
3062.0000   75.9320   75.9320   64.4380 -999.0000    0.2870    2.9270 -999.0000   23.1230 -999.0000   23.3670   23.8190   24.4570   79.7810    2.4980    0.0001    1.0000    0.6192    8.5000   79.7810   75.9320    0.0620    2.9270    2.4980   64.4380    0.2870    8.5000    0.2870    2.9270    0.0620   79.7810   75.9320 
3062.5000   74.3870   74.3870   64.1410 -999.0000    0.2750    2.9540 -999.0000   22.8980 -999.0000   23.1010   23.5180   24.1010   79.6750    2.5110    0.0001    1.0000    0.5962    8.5000   79.6750   74.3870    0.0630    2.9540    2.5110   64.1410    0.2750    8.5000    0.2750    2.9540    0.0630   79.6750   74.3870 
3063.0000   74.0780   74.0780   63.6000 -999.0000    0.2730    2.9010 -999.0000   18.4360 -999.0000   18.5700   18.8900   19.3300   81.3690    2.5070    0.0001    1.0000    0.5907    8.5000   81.3690   74.0780    0.0760    2.9010    2.5070   63.6000    0.2730    8.5000    0.2730    2.9010    0.0760   81.3690   74.0780 
3063.5000   74.8120   74.8120   62.8270 -999.0000    0.2760    2.8420 -999.0000   13.8260 -999.0000   13.9100   14.1390   14.4510   83.2020    2.4870    0.0001    1.0000    0.5733    8.5000   83.2020   74.8120    0.0910    2.8420    2.4870   62.8270    0.2760    8.5000    0.2760    2.8420    0.0910   83.2020   74.8120 
3064.0000   77.1180   77.1180   61.9570 -999.0000    0.2810    2.7810 -999.0000   13.6820 -999.0000   13.7480   13.9670   14.2620   84.2090    2.4680    0.0001    1.0000    0.5591    8.5000   84.2090   77.1180    0.1100    2.7810    2.4680   61.9570    0.2810    8.5000    0.2810    2.7810    0.1100   84.2090   77.1180 
3064.5000   80.4670   80.4670   61.2180 -999.0000    0.2840    2.7210 -999.0000   13.0380 -999.0000   13.0890   13.2980   13.5740   84.5610    2.4510    0.0001    1.0000    0.5424    8.5000   84.5610   80.4670    0.1270    2.7210    2.4510   61.2180    0.2840    8.5000    0.2840    2.7210    0.1270   84.5610   80.4670 
3065.0000   83.3240   83.3240   60.8780 -999.0000    0.2900    2.6660 -999.0000   12.0040 -999.0000   12.0430   12.2340   12.4850   84.6670    2.4430    0.0001    1.0000    0.5470    8.5000   84.6670   83.3240    0.1390    2.6660    2.4430   60.8780    0.2900    8.5000    0.2900    2.6660    0.1390   84.6670   83.3240 
3065.5000   85.4820   85.4820   60.9960 -999.0000    0.3010    2.6710 -999.0000   13.2960 -999.0000   13.3290   13.5430   13.8220   84.7270    2.4370    0.0001    1.0000    0.5680    8.5000   84.7270   85.4820    0.1300    2.6710    2.4370   60.9960    0.3010    8.5000    0.3010    2.6710    0.1300   84.7270   85.4820 
