~VERSION INFORMATION
 VERS.                 2.0:   CWLS LOG ASCII STANDARD - VERSION 2.0
 WRAP.                  NO:   SINGLE LINE PER DEPTH STEP
 CREA.                 9/4/2023 1:15:46 PM
#CREATED USING DSPetro VERSION 10ep.4.05.01 BY C4372838 ON 9/4/2023 1:15:46 PM
~WELL INFORMATION
#MNEM.UNIT       DATA                          DESCRIPTION MNEMONIC
#---------      ---------------------------   --------------------------
 STRT    .FT        2741.0000                 : START DEPTH
 STOP    .FT        3159.5000                 : STOP DEPTH
 STEP    .FT        0.5000                    : STEP VALUE
 NULL    .      -999.0000                     : NULL VALUE
 DATE    .      9/4/2023                      : LAS file Creation Date
 WELL   .      ABANICO-34              : Well Name
 COMP   .      PACIFIC RUBIALES ENERGY : Company
 FLD    .      ABANICO                 : Field
 STATE  .      UNKNOWN                 : State
 COUNT  .      COLOMBIA                : Country
 API    .      ABAN0034                : API Number
 UWI    .      ABAN0034                : Unique Well Identifier (UWI)
 LOC    .      N                       : Location
 EPDAT  .      1017.000                : Elevation of Permanent Datum
 GL     .      1017.000                : GL Elevation
 RWS    .      -999                    : Def_Rw
 WST    .      -999                    : Def_Rwt
 CNTY   .      TOLIMA                  : County
 PROV   .      UNKNOWN                 : Province
 SRVC   .      WEATHERFORD             : Contractor
 GDAT   .      WGS 84                  : Geodatum
 LONG   .      -74.873885111279        : Longitude
 LATI   .      4.22623405562507        : Latitude
 COORDIN.                              : Grid System
 XCOORD .      911584.313002           : X or East-West Coordinate
 YCOORD .      959134.088873           : Y or North-South Coordinate
~CURVE INFORMATION
#MNEM                 UNIT       API CODE   Curve Type Comments
#----------     --------------- ----------  ---------- -----------
 DEPTH         .FT                        : Depth       
 GRGC          .GAPI                      : GammaRay    Gamma Ray
 GRGC          .GAPI                      : GammaRay    Gamma Ray
 SP            .MV                        : SP          Spontaneous Potential
 K_CORE_2023   .                          :             
 NPRS          .V/V                       :             Sandstone Neutron Por.
 PDPE          .B/E                       : PEF         PE
 POR_CORE_2023 .                          :             
 R85O          .OHMM                      :             Array Ind One Res 85
 R60O          .OHMM                      :             Array Ind One Res 60
 R40O          .OHMM                      :             Array Ind One Res 40
 R30O          .OHMM                      :             Array Ind One Res 30
 R20O          .OHMM                      :             Array Ind One Res 20
 DT46          .US/F                      : Sonic       4-6' Compensated Sonic
 DEN           .G/C3                      : Density     Compensated Density
 PHIE          .Dec                       : Phi         
 SWT           .Dec                       : Sw          
 VCLmix        .Dec                       : Vcl         
 BS            .inches                    : BitSize     Bit size
 DTCO          .US/F                      : Sonic       4-6' Compensated Sonic
 GR            .GAPI                      : GammaRay    Gamma Ray
 HDRA          .G/C3                      : Drho        Density Correction
 PEFZ          .B/E                       : PEF         PE
 RHOZ          .G/C3                      : Density     Compensated Density
 SP            .MV                        : SP          Spontaneous Potential
 TNPH          .V/V                       : Neutron     Neutron Posrosity
 BS            .inches                    : BitSize     Bit size
 NPHI          .V/V                       : Neutron     Neutron Posrosity
 PEF           .B/E                       : PEF         PE
 DRHO          .G/C3                      : Drho        Density Correction
 DT            .US/F                      : Sonic       4-6' Compensated Sonic
 GR            .GAPI                      : GammaRay    Gamma Ray
~A  DEPTH    GRGC      GRGC       SP    K_CORE_2~    NPRS      PDPE   POR_CORE~    R85O      R60O      R40O      R30O      R20O      DT46      DEN       PHIE      SWT      VCLmix      BS       DTCO       GR       HDRA      PEFZ      RHOZ       SP       TNPH       BS       NPHI      PEF       DRHO       DT        GR    
# ...
2891.0000   81.8270   81.8270  -20.6560 -999.0000    0.2900    2.1290 -999.0000   67.9030 -999.0000   65.9910   71.8160   82.4370   89.4620    2.2790    0.1885    0.3043    0.2348    8.5000   89.4620   81.8270    0.0850    2.1290    2.2790  -20.6560    0.2900    8.5000    0.2900    2.1290    0.0850   89.4620   81.8270 
2891.5000   86.4810   86.4810  -20.8190 -999.0000    0.2850    2.1310 -999.0000   66.1140 -999.0000   64.2670   69.8320   79.8890   89.3000    2.2780    0.1909    0.3290    0.2234    8.5000   89.3000   86.4810    0.0860    2.1310    2.2780  -20.8190    0.2850    8.5000    0.2850    2.1310    0.0860   89.3000   86.4810 
2892.0000   89.4120   89.4120  -20.9280 -999.0000    0.2810    2.1310 -999.0000   70.6930 -999.0000   68.6880   74.4980   84.9100   88.9980    2.2790    0.1909    0.2846    0.2162    8.5000   88.9980   89.4120    0.0830    2.1310    2.2790  -20.9280    0.2810    8.5000    0.2810    2.1310    0.0830   88.9980   89.4120 
2892.5000   91.1720   91.1720  -21.0020  328.0000    0.2790    2.1270    0.2326   69.7040 -999.0000   67.7060   73.3150   83.2770   88.6910    2.2820    0.1893    0.2856    0.2154    8.5000   88.6910   91.1720    0.0790    2.1270    2.2820  -21.0020    0.2790    8.5000    0.2790    2.1270    0.0790   88.6910   91.1720 
2893.0000   90.1890   90.1890  -21.3300 -999.0000    0.2780    2.1250 -999.0000   62.0130 -999.0000   60.1990   65.0640   73.6540   88.5030    2.2870    0.1868    0.3984    0.2190    8.5000   88.5030   90.1890    0.0770    2.1250    2.2870  -21.3300    0.2780    8.5000    0.2780    2.1250    0.0770   88.5030   90.1890 
2893.5000   86.9650   86.9650  -21.4820 -999.0000    0.2750    2.1320 -999.0000   52.7510 -999.0000   51.1660   55.2270   62.3350   88.4560    2.2960    0.1817    0.4845    0.2228    8.5000   88.4560   86.9650    0.0780    2.1320    2.2960  -21.4820    0.2750    8.5000    0.2750    2.1320    0.0780   88.4560   86.9650 
2894.0000   83.4730   83.4730  -21.5060 -999.0000    0.2710    2.1320 -999.0000   50.8480 -999.0000   49.2940   53.1420   59.8430   88.7000    2.2990    0.1808    0.5073    0.2179    8.5000   88.7000   83.4730    0.0770    2.1320    2.2990  -21.5060    0.2710    8.5000    0.2710    2.1320    0.0770   88.7000   83.4730 
2894.5000   80.9840   80.9840  -21.4300 -999.0000    0.2680    2.1380 -999.0000   50.4580 -999.0000   48.8770   52.6530   59.1910   89.1780    2.2980    0.1824    0.5140    0.2106    8.5000   89.1780   80.9840    0.0730    2.1380    2.2980  -21.4300    0.2680    8.5000    0.2680    2.1380    0.0730   89.1780   80.9840 
2895.0000   81.6730   81.6730  -21.2670 -999.0000    0.2680    2.1770 -999.0000   48.2130 -999.0000   46.6670   50.2680   56.4650   90.2500    2.3020    0.1796    0.5346    0.2150    8.5000   90.2500   81.6730    0.0690    2.1770    2.3020  -21.2670    0.2680    8.5000    0.2680    2.1770    0.0690   90.2500   81.6730 
2895.5000   84.2970   84.2970  -21.0760 -999.0000    0.2710    2.2220 -999.0000   45.3170 -999.0000   43.8440   47.2240   53.0270   91.8120    2.3050    0.1768    0.5583    0.2246    8.5000   91.8120   84.2970    0.0670    2.2220    2.3050  -21.0760    0.2710    8.5000    0.2710    2.2220    0.0670   91.8120   84.2970 
2896.0000   86.4220   86.4220  -20.6430 -999.0000    0.2710    2.2410 -999.0000   42.7320 -999.0000   41.3080   44.5280   50.0250   93.5370    2.3070    0.1755    0.5836    0.2268    8.5000   93.5370   86.4220    0.0640    2.2410    2.3070  -20.6430    0.2710    8.5000    0.2710    2.2410    0.0640   93.5370   86.4220 
2896.5000   86.9150   86.9150  -20.3360 -999.0000    0.2700    2.2190 -999.0000   41.8040 -999.0000   40.3870   43.5690   48.9850   94.6300    2.3020    0.1795    0.5893    0.2192    8.5000   94.6300   86.9150    0.0630    2.2190    2.3020  -20.3360    0.2700    8.5000    0.2700    2.2190    0.0630   94.6300   86.9150 
2897.0000   84.1510   84.1510  -20.1300 -999.0000    0.2710    2.1720 -999.0000   41.8190 -999.0000   40.3840   43.6020   49.0750   94.2670    2.2950    0.1844    0.5826    0.2134    8.5000   94.2670   84.1510    0.0630    2.1720    2.2950  -20.1300    0.2710    8.5000    0.2710    2.1720    0.0630   94.2670   84.1510 
2897.5000   81.3560   81.3560  -20.0040 -999.0000    0.2740    2.1540 -999.0000   46.6260 -999.0000   44.9950   48.6410   54.8240   92.7360    2.2920    0.1854    0.5356    0.2163    8.5000   92.7360   81.3560    0.0640    2.1540    2.2920  -20.0040    0.2740    8.5000    0.2740    2.1540    0.0640   92.7360   81.3560 
2898.0000   81.5540   81.5540  -20.0390  458.0000    0.2770    2.1540    0.2449   48.7640 -999.0000   47.0480   50.8890   57.4150   90.7560    2.2900    0.1858    0.5132    0.2202    8.5000   90.7560   81.5540    0.0640    2.1540    2.2900  -20.0390    0.2770    8.5000    0.2770    2.1540    0.0640   90.7560   81.5540 
2898.5000   83.0780   83.0780  -20.0620 -999.0000    0.2770    2.1490 -999.0000   48.0830 -999.0000   46.3640   50.1900   56.6870   89.3080    2.2880    0.1873    0.5179    0.2180    8.5000   89.3080   83.0780    0.0620    2.1490    2.2880  -20.0620    0.2770    8.5000    0.2770    2.1490    0.0620   89.3080   83.0780 
2899.0000   85.2470   85.2470  -20.1660 -999.0000    0.2750    2.1460 -999.0000   46.2480 -999.0000   44.5770   48.2910   54.5920   88.6610    2.2890    0.1873    0.5359    0.2150    8.5000   88.6610   85.2470    0.0620    2.1460    2.2890  -20.1660    0.2750    8.5000    0.2750    2.1460    0.0620   88.6610   85.2470 
2899.5000   86.6990   86.6990  -20.1290 -999.0000    0.2730    2.1440 -999.0000   44.6000 -999.0000   42.9980   46.5510   52.6130   88.3820    2.2880    0.1888    0.5511    0.2097    8.5000   88.3820   86.6990    0.0640    2.1440    2.2880  -20.1290    0.2730    8.5000    0.2730    2.1440    0.0640   88.3820   86.6990 
2900.0000   86.2740   86.2740  -19.9350 -999.0000    0.2720    2.1510 -999.0000   46.6720 -999.0000   44.9760   48.7140   55.0820   88.0050    2.2840    0.1918    0.5323    0.2032    8.5000   88.0050   86.2740    0.0650    2.1510    2.2840  -19.9350    0.2720    8.5000    0.2720    2.1510    0.0650   88.0050   86.2740 
2900.5000   85.2080   85.2080  -19.6850 -999.0000    0.2730    2.1650 -999.0000   51.0310 -999.0000   49.1970   53.2430   60.1520   87.4150    2.2870    0.1891    0.4984    0.2086    8.5000   87.4150   85.2080    0.0670    2.1650    2.2870  -19.6850    0.2730    8.5000    0.2730    2.1650    0.0670   87.4150   85.2080 
2901.0000   83.4210   83.4210  -19.6290  355.0000    0.2740    2.1800    0.2482   56.5600 -999.0000   54.5530   58.9640   66.5300   86.8870    2.2930    0.1840    0.4540    0.2174    8.5000   86.8870   83.4210    0.0670    2.1800    2.2930  -19.6290    0.2740    8.5000    0.2740    2.1800    0.0670   86.8870   83.4210 
2901.5000   84.8510   84.8510  -19.8910 -999.0000    0.2750    2.1950 -999.0000   57.0270 -999.0000   55.0420   59.4830   67.0810   86.7270    2.2990    0.1792    0.4468    0.2261    8.5000   86.7270   84.8510    0.0670    2.1950    2.2990  -19.8910    0.2750    8.5000    0.2750    2.1950    0.0670   86.7270   84.8510 
2902.0000   88.3030   88.3030  -20.1570 -999.0000    0.2760    2.2030 -999.0000   54.8340 -999.0000   53.0250   57.1300   64.2270   86.9280    2.2970    0.1805    0.4648    0.2260    8.5000   86.9280   88.3030    0.0670    2.2030    2.2970  -20.1570    0.2760    8.5000    0.2760    2.2030    0.0670   86.9280   88.3030 
2902.5000   90.1430   90.1430  -20.2340 -999.0000    0.2780    2.1930 -999.0000   55.0370 -999.0000   53.2880   57.4200   64.5250   87.2600    2.2910    0.1844    0.4593    0.2234    8.5000   87.2600   90.1430    0.0670    2.1930    2.2910  -20.2340    0.2780    8.5000    0.2780    2.1930    0.0670   87.2600   90.1430 
2903.0000   90.1120   90.1120  -20.0980 -999.0000    0.2820    2.1800 -999.0000   55.1740 -999.0000   53.5450   57.6220   64.6300   87.2880    2.2840    0.1883    0.4509    0.2239    8.5000   87.2880   90.1120    0.0670    2.1800    2.2840  -20.0980    0.2820    8.5000    0.2820    2.1800    0.0670   87.2880   90.1120 
