~VERSION INFORMATION
 VERS.                 2.0:   CWLS LOG ASCII STANDARD - VERSION 2.0
 WRAP.                  NO:   SINGLE LINE PER DEPTH STEP
 CREA.                 9/4/2023 1:15:46 PM
#CREATED USING DSPetro VERSION 10ep.4.05.01 BY C4372838 ON 9/4/2023 1:15:46 PM
~WELL INFORMATION
#MNEM.UNIT       DATA                          DESCRIPTION MNEMONIC
#---------      ---------------------------   --------------------------
 STRT    .FT        2741.0000                 : START DEPTH
 STOP    .FT        3159.5000                 : STOP DEPTH
 STEP    .FT        0.5000                    : STEP VALUE
 NULL    .      -999.0000                     : NULL VALUE
 DATE    .      9/4/2023                      : LAS file Creation Date
 WELL   .      ABANICO-34              : Well Name
 COMP   .      PACIFIC RUBIALES ENERGY : Company
 FLD    .      ABANICO                 : Field
 STATE  .      UNKNOWN                 : State
 COUNT  .      COLOMBIA                : Country
 API    .      ABAN0034                : API Number
 UWI    .      ABAN0034                : Unique Well Identifier (UWI)
 LOC    .      N                       : Location
 EPDAT  .      1017.000                : Elevation of Permanent Datum
 GL     .      1017.000                : GL Elevation
 RWS    .      -999                    : Def_Rw
 WST    .      -999                    : Def_Rwt
 CNTY   .      TOLIMA                  : County
 PROV   .      UNKNOWN                 : Province
 SRVC   .      WEATHERFORD             : Contractor
 GDAT   .      WGS 84                  : Geodatum
 LONG   .      -74.873885111279        : Longitude
 LATI   .      4.22623405562507        : Latitude
 COORDIN.                              : Grid System
 XCOORD .      911584.313002           : X or East-West Coordinate
 YCOORD .      959134.088873           : Y or North-South Coordinate
~CURVE INFORMATION
#MNEM                 UNIT       API CODE   Curve Type Comments
#----------     --------------- ----------  ---------- -----------
 DEPTH         .FT                        : Depth       
 GRGC          .GAPI                      : GammaRay    Gamma Ray
 GRGC          .GAPI                      : GammaRay    Gamma Ray
 SP            .MV                        : SP          Spontaneous Potential
 K_CORE_2023   .                          :             
 NPRS          .V/V                       :             Sandstone Neutron Por.
 PDPE          .B/E                       : PEF         PE
 POR_CORE_2023 .                          :             
 R85O          .OHMM                      :             Array Ind One Res 85
 R60O          .OHMM                      :             Array Ind One Res 60
 R40O          .OHMM                      :             Array Ind One Res 40
 R30O          .OHMM                      :             Array Ind One Res 30
 R20O          .OHMM                      :             Array Ind One Res 20
 DT46          .US/F                      : Sonic       4-6' Compensated Sonic
 DEN           .G/C3                      : Density     Compensated Density
 PHIE          .Dec                       : Phi         
 SWT           .Dec                       : Sw          
 VCLmix        .Dec                       : Vcl         
 BS            .inches                    : BitSize     Bit size
 DTCO          .US/F                      : Sonic       4-6' Compensated Sonic
 GR            .GAPI                      : GammaRay    Gamma Ray
 HDRA          .G/C3                      : Drho        Density Correction
 PEFZ          .B/E                       : PEF         PE
 RHOZ          .G/C3                      : Density     Compensated Density
 SP            .MV                        : SP          Spontaneous Potential
 TNPH          .V/V                       : Neutron     Neutron Posrosity
 BS            .inches                    : BitSize     Bit size
 NPHI          .V/V                       : Neutron     Neutron Posrosity
 PEF           .B/E                       : PEF         PE
 DRHO          .G/C3                      : Drho        Density Correction
 DT            .US/F                      : Sonic       4-6' Compensated Sonic
 GR            .GAPI                      : GammaRay    Gamma Ray
~A  DEPTH    GRGC      GRGC       SP    K_CORE_2~    NPRS      PDPE   POR_CORE~    R85O      R60O      R40O      R30O      R20O      DT46      DEN       PHIE      SWT      VCLmix      BS       DTCO       GR       HDRA      PEFZ      RHOZ       SP       TNPH       BS       NPHI      PEF       DRHO       DT        GR    
# ...
3078.5000   84.2530   84.2530   28.8210 -999.0000    0.3180    2.2680 -999.0000   23.9260 -999.0000   24.4220   25.6100   27.3050   84.2060    2.3770    0.0001    1.0000    0.5263    8.5000   84.2060   84.2530    0.1650    2.2680    2.3770   28.8210    0.3180    8.5000    0.3180    2.2680    0.1650   84.2060   84.2530 
3079.0000   71.3000   71.3000   20.9050 -999.0000    0.2990    2.1950 -999.0000   24.7380 -999.0000   25.2380   26.5520   28.4400   93.8170    2.3180    0.1416    0.7835    0.3887    8.5000   93.8170   71.3000    0.1500    2.1950    2.3180   20.9050    0.2990    8.5000    0.2990    2.1950    0.1500   93.8170   71.3000 
3079.5000   63.1280   63.1280   14.1970 -999.0000    0.2860    2.1830 -999.0000   21.4580 -999.0000   21.8750   23.0880   24.8410  102.0810    2.2670    0.1888    0.7872    0.2791    8.5000  102.0810   63.1280    0.1360    2.1830    2.2670   14.1970    0.2860    8.5000    0.2860    2.1830    0.1360  102.0810   63.1280 
3080.0000   62.0230   62.0230    9.6080 -999.0000    0.2870    2.1600 -999.0000   20.5750 -999.0000   20.9570   22.1740   23.9470  103.7460    2.2350    0.2142    0.7655    0.2350    8.5000  103.7460   62.0230    0.1280    2.1600    2.2350    9.6080    0.2870    8.5000    0.2870    2.1600    0.1280  103.7460   62.0230 
3080.5000   64.3000   64.3000    6.3600 -999.0000    0.2970    2.1240 -999.0000   22.1260 -999.0000   22.5110   23.8730   25.8670  100.0970    2.2160    0.2249    0.7131    0.2343    8.5000  100.0970   64.3000    0.1200    2.1240    2.2160    6.3600    0.2970    8.5000    0.2970    2.1240    0.1200  100.0970   64.3000 
3081.0000   65.2310   65.2310    3.8420 -999.0000    0.3060    2.1120 -999.0000   23.8140 -999.0000   24.2060   25.7170   27.9470   94.6840    2.2190    0.2185    0.6860    0.2631    8.5000   94.6840   65.2310    0.1120    2.1120    2.2190    3.8420    0.3060    8.5000    0.3060    2.1120    0.1120   94.6840   65.2310 
3081.5000   65.8250   65.8250    1.5960 -999.0000    0.3090    2.1050 -999.0000   24.3430 -999.0000   24.7230   26.3010   28.6450   90.7120    2.2290    0.2092    0.6868    0.2858    8.5000   90.7120   65.8250    0.1020    2.1050    2.2290    1.5960    0.3090    8.5000    0.3090    2.1050    0.1020   90.7120   65.8250 
3082.0000   65.2840   65.2840   -0.4270 -999.0000    0.3050    2.1000 -999.0000   23.7710 -999.0000   24.1220   25.6930   28.0410   89.0690    2.2340    0.2069    0.7022    0.2823    8.5000   89.0690   65.2840    0.0930    2.1000    2.2340   -0.4270    0.3050    8.5000    0.3050    2.1000    0.0930   89.0690   65.2840 
3082.5000   64.8350   64.8350   -2.1530 -999.0000    0.3010    2.0950 -999.0000   23.5640 -999.0000   23.8980   25.4700   27.8400   88.4740    2.2370    0.2062    0.7104    0.2758    8.5000   88.4740   64.8350    0.0880    2.0950    2.2370   -2.1530    0.3010    8.5000    0.3010    2.0950    0.0880   88.4740   64.8350 
3083.0000   65.3850   65.3850   -3.3830 -999.0000    0.3010    2.0900 -999.0000   24.2470 -999.0000   24.5780   26.2050   28.6710   88.7000    2.2400    0.2037    0.7032    0.2802    8.5000   88.7000   65.3850    0.0870    2.0900    2.2400   -3.3830    0.3010    8.5000    0.3010    2.0900    0.0870   88.7000   65.3850 
3083.5000   65.1180   65.1180   -3.9760 -999.0000    0.3030    2.1080 -999.0000   25.6930 -999.0000   26.0320   27.7590   30.3910   88.9110    2.2440    0.1995    0.6853    0.2915    8.5000   88.9110   65.1180    0.0850    2.1080    2.2440   -3.9760    0.3030    8.5000    0.3030    2.1080    0.0850   88.9110   65.1180 
3084.0000   64.7290   64.7290   -4.4160 -999.0000    0.3020    2.1610 -999.0000   24.9030 -999.0000   25.2220   26.8820   29.4270   89.1450    2.2520    0.1936    0.7053    0.3005    8.5000   89.1450   64.7290    0.0820    2.1610    2.2520   -4.4160    0.3020    8.5000    0.3020    2.1610    0.0820   89.1450   64.7290 
3084.5000   64.2590   64.2590   -4.7470 -999.0000    0.2980    2.2040 -999.0000   22.6920 -999.0000   22.9720   24.4720   26.7720   89.7650    2.2660    0.1844    0.7575    0.3101    8.5000   89.7650   64.2590    0.0810    2.2040    2.2660   -4.7470    0.2980    8.5000    0.2980    2.2040    0.0810   89.7650   64.2590 
3085.0000   63.3240   63.3240   -5.1880 -999.0000    0.2940    2.1860 -999.0000   18.8190 -999.0000   19.0440   20.2650   22.1450   90.9940    2.2730    0.1811    0.8411    0.3095    8.5000   90.9940   63.3240    0.0810    2.1860    2.2730   -5.1880    0.2940    8.5000    0.2940    2.1860    0.0810   90.9940   63.3240 
3085.5000   62.5290   62.5290   -5.4630 -999.0000    0.2920    2.1220 -999.0000   19.1600 -999.0000   19.3790   20.5940   22.4630   92.5500    2.2670    0.1867    0.8277    0.2953    8.5000   92.5500   62.5290    0.0770    2.1220    2.2670   -5.4630    0.2920    8.5000    0.2920    2.1220    0.0770   92.5500   62.5290 
3086.0000   62.9430   62.9430   -5.5900 -999.0000    0.2920    2.0450 -999.0000   21.5110 -999.0000   21.7440   23.0770   25.1180   93.3410    2.2490    0.2007    0.7617    0.2690    8.5000   93.3410   62.9430    0.0720    2.0450    2.2490   -5.5900    0.2920    8.5000    0.2920    2.0450    0.0720   93.3410   62.9430 
3086.5000   63.5150   63.5150   -5.6960 -999.0000    0.2940    2.0120 -999.0000   21.4770 -999.0000   21.6940   22.9800   24.9460   93.3760    2.2320    0.2135    0.7423    0.2496    8.5000   93.3760   63.5150    0.0690    2.0120    2.2320   -5.6960    0.2940    8.5000    0.2940    2.0120    0.0690   93.3760   63.5150 
3087.0000   64.4270   64.4270   -5.5600 -999.0000    0.2980    2.0310 -999.0000   21.4100 -999.0000   21.6110   22.8540   24.7370   93.0490    2.2250    0.2174    0.7338    0.2502    8.5000   93.0490   64.4270    0.0730    2.0310    2.2250   -5.5600    0.2980    8.5000    0.2980    2.0310    0.0730   93.0490   64.4270 
3087.5000   64.1030   64.1030   -5.3890 -999.0000    0.2990    2.0480 -999.0000   21.9440 -999.0000   22.1340   23.3590   25.2020   92.9690    2.2280    0.2145    0.7276    0.2573    8.5000   92.9690   64.1030    0.0850    2.0480    2.2280   -5.3890    0.2990    8.5000    0.2990    2.0480    0.0850   92.9690   64.1030 
3088.0000   63.2640   63.2640   -5.1130 -999.0000    0.2990    2.0530 -999.0000   21.8490 -999.0000   22.0200   23.1880   24.9290   93.0890    2.2300    0.2129    0.7313    0.2602    8.5000   93.0890   63.2640    0.0940    2.0530    2.2300   -5.1130    0.2990    8.5000    0.2990    2.0530    0.0940   93.0890   63.2640 
3088.5000   63.5000   63.5000   -5.0310 -999.0000    0.2990    2.0380 -999.0000   21.4480 -999.0000   21.6020   22.7070   24.3320   93.1350    2.2320    0.2114    0.7402    0.2631    8.5000   93.1350   63.5000    0.0970    2.0380    2.2320   -5.0310    0.2990    8.5000    0.2990    2.0380    0.0970   93.1350   63.5000 
3089.0000   63.3530   63.3530   -4.0370 -999.0000    0.2990    2.0230 -999.0000   21.6020 -999.0000   21.7420   22.8000   24.3410   93.3950    2.2330    0.2106    0.7387    0.2646    8.5000   93.3950   63.3530    0.0980    2.0230    2.2330   -4.0370    0.2990    8.5000    0.2990    2.0230    0.0980   93.3950   63.3530 
3089.5000 -999.0000 -999.0000   -1.2950 -999.0000    0.3030    2.0240 -999.0000   21.3160 -999.0000   21.4450   22.4490   23.8920   93.8980    2.2340    0.2082    0.7426    0.2769    8.5000   93.8980 -999.0000    0.0980    2.0240    2.2340   -1.2950    0.3030    8.5000    0.3030    2.0240    0.0980   93.8980 -999.0000 
3090.0000 -999.0000 -999.0000    1.2670 -999.0000    0.3100    2.0190 -999.0000   21.1040 -999.0000   21.2250   22.1760   23.5250   94.4860    2.2340    0.2052    0.7428    0.2958    8.5000   94.4860 -999.0000    0.0970    2.0190    2.2340    1.2670    0.3100    8.5000    0.3100    2.0190    0.0970   94.4860 -999.0000 
3090.5000 -999.0000 -999.0000    2.9430 -999.0000    0.3180    2.0070 -999.0000   22.0150 -999.0000   22.1350   23.0880   24.4260   94.6660    2.2300    0.2049    0.7195    0.3116    8.5000   94.6660 -999.0000    0.0930    2.0070    2.2300    2.9430    0.3180    8.5000    0.3180    2.0070    0.0930   94.6660 -999.0000 
