~VERSION INFORMATION
 VERS.                 2.0:   CWLS LOG ASCII STANDARD - VERSION 2.0
 WRAP.                  NO:   SINGLE LINE PER DEPTH STEP
 CREA.                 9/4/2023 1:15:46 PM
#CREATED USING DSPetro VERSION 10ep.4.05.01 BY C4372838 ON 9/4/2023 1:15:46 PM
~WELL INFORMATION
#MNEM.UNIT       DATA                          DESCRIPTION MNEMONIC
#---------      ---------------------------   --------------------------
 STRT    .FT        2741.0000                 : START DEPTH
 STOP    .FT        3159.5000                 : STOP DEPTH
 STEP    .FT        0.5000                    : STEP VALUE
 NULL    .      -999.0000                     : NULL VALUE
 DATE    .      9/4/2023                      : LAS file Creation Date
 WELL   .      ABANICO-34              : Well Name
 COMP   .      PACIFIC RUBIALES ENERGY : Company
 FLD    .      ABANICO                 : Field
 STATE  .      UNKNOWN                 : State
 COUNT  .      COLOMBIA                : Country
 API    .      ABAN0034                : API Number
 UWI    .      ABAN0034                : Unique Well Identifier (UWI)
 LOC    .      N                       : Location
 EPDAT  .      1017.000                : Elevation of Permanent Datum
 GL     .      1017.000                : GL Elevation
 RWS    .      -999                    : Def_Rw
 WST    .      -999                    : Def_Rwt
 CNTY   .      TOLIMA                  : County
 PROV   .      UNKNOWN                 : Province
 SRVC   .      WEATHERFORD             : Contractor
 GDAT   .      WGS 84                  : Geodatum
 LONG   .      -74.873885111279        : Longitude
 LATI   .      4.22623405562507        : Latitude
 COORDIN.                              : Grid System
 XCOORD .      911584.313002           : X or East-West Coordinate
 YCOORD .      959134.088873           : Y or North-South Coordinate
~CURVE INFORMATION
#MNEM                 UNIT       API CODE   Curve Type Comments
#----------     --------------- ----------  ---------- -----------
 DEPTH         .FT                        : Depth       
 GRGC          .GAPI                      : GammaRay    Gamma Ray
 GRGC          .GAPI                      : GammaRay    Gamma Ray
 SP            .MV                        : SP          Spontaneous Potential
 K_CORE_2023   .                          :             
 NPRS          .V/V                       :             Sandstone Neutron Por.
 PDPE          .B/E                       : PEF         PE
 POR_CORE_2023 .                          :             
 R85O          .OHMM                      :             Array Ind One Res 85
 R60O          .OHMM                      :             Array Ind One Res 60
 R40O          .OHMM                      :             Array Ind One Res 40
 R30O          .OHMM                      :             Array Ind One Res 30
 R20O          .OHMM                      :             Array Ind One Res 20
 DT46          .US/F                      : Sonic       4-6' Compensated Sonic
 DEN           .G/C3                      : Density     Compensated Density
 PHIE          .Dec                       : Phi         
 SWT           .Dec                       : Sw          
 VCLmix        .Dec                       : Vcl         
 BS            .inches                    : BitSize     Bit size
 DTCO          .US/F                      : Sonic       4-6' Compensated Sonic
 GR            .GAPI                      : GammaRay    Gamma Ray
 HDRA          .G/C3                      : Drho        Density Correction
 PEFZ          .B/E                       : PEF         PE
 RHOZ          .G/C3                      : Density     Compensated Density
 SP            .MV                        : SP          Spontaneous Potential
 TNPH          .V/V                       : Neutron     Neutron Posrosity
 BS            .inches                    : BitSize     Bit size
 NPHI          .V/V                       : Neutron     Neutron Posrosity
 PEF           .B/E                       : PEF         PE
 DRHO          .G/C3                      : Drho        Density Correction
 DT            .US/F                      : Sonic       4-6' Compensated Sonic
 GR            .GAPI                      : GammaRay    Gamma Ray
~A  DEPTH    GRGC      GRGC       SP    K_CORE_2~    NPRS      PDPE   POR_CORE~    R85O      R60O      R40O      R30O      R20O      DT46      DEN       PHIE      SWT      VCLmix      BS       DTCO       GR       HDRA      PEFZ      RHOZ       SP       TNPH       BS       NPHI      PEF       DRHO       DT        GR    
# ...
2978.5000   61.0440   61.0440  -23.4880 -999.0000    0.3200    2.0500 -999.0000   63.1640 -999.0000   60.1700   61.5560   64.5540   89.6970    2.2210    0.2216    0.2886    0.2365    8.5000   89.6970   61.0440    0.0710    2.0500    2.2210  -23.4880    0.3200    8.5000    0.3200    2.0500    0.0710   89.6970   61.0440 
2979.0000   59.6030   59.6030  -23.2180 -999.0000    0.3220    2.0680 -999.0000   59.9650 -999.0000   57.3940   58.6840   61.4800   91.1590    2.2150    0.2260    0.3419    0.2339    8.5000   91.1590   59.6030    0.0700    2.0680    2.2150  -23.2180    0.3220    8.5000    0.3220    2.0680    0.0700   91.1590   59.6030 
2979.5000   59.4830   59.4830  -23.0150 -999.0000    0.3240    2.1270 -999.0000   54.7030 -999.0000   52.6240   53.8030   56.3370   93.1380    2.2090    0.2303    0.3869    0.2313    8.5000   93.1380   59.4830    0.0670    2.1270    2.2090  -23.0150    0.3240    8.5000    0.3240    2.1270    0.0670   93.1380   59.4830 
2980.0000   60.1540   60.1540  -22.8810 -999.0000    0.3240    2.1580 -999.0000   44.9220 -999.0000   43.4340   44.3730   46.4120   94.2240    2.2070    0.2325    0.4603    0.2291    8.5000   94.2240   60.1540    0.0640    2.1580    2.2070  -22.8810    0.3240    8.5000    0.3240    2.1580    0.0640   94.2240   60.1540 
2980.5000   59.9510   59.9510  -22.8640 -999.0000    0.3230    2.1420 -999.0000   44.7880 -999.0000   43.5100   44.4610   46.4900   93.6710    2.2060    0.2336    0.4617    0.2258    8.5000   93.6710   59.9510    0.0630    2.1420    2.2060  -22.8640    0.3230    8.5000    0.3230    2.1420    0.0630   93.6710   59.9510 
2981.0000   60.1570   60.1570  -22.8100 -999.0000    0.3200    2.0880 -999.0000   47.2030 -999.0000   46.0980   47.0980   49.2250   92.1150    2.2080    0.2328    0.4470    0.2218    8.5000   92.1150   60.1570    0.0640    2.0880    2.2080  -22.8100    0.3200    8.5000    0.3200    2.0880    0.0640   92.1150   60.1570 
2981.5000   61.1400   61.1400  -22.5810 -999.0000    0.3160    2.0430 -999.0000   46.3160 -999.0000   45.4380   46.4160   48.4830   90.7660    2.2150    0.2289    0.4595    0.2213    8.5000   90.7660   61.1400    0.0670    2.0430    2.2150  -22.5810    0.3160    8.5000    0.3160    2.0430    0.0670   90.7660   61.1400 
2982.0000   62.6640   62.6640  -22.4050 -999.0000    0.3120    2.0310 -999.0000   42.5080 -999.0000   41.9050   42.8430   44.7720   90.5030    2.2240    0.2238    0.4961    0.2231    8.5000   90.5030   62.6640    0.0710    2.0310    2.2240  -22.4050    0.3120    8.5000    0.3120    2.0310    0.0710   90.5030   62.6640 
2982.5000   63.2320   63.2320  -22.0350 -999.0000    0.3120    2.0300 -999.0000   39.3270 -999.0000   38.9700   39.8280   41.5980   91.4860    2.2270    0.2218    0.5242    0.2265    8.5000   91.4860   63.2320    0.0720    2.0300    2.2270  -22.0350    0.3120    8.5000    0.3120    2.0300    0.0720   91.4860   63.2320 
2983.0000   61.0940   61.0940  -21.6930  511.0000    0.3130    2.0280    0.2811   36.1310 -999.0000   35.9650   36.7920   38.4490   93.2260    2.2230    0.2247    0.5493    0.2241    8.5000   93.2260   61.0940    0.0740    2.0280    2.2230  -21.6930    0.3130    8.5000    0.3130    2.0280    0.0740   93.2260   61.0940 
2983.5000   57.8280   57.8280  -21.0720 -999.0000    0.3130    2.0270 -999.0000   32.4180 -999.0000   32.4290   33.1990   34.7160   94.6350    2.2170    0.2295    0.5803    0.2173    8.5000   94.6350   57.8280    0.0780    2.0270    2.2170  -21.0720    0.3130    8.5000    0.3130    2.0270    0.0780   94.6350   57.8280 
2984.0000   54.7120   54.7120  -20.7680 -999.0000    0.3150    2.0290 -999.0000   29.4960 -999.0000   29.6060   30.3160   31.7060   94.9990    2.2140    0.2347    0.6072    0.2060    8.5000   94.9990   54.7120    0.0820    2.0290    2.2140  -20.7680    0.3150    8.5000    0.3150    2.0290    0.0820   94.9990   54.7120 
2984.5000   53.1080   53.1080  -20.5670 -999.0000    0.3210    2.0340 -999.0000   28.0680 -999.0000   28.2710   29.0020   30.3830   94.5590    2.2150    0.2446    0.6187    0.1752    8.5000   94.5590   53.1080    0.0830    2.0340    2.2150  -20.5670    0.3210    8.5000    0.3210    2.0340    0.0830   94.5590   53.1080 
2985.0000   52.9540   52.9540  -20.4190 -999.0000    0.3290    2.0480 -999.0000   27.6710 -999.0000   27.9770   28.7080   30.0850   94.0520    2.2180    0.2465    0.6210    0.1722    8.5000   94.0520   52.9540    0.0820    2.0480    2.2180  -20.4190    0.3290    8.5000    0.3290    2.0480    0.0820   94.0520   52.9540 
2985.5000   52.3070   52.3070  -19.9150 -999.0000    0.3360    2.0670 -999.0000   26.2350 -999.0000   26.6110   27.3480   28.7010   94.1900    2.2160    0.2530    0.6317    0.1597    8.5000   94.1900   52.3070    0.0790    2.0670    2.2160  -19.9150    0.3360    8.5000    0.3360    2.0670    0.0790   94.1900   52.3070 
2986.0000   51.1520   51.1520  -18.9430 -999.0000    0.3390    2.0800 -999.0000   23.8870 -999.0000   24.3140   25.0220   26.2960   94.5990    2.2100    0.2630    0.6536    0.1375    8.5000   94.5990   51.1520    0.0780    2.0800    2.2100  -18.9430    0.3390    8.5000    0.3390    2.0800    0.0780   94.5990   51.1520 
2986.5000   50.8350   50.8350  -17.3110 -999.0000    0.3380    2.0820 -999.0000   21.5170 -999.0000   21.9690   22.6160   23.7730   94.4830    2.1980    0.2696    0.6791    0.1314    8.5000   94.4830   50.8350    0.0830    2.0820    2.1980  -17.3110    0.3380    8.5000    0.3380    2.0820    0.0830   94.4830   50.8350 
2987.0000   51.3320   51.3320  -15.1470 -999.0000    0.3360    2.0800 -999.0000   20.6960 -999.0000   21.1810   21.8390   22.9850   93.7370    2.1900    0.2696    0.6881    0.1410    8.5000   93.7370   51.3320    0.0950    2.0800    2.1900  -15.1470    0.3360    8.5000    0.3360    2.0800    0.0950   93.7370   51.3320 
2987.5000   53.7640   53.7640  -12.5020  243.0000    0.3350    2.0900    0.2751   20.0540 -999.0000   20.5680   21.2090   22.3150   92.4980    2.1880    0.2574    0.7025    0.1878    8.5000   92.4980   53.7640    0.1060    2.0900    2.1880  -12.5020    0.3350    8.5000    0.3350    2.0900    0.1060   92.4980   53.7640 
2988.0000   58.0090   58.0090   -8.8150 -999.0000    0.3370    2.1600 -999.0000   19.1290 -999.0000   19.6410   20.2640   21.3180   91.5500    2.1900    0.2441    0.7234    0.2371    8.5000   91.5500   58.0090    0.1070    2.1600    2.1900   -8.8150    0.3370    8.5000    0.3370    2.1600    0.1070   91.5500   58.0090 
2988.5000   66.7340   66.7340   -2.9650 -999.0000    0.3360    2.2510 -999.0000   17.1040 -999.0000   17.5680   18.1300   19.0630   90.9160    2.2080    0.2334    0.7863    0.2427    8.5000   90.9160   66.7340    0.0990    2.2510    2.2080   -2.9650    0.3360    8.5000    0.3360    2.2510    0.0990   90.9160   66.7340 
2989.0000   79.8150   79.8150    4.4450 -999.0000    0.3310    2.3700 -999.0000   13.0050 -999.0000   13.3550   13.7740   14.4610   89.6630    2.2380    0.2142    0.9350    0.2651    8.5000   89.6630   79.8150    0.0940    2.3700    2.2380    4.4450    0.3310    8.5000    0.3310    2.3700    0.0940   89.6630   79.8150 
2989.5000   91.4890   91.4890   13.9710 -999.0000    0.3270    2.4860 -999.0000    9.4150 -999.0000    9.6550    9.9580   10.4430   87.7310    2.2860    0.1582    1.0000    0.4178    8.5000   87.7310   91.4890    0.1030    2.4860    2.2860   13.9710    0.3270    8.5000    0.3270    2.4860    0.1030   87.7310   91.4890 
2990.0000   96.0470   96.0470   21.4660 -999.0000    0.3250    2.5220 -999.0000    5.9670 -999.0000    6.1070    6.2940    6.5870   86.5440    2.3370    0.1170    1.0000    0.4869    8.5000   86.5440   96.0470    0.1230    2.5220    2.3370   21.4660    0.3250    8.5000    0.3250    2.5220    0.1230   86.5440   96.0470 
2990.5000   87.5350   87.5350   24.3520 -999.0000    0.3290    2.4880 -999.0000    6.1530 -999.0000    6.2810    6.4670    6.7520   87.2930    2.3490    0.1053    1.0000    0.5152    8.5000   87.2930   87.5350    0.1310    2.4880    2.3490   24.3520    0.3290    8.5000    0.3290    2.4880    0.1310   87.2930   87.5350 
