~VERSION INFORMATION
 VERS.                 2.0:   CWLS LOG ASCII STANDARD - VERSION 2.0
 WRAP.                  NO:   SINGLE LINE PER DEPTH STEP
 CREA.                 9/4/2023 1:15:45 PM
#CREATED USING DSPetro VERSION 10ep.4.05.01 BY C4372838 ON 9/4/2023 1:15:45 PM
~WELL INFORMATION
#MNEM.UNIT       DATA                          DESCRIPTION MNEMONIC
#---------      ---------------------------   --------------------------
 STRT    .FT        2599.0000                 : START DEPTH
 STOP    .FT        3150.0000                 : STOP DEPTH
 STEP    .FT        0.5000                    : STEP VALUE
 NULL    .      -999.0000                     : NULL VALUE
 DATE    .      9/4/2023                      : LAS file Creation Date
 WELL   .      ABANICO-19                   : Well Name
 COMP   .      Kappa Resources Colombia,Ltd : Company
 FLD    .      UNKNOWN                      : Field
 STATE  .      UNKNOWN                      : State
 COUNT  .      Colombia                     : Country
 UWI    .      ABAN0019                     : Unique Well Identifier (UWI)
 LOC    .      UNKNOWN                      : Location
 PDAT   .      GROUND LEVEL                 : Permanent Datum
 EPDAT  .      1039.000000                  : Elevation of Permanent Datum
 LGMEA  .      DRILL FLOOR                  : Log Measured from
 APDAT  .      12.000000                    : Elevation Above Permanent Datum
 KB     .      1052.00000                   : KB Elevation
 DF     .      1051.00000                   : DF Elevation
 RWS    .      -999                         : Def_Rw
 WST    .      -999                         : Def_Rwt
 CNTY   .      UNKNOWN                      : County
 PROV   .      TOLIMA                       : Province
 SRVC   .      UNKNOWN                      : Contractor
 GDAT   .      WGS 84                       : Geodatum
 LONG   .      0.252833333280351            : Longitude
 LATI   .      0.26609722243415             : Latitude
 COORDIN.                                   : Grid System
 XCOORD .      910201.721945                : X or East-West Coordinate
 YCOORD .      958010.866493                : Y or North-South Coordinate
~CURVE INFORMATION
#MNEM                 UNIT       API CODE   Curve Type Comments
#----------     --------------- ----------  ---------- -----------
 DEPTH         .FT                        : Depth       
 GRGC          .API                       : GammaRay    GR:UNKNOWN:r1:0001:v1
 GRGC          .API                       : GammaRay    GR:UNKNOWN:r1:0001:v1
 HCGR          .GAPI                      :             HNGS Computed Gamma Ray {F13.2}
 SP            .MV                        : SP          Spontaneous Potential {F13.2}
 K_CORE_2023   .                          :             
 PDPE          .B/E                       : PEF         PEFZ:UNKNOWN:rC:NONE:v0 (auto-composite)
 POR_CORE_2023 .                          :             
 DEN           .g/cm3                     : Density     RHOZ:UNKNOWN:rC:NONE:v0 (auto-composite)
 PHIE          .Dec                       : Phi         
 SWT           .Dec                       : Sw          
 VCLmix        .Dec                       : Vcl         
 DCAL          .IN                        :             Differential Caliper {F13.2}
 AHT20         .OHMM                      : MedRes      Array Induction Two Foot Resistivity A20 {F13.2}
 AHT10         .OHMM                      : ShalRes     Array Induction Two Foot Resistivity A10 {F13.2}
 AHT30         .OHMM                      : MedRes      Array Induction Two Foot Resistivity A30 {F13.2}
 AHT60         .ohm.m                     : MedRes      AHT60:UNKNOWN:rC:NONE:v0 (auto-composite)
 AHT90         .ohm.m                     : DeepRes     AHT90:UNKNOWN:rC:NONE:v0 (auto-composite)
 BS            .IN                        : BitSize     Bit Size {F13.2}
 DTCO          .us/ft                     : Sonic       DTCO:UNKNOWN:rC:NONE:v0 (auto-composite)
 GR            .API                       : GammaRay    GR:UNKNOWN:rC:NONE:v0 (auto-composite)
 HCAL          .inch                      : Caliper     HCAL:UNKNOWN:rC:NONE:v0 (auto-composite)
 HDRA          .G/C3                      : Drho        HRDD Density Correction {F13.2}
 HTHO          .PPM                       :             HNGS Formation Thorium Concentration {F13.2}
 HTPR          .                          :             HNGS Thorium/Potassium Ratio {F13.2}
 HTUR          .                          :             HNGS Thorium/Uranium Ratio {F13.2}
 HUPR          .                          :             HNGS Uranium/Potassium Ratio {F13.2}
 HURA          .PPM                       :             HNGS Formation Uranium Concentration {F13.2}
 PEFZ          .B/E                       : PEF         PEFZ:UNKNOWN:rC:NONE:v0 (auto-composite)
 RHOZ          .g/cm3                     : Density     RHOZ:UNKNOWN:rC:NONE:v0 (auto-composite)
 RXOZ          .OHMM                      : MicroRes    MCFL Standard Resolution Invaded Zone Resistivity {F13.2}
 SP            .MV                        : SP          Spontaneous Potential {F13.2}
 TNPH          .dec                       : Neutron     TNPH:UNKNOWN:rC:NONE:v0 (auto-composite)
 CALI          .inch                      : Caliper     C1:UNKNOWN:rC:NONE:v0 (auto-composite)
 BS            .IN                        : BitSize     Bit Size {F13.2}
 HDRS          .ohm.m                     : DeepRes     Lateralog Deep Resistivity, ohmm
 NPHI          .dec                       : Neutron     TNPH:UNKNOWN:rC:NONE:v0 (auto-composite)
 PEF           .B/E                       : PEF         PEFZ:UNKNOWN:rC:NONE:v0 (auto-composite)
 CALI          .inch                      : Caliper     C1:UNKNOWN:rC:NONE:v0 (auto-composite)
 DRHO          .G/C3                      : Drho        HRDD Density Correction {F13.2}
 DT            .us/ft                     : Sonic       DTCO:UNKNOWN:rC:NONE:v0 (auto-composite)
 GR            .API                       : GammaRay    GR:UNKNOWN:r1:0001:v1
 HDRS          .ohm.m                     : DeepRes     Lateralog Deep Resistivity, ohmm
~A  DEPTH    GRGC      GRGC      HCGR       SP    K_CORE_2~    PDPE   POR_CORE~    DEN       PHIE      SWT      VCLmix     DCAL     AHT20     AHT10     AHT30     AHT60     AHT90       BS       DTCO       GR       HCAL      HDRA      HTHO      HTPR      HTUR      HUPR      HURA      PEFZ      RHOZ      RXOZ       SP       TNPH      CALI       BS       HDRS      NPHI      PEF       CALI      DRHO       DT        GR       HDRS   
# ...
3074.0000  206.8600  206.8600   27.8600   34.7500 -999.0000    2.4400 -999.0000    2.4500    0.2366    0.7331    0.0540   -0.1700   24.9700   27.2300   26.1300   30.0800   26.9400    8.5000   92.1312  206.8600    8.3278   -0.0100    5.2200    8.2700    0.2900   28.5200   17.9900    2.4400    2.4500   26.0600   34.7500    0.3300    8.3737    8.5000    1.4400    0.3300    2.4400    8.3737   -0.0100   92.1312  206.8600    1.4400 
3074.5000  202.1900  202.1900   26.0400   34.6300 -999.0000    2.3900 -999.0000    2.4500    0.2322    0.7459    0.0353   -0.1600   24.9600   27.5900   25.7000   31.2000   28.9100    8.5000   92.1312  202.1900    8.3431    0.0000    5.0000    8.8100    0.3100   28.0100   15.9000    2.3900    2.4500   21.6500   34.6300    0.3100    8.3737    8.5000    1.5800    0.3100    2.3900    8.3737    0.0000   92.1312  202.1900    1.5800 
3075.0000  182.7500  182.7500   25.5100   34.6300 -999.0000    2.3500 -999.0000    2.4500    0.2335    0.7438    0.0299   -0.1300   25.4200   27.5800   26.9700   32.9200   31.4800    8.5000   92.1312  182.7500    8.3661    0.0000    4.7100    7.9800    0.3200   24.8700   14.6700    2.3500    2.4500   18.5800   34.6300    0.3100    8.3737    8.5000    1.7200    0.3100    2.3500    8.3737    0.0000   92.1312  182.7500    1.7200 
3075.5000  167.7800  167.7800   24.0000   34.8100 -999.0000    2.3800 -999.0000    2.4400    0.2393    0.7362    0.0144   -0.1600   25.9400   27.2200   27.3700   33.3800   33.6000    8.5000   92.1312  167.7800    8.3355    0.0000    4.6000    8.7300    0.3300   26.8200   14.1100    2.3800    2.4400   16.8200   34.8100    0.3100    8.3126    8.5000    1.9450    0.3100    2.3800    8.3126    0.0000   92.1312  167.7800    1.9450 
3076.0000  149.5300  149.5300   26.3600   35.1300 -999.0000    2.4800 -999.0000    2.4300    0.2312    0.7793    0.0386   -0.2000   24.4200   25.4300   26.1500   33.3000   34.8900    8.5000   92.1312  149.5300    8.2971    0.0000    5.3200   10.0300    0.3900   25.6600   13.6200    2.4800    2.4300   21.4000   35.1300    0.3000    8.2759    8.5000    2.1700    0.3000    2.4800    8.2759    0.0000   92.1312  149.5300    2.1700 
3076.5000  149.2600  149.2600   26.1300   35.0600 -999.0000    2.6700 -999.0000    2.3900    0.2358    0.7932    0.0362   -0.2600   23.4000   23.7700   25.9900   34.0600   35.0500    8.5000   92.1312  149.2600    8.2358   -0.0100    5.4400   10.9400    0.4100   26.9500   13.4100    2.6700    2.3900   24.1400   35.0600    0.2900    8.1781    8.5000    2.2450    0.2900    2.6700    8.1781   -0.0100   92.1312  149.2600    2.2450 
3077.0000  152.0200  152.0200   30.2800   34.8100 -999.0000    2.8000 -999.0000    2.3600    0.2275    0.8368    0.0789   -0.2200   22.4500   21.8400   25.6800   35.1000   36.6300    8.5000   92.1312  152.0200    8.2780   -0.0100    6.3600   11.1900    0.4900   23.0500   13.0900    2.8000    2.3600   12.8900   34.8100    0.2800    8.2025    8.5000    2.3200    0.2800    2.8000    8.2025   -0.0100   92.1312  152.0200    2.3200 
3077.5000  159.8200  159.8200   32.5300   34.4400 -999.0000    2.8200 -999.0000    2.3600    0.2223    0.8685    0.1020   -0.2300   22.2400   20.5300   26.5700   34.8900   37.6400    8.5000   92.1312  159.8200    8.2741   -0.0100    6.9800   11.9100    0.5400   22.1900   12.9900    2.8200    2.3600    5.8700   34.4400    0.2800    8.1781    8.5000    2.4600    0.2800    2.8200    8.1781   -0.0100   92.1312  159.8200    2.4600 
3078.0000  173.6600  173.6600   36.3300   33.2500 -999.0000    2.7400 -999.0000    2.4000    0.2042    0.9219    0.1410   -0.2200   22.6800   19.9300   27.4100   35.1800   38.9100    8.5000   92.1312  173.6600    8.2818   -0.0100    7.4400   10.4100    0.5800   17.9100   12.7900    2.7400    2.4000    5.3800   33.2500    0.2800    8.2759    8.5000    2.6000    0.2800    2.7400    8.2759   -0.0100   92.1312  173.6600    2.6000 
3078.5000  180.1000  180.1000   36.2500   32.2500 -999.0000    2.6800 -999.0000    2.4700    0.1945    0.9528    0.1401   -0.1700   24.5400   20.1600   26.9700   34.9200   39.0900    8.5000   92.1312  180.1000    8.3278    0.0000    7.6700   11.4500    0.5900   19.3400   12.9500    2.6800    2.4700    7.4200   32.2500    0.2900    8.4104    8.5000    2.9750    0.2900    2.6800    8.4104    0.0000   92.1312  180.1000    2.9750 
3079.0000  189.6600  189.6600   36.9200   31.2500 -999.0000    2.7400 -999.0000    2.5100    0.1983    0.9097    0.1470   -0.0600   28.9900   21.4000   26.1800   32.1900   37.3700    8.5000   92.1312  189.6600    8.4351   -0.0100    7.7500   11.1800    0.6100   18.4700   12.8000    2.7400    2.5100   18.3500   31.2500    0.3200    8.4226    8.5000    3.3500    0.3200    2.7400    8.4226   -0.0100   92.1312  189.6600    3.3500 
3079.5000  185.8600  185.8600   36.4900   29.8100 -999.0000    2.8300 -999.0000    2.5300    0.1929    0.9156    0.1426   -0.0200   32.8000   22.2400   28.8300   34.2500   38.1400    8.5000   92.1312  185.8600    8.4811    0.0000    7.8500   12.0100    0.6100   19.5600   12.7800    2.8300    2.5300   21.2300   29.8100    0.3400    8.4226    8.5000    4.1700    0.3400    2.8300    8.4226    0.0000   92.1312  185.8600    4.1700 
3080.0000  181.4500  181.4500   37.9500   28.7500 -999.0000    2.9000 -999.0000    2.5200    0.1949    0.8887    0.1576   -0.0600   37.8900   22.9200   29.2100   34.3500   37.1900    8.5000   92.1312  181.4500    8.4351   -0.0100    8.2800   12.5700    0.6600   18.9600   12.4900    2.9000    2.5200   20.7700   28.7500    0.3400    8.4226    8.5000    4.9900    0.3400    2.9000    8.4226   -0.0100   92.1312  181.4500    4.9900 
3080.5000  171.9400  171.9400   39.3800   28.1300 -999.0000    2.8200 -999.0000    2.5100    0.1973    0.8899    0.1694   -0.1100   40.1500   22.0400   27.2300   33.3500   36.7700    8.5000   92.1312  171.9400    8.3930   -0.0100    8.4800   12.0600    0.6700   17.9100   12.5900    2.8200    2.5100   26.1700   28.1300    0.3300    8.4226    8.5000    4.8300    0.3300    2.8200    8.4226   -0.0100   92.1312  171.9400    4.8300 
3081.0000  166.9500  166.9500   40.2300   27.4400 -999.0000    2.6400 -999.0000    2.4900    0.1962    0.9272    0.1550   -0.1200   39.1300   20.6700   27.2900   35.7300   39.2400    8.5000   92.1312  166.9500    8.3815   -0.0100    8.6000   11.7900    0.6900   17.0300   12.4200    2.6400    2.4900   28.5000   27.4400    0.3100    8.4226    8.5000    4.6700    0.3100    2.6400    8.4226   -0.0100   92.1312  166.9500    4.6700 
3081.5000  158.1400  158.1400   40.5500   26.7500 -999.0000    2.4600 -999.0000    2.4900    0.1952    0.9762    0.1406   -0.1800   35.9700   18.9700   26.5600   35.4300   35.8400    8.5000   92.1312  158.1400    8.3240   -0.0100    8.4600   11.0000    0.6800   16.0600   12.3600    2.4600    2.4900   28.6700   26.7500    0.3000    8.4226    8.5000    4.7000    0.3000    2.4600    8.4226   -0.0100   92.1312  158.1400    4.7000 
3082.0000  146.6600  146.6600   42.5100   26.6300 -999.0000    2.4000 -999.0000    2.4900    0.1861    1.0000    0.1381   -0.2100   31.7700   17.6900   25.4000   32.8600   32.4800    8.5000   92.1312  146.6600    8.2895   -0.0100    8.7400   10.5600    0.7200   14.5700   12.0700    2.4000    2.4900   28.3600   26.6300    0.2800    8.3737    8.5000    4.7300    0.2800    2.4000    8.3737   -0.0100   92.1312  146.6600    4.7300 
3082.5000  132.2700  132.2700   42.0200   26.5000 -999.0000    2.4300 -999.0000    2.4900    0.1816    1.0000    0.1354   -0.2300   28.4500   16.7100   24.4500   30.5600   29.3400    8.5000   92.1312  132.2700    8.2665   -0.0100    8.4600    9.9500    0.7000   14.2300   12.1000    2.4300    2.4900   26.8200   26.5000    0.2700    8.3737    8.5000    4.7300    0.2700    2.4300    8.3737   -0.0100   92.1312  132.2700    4.7300 
3083.0000  125.3800  125.3800   41.9600   26.4400 -999.0000    2.4600 -999.0000    2.4800    0.1786    1.0000    0.1342   -0.2600   27.3600   16.5200   25.0400   29.2700   29.1700    8.5000   92.1312  125.3800    8.2358   -0.0100    8.4500    9.9500    0.7000   14.2300   12.0800    2.4600    2.4800   27.9100   26.4400    0.2600    8.3737    8.5000    4.7300    0.2600    2.4600    8.3737   -0.0100   92.1312  125.3800    4.7300 
