~VERSION INFORMATION
 VERS.                 2.0:   CWLS LOG ASCII STANDARD - VERSION 2.0
 WRAP.                  NO:   SINGLE LINE PER DEPTH STEP
 CREA.                 9/4/2023 1:15:45 PM
#CREATED USING DSPetro VERSION 10ep.4.05.01 BY C4372838 ON 9/4/2023 1:15:45 PM
~WELL INFORMATION
#MNEM.UNIT       DATA                          DESCRIPTION MNEMONIC
#---------      ---------------------------   --------------------------
 STRT    .FT        2599.0000                 : START DEPTH
 STOP    .FT        3150.0000                 : STOP DEPTH
 STEP    .FT        0.5000                    : STEP VALUE
 NULL    .      -999.0000                     : NULL VALUE
 DATE    .      9/4/2023                      : LAS file Creation Date
 WELL   .      ABANICO-19                   : Well Name
 COMP   .      Kappa Resources Colombia,Ltd : Company
 FLD    .      UNKNOWN                      : Field
 STATE  .      UNKNOWN                      : State
 COUNT  .      Colombia                     : Country
 UWI    .      ABAN0019                     : Unique Well Identifier (UWI)
 LOC    .      UNKNOWN                      : Location
 PDAT   .      GROUND LEVEL                 : Permanent Datum
 EPDAT  .      1039.000000                  : Elevation of Permanent Datum
 LGMEA  .      DRILL FLOOR                  : Log Measured from
 APDAT  .      12.000000                    : Elevation Above Permanent Datum
 KB     .      1052.00000                   : KB Elevation
 DF     .      1051.00000                   : DF Elevation
 RWS    .      -999                         : Def_Rw
 WST    .      -999                         : Def_Rwt
 CNTY   .      UNKNOWN                      : County
 PROV   .      TOLIMA                       : Province
 SRVC   .      UNKNOWN                      : Contractor
 GDAT   .      WGS 84                       : Geodatum
 LONG   .      0.252833333280351            : Longitude
 LATI   .      0.26609722243415             : Latitude
 COORDIN.                                   : Grid System
 XCOORD .      910201.721945                : X or East-West Coordinate
 YCOORD .      958010.866493                : Y or North-South Coordinate
~CURVE INFORMATION
#MNEM                 UNIT       API CODE   Curve Type Comments
#----------     --------------- ----------  ---------- -----------
 DEPTH         .FT                        : Depth       
 GRGC          .API                       : GammaRay    GR:UNKNOWN:r1:0001:v1
 GRGC          .API                       : GammaRay    GR:UNKNOWN:r1:0001:v1
 HCGR          .GAPI                      :             HNGS Computed Gamma Ray {F13.2}
 SP            .MV                        : SP          Spontaneous Potential {F13.2}
 K_CORE_2023   .                          :             
 PDPE          .B/E                       : PEF         PEFZ:UNKNOWN:rC:NONE:v0 (auto-composite)
 POR_CORE_2023 .                          :             
 DEN           .g/cm3                     : Density     RHOZ:UNKNOWN:rC:NONE:v0 (auto-composite)
 PHIE          .Dec                       : Phi         
 SWT           .Dec                       : Sw          
 VCLmix        .Dec                       : Vcl         
 DCAL          .IN                        :             Differential Caliper {F13.2}
 AHT20         .OHMM                      : MedRes      Array Induction Two Foot Resistivity A20 {F13.2}
 AHT10         .OHMM                      : ShalRes     Array Induction Two Foot Resistivity A10 {F13.2}
 AHT30         .OHMM                      : MedRes      Array Induction Two Foot Resistivity A30 {F13.2}
 AHT60         .ohm.m                     : MedRes      AHT60:UNKNOWN:rC:NONE:v0 (auto-composite)
 AHT90         .ohm.m                     : DeepRes     AHT90:UNKNOWN:rC:NONE:v0 (auto-composite)
 BS            .IN                        : BitSize     Bit Size {F13.2}
 DTCO          .us/ft                     : Sonic       DTCO:UNKNOWN:rC:NONE:v0 (auto-composite)
 GR            .API                       : GammaRay    GR:UNKNOWN:rC:NONE:v0 (auto-composite)
 HCAL          .inch                      : Caliper     HCAL:UNKNOWN:rC:NONE:v0 (auto-composite)
 HDRA          .G/C3                      : Drho        HRDD Density Correction {F13.2}
 HTHO          .PPM                       :             HNGS Formation Thorium Concentration {F13.2}
 HTPR          .                          :             HNGS Thorium/Potassium Ratio {F13.2}
 HTUR          .                          :             HNGS Thorium/Uranium Ratio {F13.2}
 HUPR          .                          :             HNGS Uranium/Potassium Ratio {F13.2}
 HURA          .PPM                       :             HNGS Formation Uranium Concentration {F13.2}
 PEFZ          .B/E                       : PEF         PEFZ:UNKNOWN:rC:NONE:v0 (auto-composite)
 RHOZ          .g/cm3                     : Density     RHOZ:UNKNOWN:rC:NONE:v0 (auto-composite)
 RXOZ          .OHMM                      : MicroRes    MCFL Standard Resolution Invaded Zone Resistivity {F13.2}
 SP            .MV                        : SP          Spontaneous Potential {F13.2}
 TNPH          .dec                       : Neutron     TNPH:UNKNOWN:rC:NONE:v0 (auto-composite)
 CALI          .inch                      : Caliper     C1:UNKNOWN:rC:NONE:v0 (auto-composite)
 BS            .IN                        : BitSize     Bit Size {F13.2}
 HDRS          .ohm.m                     : DeepRes     Lateralog Deep Resistivity, ohmm
 NPHI          .dec                       : Neutron     TNPH:UNKNOWN:rC:NONE:v0 (auto-composite)
 PEF           .B/E                       : PEF         PEFZ:UNKNOWN:rC:NONE:v0 (auto-composite)
 CALI          .inch                      : Caliper     C1:UNKNOWN:rC:NONE:v0 (auto-composite)
 DRHO          .G/C3                      : Drho        HRDD Density Correction {F13.2}
 DT            .us/ft                     : Sonic       DTCO:UNKNOWN:rC:NONE:v0 (auto-composite)
 GR            .API                       : GammaRay    GR:UNKNOWN:r1:0001:v1
 HDRS          .ohm.m                     : DeepRes     Lateralog Deep Resistivity, ohmm
~A  DEPTH    GRGC      GRGC      HCGR       SP    K_CORE_2~    PDPE   POR_CORE~    DEN       PHIE      SWT      VCLmix     DCAL     AHT20     AHT10     AHT30     AHT60     AHT90       BS       DTCO       GR       HCAL      HDRA      HTHO      HTPR      HTUR      HUPR      HURA      PEFZ      RHOZ      RXOZ       SP       TNPH      CALI       BS       HDRS      NPHI      PEF       CALI      DRHO       DT        GR       HDRS   
# ...
2665.5000   42.5300   42.5300   22.1800   55.7500  309.0800    1.9700    0.2890    2.2300    0.2557    0.6702    0.1218   -0.1400    8.5300    8.2000    8.7700    9.7700    9.6600    8.5000   94.5698   42.5300    8.3585   -0.0100    2.5800    3.3500    1.7000    1.9700    1.5200    1.9700    2.2300    6.3200   55.7500    0.3100    8.2881    8.5000    4.1050    0.3100    1.9700    8.2881   -0.0100   94.5698   42.5300    4.1050 
2666.0000   41.6700   41.6700   20.4200   55.8100 -999.0000    1.9300 -999.0000    2.2300    0.2558    0.6518    0.1042    0.0200    9.2000    8.8700    9.7900   10.8100   10.3100    8.5000   93.9593   41.6700    8.5195   -0.0100    2.0500    2.6900    1.3100    2.0500    1.5700    1.9300    2.2300    6.5600   55.8100    0.3000    8.3981    8.5000    4.0700    0.3000    1.9300    8.3981   -0.0100   93.9593   41.6700    4.0700 
2666.5000   38.8400   38.8400   18.7900   55.8100  555.3300    1.8900    0.2960    2.2200    0.2573    0.6795    0.0879    0.0500    8.9000    8.2800    9.1900   10.0500    9.7200    8.5000   93.1374   38.8400    8.5501   -0.0100    1.6500    2.2200    0.9600    2.3100    1.7200    1.8900    2.2200    6.5500   55.8100    0.2800    8.4348    8.5000    3.9050    0.2800    1.8900    8.4348   -0.0100   93.1374   38.8400    3.9050 
2667.0000   38.9700   38.9700   20.5900   55.8100    3.2970    1.8600    0.3067    2.2100    0.2637    0.6699    0.1059    0.0700    8.4500    7.9300    8.5700    9.4000    9.0900    8.5000   90.5346   38.9700    8.5655   -0.0100    1.8600    2.3100    1.1200    2.0600    1.6600    1.8600    2.2100    5.8000   55.8100    0.3000    8.4470    8.5000    3.7400    0.3000    1.8600    8.4470   -0.0100   90.5346   38.9700    3.7400 
2667.5000   38.1100   38.1100   19.5800   55.5600  210.8100    1.8300    0.2880    2.2100    0.2649    0.6347    0.0958    0.0800    9.1100    8.8600    9.2800   10.1600    9.6800    8.5000   89.9112   38.1100    8.5808   -0.0100    1.8800    2.5200    1.1300    2.2300    1.6700    1.8300    2.2100    6.5700   55.5600    0.3000    8.4470    8.5000    3.5850    0.3000    1.8300    8.4470   -0.0100   89.9112   38.1100    3.5850 
2668.0000   37.4900   37.4900   17.7300   55.5600 -999.0000    1.8200 -999.0000    2.2100    0.2683    0.6091    0.0773    0.1100   10.1100    9.6100   10.3500   11.1600   11.1100    8.5000   89.2352   37.4900    8.6115   -0.0100    1.9000    2.9400    1.0800    2.7100    1.7500    1.8200    2.2100    7.6000   55.5600    0.3000    8.4226    8.5000    3.4300    0.3000    1.8200    8.4226   -0.0100   89.2352   37.4900    3.4300 
2668.5000   39.0100   39.0100   18.5000   55.6900 -999.0000    1.8300 -999.0000    2.2200    0.2631    0.6198    0.0850    0.1000   10.4300    9.5400   10.7100   11.2100   11.3300    8.5000   90.0078   39.0100    8.6000   -0.0100    2.0400    3.0800    1.0900    2.8300    1.8700    1.8300    2.2200    7.7600   55.6900    0.3000    8.4470    8.5000    3.3850    0.3000    1.8300    8.4470   -0.0100   90.0078   39.0100    3.3850 
2669.0000   43.9300   43.9300   19.9200   55.5600 -999.0000    1.8500 -999.0000    2.2300    0.2563    0.6308    0.0992    0.0700   10.2500    9.4800   10.3700   10.9400   11.3700    8.5000   91.3527   43.9300    8.5731   -0.0100    2.1900    3.0700    0.9700    3.1800    2.2700    1.8500    2.2300    6.8500   55.5600    0.3000    8.4226    8.5000    3.3400    0.3000    1.8500    8.4226   -0.0100   91.3527   43.9300    3.3400 
2669.5000   50.4400   50.4400   22.5800   55.5000  464.5900    1.8800    0.2940    2.2400    0.2500    0.6372    0.1258    0.1200   10.2000    9.3600   10.1100   10.9700   11.4500    8.5000   93.9504   50.4400    8.6191   -0.0100    2.3900    2.9000    0.9500    3.0600    2.5300    1.8800    2.2400    5.8300   55.5000    0.3100    8.4470    8.5000    3.1850    0.3100    1.8800    8.4470   -0.0100   93.9504   50.4400    3.1850 
2670.0000   55.2500   55.2500   25.7800   55.1300 -999.0000    1.9100 -999.0000    2.2500    0.2363    0.6494    0.1578    0.1200   10.3900    9.4800   10.0300   10.8900   10.9700    8.5000   94.2635   55.2500    8.6230   -0.0100    2.7500    2.9300    1.0300    2.8400    2.6700    1.9100    2.2500    6.3300   55.1300    0.3000    8.4470    8.5000    3.0300    0.3000    1.9100    8.4470   -0.0100   94.2635   55.2500    3.0300 
2670.5000   57.3600   57.3600   24.0400   55.1900  415.0600    1.9600    0.2690    2.2500    0.2391    0.6140    0.1404    0.1300   11.8200   10.6100   11.3100   12.0800   12.2000    8.5000   94.4747   57.3600    8.6268    0.0000    2.7300    3.2300    0.9000    3.5900    3.0300    1.9600    2.2500    6.1700   55.1900    0.3000    8.4715    8.5000    3.0100    0.3000    1.9600    8.4715    0.0000   94.4747   57.3600    3.0100 
2671.0000   56.8500   56.8500   21.4700   55.0000 -999.0000    2.0100 -999.0000    2.2400    0.2451    0.6022    0.1147    0.1400   12.4600   10.9700   12.2500   12.9900   12.9300    8.5000   93.5854   56.8500    8.6421    0.0000    2.5300    3.4200    0.8200    4.1600    3.0800    2.0100    2.2400    5.1500   55.0000    0.2900    8.4715    8.5000    2.9900    0.2900    2.0100    8.4715    0.0000   93.5854   56.8500    2.9900 
2671.5000   53.1500   53.1500   19.2200   55.1900    1.0040    2.0100    0.2426    2.2400    0.2466    0.5963    0.0922    0.0800   13.6700   11.4400   13.1900   14.2100   14.2300    8.5000   95.2964   53.1500    8.5770    0.0100    2.3200    3.5600    0.8300    4.3000    2.8100    2.0100    2.2400    5.2300   55.1900    0.2800    8.4715    8.5000    3.0750    0.2800    2.0100    8.4715    0.0100   95.2964   53.1500    3.0750 
2672.0000   46.7500   46.7500   17.5700   55.1300 -999.0000    1.9900 -999.0000    2.2500    0.2430    0.5888    0.0757    0.0100   13.8300   12.3500   13.7200   15.2400   15.3500    8.5000   95.1371   46.7500    8.5118    0.0100    2.1000    3.4900    0.8300    4.2200    2.5300    1.9900    2.2500    6.4200   55.1300    0.2700    8.4715    8.5000    3.1600    0.2700    1.9900    8.4715    0.0100   95.1371   46.7500    3.1600 
2672.5000   45.4300   45.4300   17.1800   55.1300 -999.0000    2.0000 -999.0000    2.2600    0.2403    0.5914    0.0718    0.1000   13.6700   12.5900   13.6200   15.0400   14.7400    8.5000   94.7702   45.4300    8.6000    0.0000    1.9900    3.3300    0.7500    4.4400    2.6500    2.0000    2.2600   11.4500   55.1300    0.2700    8.4715    8.5000    3.3300    0.2700    2.0000    8.4715    0.0000   94.7702   45.4300    3.3300 
2673.0000   43.2100   43.2100   17.3200   55.1300   13.3330    2.0600    0.3260    2.2600    0.2360    0.5666    0.0732    0.1200   14.4300   14.0600   15.0400   16.1000   15.9700    8.5000   94.7962   43.2100    8.6191    0.0000    1.9200    3.1100    0.7200    4.3400    2.6800    2.0600    2.2600   14.4300   55.1300    0.2600    8.4959    8.5000    3.5000    0.2600    2.0600    8.4959    0.0000   94.7962   43.2100    3.5000 
2673.5000   47.8900   47.8900   19.3400   55.0600  296.2700    2.0800    0.2770    2.2600    0.2306    0.5306    0.0934    0.0700   15.2200   15.8900   15.7000   16.9100   17.2600    8.5000   92.4244   47.8900    8.5655   -0.0100    2.0200    2.8300    0.7000    4.0400    2.8700    2.0800    2.2600   11.9000   55.0600    0.2600    8.4470    8.5000    3.5700    0.2600    2.0800    8.4470   -0.0100   92.4244   47.8900    3.5700 
2674.0000   49.0100   49.0100   18.5000   55.0000 -999.0000    2.0300 -999.0000    2.2700    0.2297    0.5726    0.0850   -0.1400   14.9400   14.1600   16.0500   16.9100   17.3700    8.5000   90.9936   49.0100    8.3585   -0.0100    1.7200    2.4000    0.5600    4.2600    3.0500    2.0300    2.2700   12.8100   55.0000    0.2600    8.2759    8.5000    3.6400    0.2600    2.0300    8.2759   -0.0100   90.9936   49.0100    3.6400 
2674.5000   48.5700   48.5700   19.9700   55.1300  218.4800    1.9600    0.2550    2.2700    0.2293    0.5565    0.0997   -0.1600   15.6000   14.5600   15.8100   16.8300   17.3500    8.5000   88.9962   48.5700    8.3431   -0.0100    2.2100    3.1100    0.7400    4.2300    3.0100    1.9600    2.2700   12.3400   55.1300    0.2700    8.2759    8.5000    3.6600    0.2700    1.9600    8.2759   -0.0100   88.9962   48.5700    3.6600 
