~VERSION INFORMATION
 VERS.                 2.0:   CWLS LOG ASCII STANDARD - VERSION 2.0
 WRAP.                  NO:   SINGLE LINE PER DEPTH STEP
 CREA.                 9/4/2023 1:15:45 PM
#CREATED USING DSPetro VERSION 10ep.4.05.01 BY C4372838 ON 9/4/2023 1:15:45 PM
~WELL INFORMATION
#MNEM.UNIT       DATA                          DESCRIPTION MNEMONIC
#---------      ---------------------------   --------------------------
 STRT    .FT        2599.0000                 : START DEPTH
 STOP    .FT        3150.0000                 : STOP DEPTH
 STEP    .FT        0.5000                    : STEP VALUE
 NULL    .      -999.0000                     : NULL VALUE
 DATE    .      9/4/2023                      : LAS file Creation Date
 WELL   .      ABANICO-19                   : Well Name
 COMP   .      Kappa Resources Colombia,Ltd : Company
 FLD    .      UNKNOWN                      : Field
 STATE  .      UNKNOWN                      : State
 COUNT  .      Colombia                     : Country
 UWI    .      ABAN0019                     : Unique Well Identifier (UWI)
 LOC    .      UNKNOWN                      : Location
 PDAT   .      GROUND LEVEL                 : Permanent Datum
 EPDAT  .      1039.000000                  : Elevation of Permanent Datum
 LGMEA  .      DRILL FLOOR                  : Log Measured from
 APDAT  .      12.000000                    : Elevation Above Permanent Datum
 KB     .      1052.00000                   : KB Elevation
 DF     .      1051.00000                   : DF Elevation
 RWS    .      -999                         : Def_Rw
 WST    .      -999                         : Def_Rwt
 CNTY   .      UNKNOWN                      : County
 PROV   .      TOLIMA                       : Province
 SRVC   .      UNKNOWN                      : Contractor
 GDAT   .      WGS 84                       : Geodatum
 LONG   .      0.252833333280351            : Longitude
 LATI   .      0.26609722243415             : Latitude
 COORDIN.                                   : Grid System
 XCOORD .      910201.721945                : X or East-West Coordinate
 YCOORD .      958010.866493                : Y or North-South Coordinate
~CURVE INFORMATION
#MNEM                 UNIT       API CODE   Curve Type Comments
#----------     --------------- ----------  ---------- -----------
 DEPTH         .FT                        : Depth       
 GRGC          .API                       : GammaRay    GR:UNKNOWN:r1:0001:v1
 GRGC          .API                       : GammaRay    GR:UNKNOWN:r1:0001:v1
 HCGR          .GAPI                      :             HNGS Computed Gamma Ray {F13.2}
 SP            .MV                        : SP          Spontaneous Potential {F13.2}
 K_CORE_2023   .                          :             
 PDPE          .B/E                       : PEF         PEFZ:UNKNOWN:rC:NONE:v0 (auto-composite)
 POR_CORE_2023 .                          :             
 DEN           .g/cm3                     : Density     RHOZ:UNKNOWN:rC:NONE:v0 (auto-composite)
 PHIE          .Dec                       : Phi         
 SWT           .Dec                       : Sw          
 VCLmix        .Dec                       : Vcl         
 DCAL          .IN                        :             Differential Caliper {F13.2}
 AHT20         .OHMM                      : MedRes      Array Induction Two Foot Resistivity A20 {F13.2}
 AHT10         .OHMM                      : ShalRes     Array Induction Two Foot Resistivity A10 {F13.2}
 AHT30         .OHMM                      : MedRes      Array Induction Two Foot Resistivity A30 {F13.2}
 AHT60         .ohm.m                     : MedRes      AHT60:UNKNOWN:rC:NONE:v0 (auto-composite)
 AHT90         .ohm.m                     : DeepRes     AHT90:UNKNOWN:rC:NONE:v0 (auto-composite)
 BS            .IN                        : BitSize     Bit Size {F13.2}
 DTCO          .us/ft                     : Sonic       DTCO:UNKNOWN:rC:NONE:v0 (auto-composite)
 GR            .API                       : GammaRay    GR:UNKNOWN:rC:NONE:v0 (auto-composite)
 HCAL          .inch                      : Caliper     HCAL:UNKNOWN:rC:NONE:v0 (auto-composite)
 HDRA          .G/C3                      : Drho        HRDD Density Correction {F13.2}
 HTHO          .PPM                       :             HNGS Formation Thorium Concentration {F13.2}
 HTPR          .                          :             HNGS Thorium/Potassium Ratio {F13.2}
 HTUR          .                          :             HNGS Thorium/Uranium Ratio {F13.2}
 HUPR          .                          :             HNGS Uranium/Potassium Ratio {F13.2}
 HURA          .PPM                       :             HNGS Formation Uranium Concentration {F13.2}
 PEFZ          .B/E                       : PEF         PEFZ:UNKNOWN:rC:NONE:v0 (auto-composite)
 RHOZ          .g/cm3                     : Density     RHOZ:UNKNOWN:rC:NONE:v0 (auto-composite)
 RXOZ          .OHMM                      : MicroRes    MCFL Standard Resolution Invaded Zone Resistivity {F13.2}
 SP            .MV                        : SP          Spontaneous Potential {F13.2}
 TNPH          .dec                       : Neutron     TNPH:UNKNOWN:rC:NONE:v0 (auto-composite)
 CALI          .inch                      : Caliper     C1:UNKNOWN:rC:NONE:v0 (auto-composite)
 BS            .IN                        : BitSize     Bit Size {F13.2}
 HDRS          .ohm.m                     : DeepRes     Lateralog Deep Resistivity, ohmm
 NPHI          .dec                       : Neutron     TNPH:UNKNOWN:rC:NONE:v0 (auto-composite)
 PEF           .B/E                       : PEF         PEFZ:UNKNOWN:rC:NONE:v0 (auto-composite)
 CALI          .inch                      : Caliper     C1:UNKNOWN:rC:NONE:v0 (auto-composite)
 DRHO          .G/C3                      : Drho        HRDD Density Correction {F13.2}
 DT            .us/ft                     : Sonic       DTCO:UNKNOWN:rC:NONE:v0 (auto-composite)
 GR            .API                       : GammaRay    GR:UNKNOWN:r1:0001:v1
 HDRS          .ohm.m                     : DeepRes     Lateralog Deep Resistivity, ohmm
~A  DEPTH    GRGC      GRGC      HCGR       SP    K_CORE_2~    PDPE   POR_CORE~    DEN       PHIE      SWT      VCLmix     DCAL     AHT20     AHT10     AHT30     AHT60     AHT90       BS       DTCO       GR       HCAL      HDRA      HTHO      HTPR      HTUR      HUPR      HURA      PEFZ      RHOZ      RXOZ       SP       TNPH      CALI       BS       HDRS      NPHI      PEF       CALI      DRHO       DT        GR       HDRS   
# ...
2903.0000   61.1000   61.1000   31.2300   53.6300 -999.0000    1.9500 -999.0000    2.2800    0.2341    1.0000    0.1418   -0.1800    6.9100    3.6200   11.9700   24.9900   25.3900    8.5000   90.4268   61.1000    8.3201   -0.0100    5.6500    7.6100    2.4900    3.0500    2.2700    1.9500    2.2800    2.6900   53.6300    0.2800    8.3859    8.5000    2.4900    0.2800    1.9500    8.3859   -0.0100   90.4268   61.1000    2.4900 
2903.5000   65.1200   65.1200   31.5100   52.6900    0.3290    1.9200    0.2026    2.2700    0.2338    1.0000    0.1444   -0.1800    6.9100    3.5900   11.9100   25.0500   26.8100    8.5000   79.9173   65.1200    8.3201   -0.0100    5.6700    7.5300    2.2100    3.4100    2.5700    1.9200    2.2700    2.5500   52.6900    0.2700    8.3737    8.5000    2.6950    0.2700    1.9200    8.3737   -0.0100   79.9173   65.1200    2.6950 
2904.0000   67.4800   67.4800   30.9400   52.8100    2.8510    1.9000    0.1650    2.2600    0.2388    1.0000    0.1392   -0.1800    6.5400    3.4600   10.6700   22.8400   23.3000    8.5000   80.2960   67.4800    8.3240   -0.0100    5.2600    6.6500    1.7000    3.9100    3.0900    1.9000    2.2600    2.3700   52.8100    0.2700    8.3859    8.5000    2.9000    0.2700    1.9000    8.3859   -0.0100   80.2960   67.4800    2.9000 
2904.5000   71.1800   71.1800   33.3300   52.4400 -999.0000    1.8900 -999.0000    2.2600    0.2356    1.0000    0.1556   -0.1600    6.2400    3.3500    9.7000   20.7900   20.9200    8.5000   80.3837   71.1800    8.3355   -0.0100    5.5600    6.3700    1.5700    4.0700    3.5400    1.8900    2.2600    2.3300   52.4400    0.2700    8.3737    8.5000    2.6650    0.2700    1.8900    8.3737   -0.0100   80.3837   71.1800    2.6650 
2905.0000   74.9300   74.9300   34.7100   52.1300 -999.0000    1.9000 -999.0000    2.2600    0.2355    1.0000    0.1369   -0.1700    6.1900    3.3200    9.6100   21.3600   20.5900    8.5000   80.7453   74.9300    8.3278   -0.0100    5.7400    6.2600    1.3800    4.5400    4.1600    1.9000    2.2600    2.3500   52.1300    0.2600    8.3859    8.5000    2.4300    0.2600    1.9000    8.3859   -0.0100   80.7453   74.9300    2.4300 
2905.5000   76.2800   76.2800   32.7800   52.0000    0.2390    1.9300    0.2293    2.2700    0.2294    1.0000    0.1283   -0.1800    6.5400    3.4200   10.4000   24.6900   25.8000    8.5000   81.0244   76.2800    8.3201   -0.0100    5.5300    6.5400    1.3100    5.0100    4.2400    1.9300    2.2700    2.4200   52.0000    0.2500    8.3737    8.5000    2.2200    0.2500    1.9300    8.3737   -0.0100   81.0244   76.2800    2.2200 
2906.0000   72.2100   72.2100   31.1300   51.6300 -999.0000    1.9500 -999.0000    2.2800    0.2234    1.0000    0.1384   -0.1900    7.2400    3.5800   12.2100   31.7800   34.5000    8.5000   82.1929   72.2100    8.3125   -0.0100    5.4200    7.0100    1.2700    5.5100    4.2600    1.9500    2.2800    2.5500   51.6300    0.2500    8.3737    8.5000    2.0100    0.2500    1.9500    8.3737   -0.0100   82.1929   72.2100    2.0100 
2906.5000   67.0800   67.0800   29.1800   51.2500 -999.0000    1.9500 -999.0000    2.2900    0.2226    1.0000    0.1235   -0.1900    7.8200    3.7200   13.9800   39.1700   49.5800    8.5000   89.8027   67.0800    8.3125   -0.0100    4.9000    6.4700    1.2700    5.0800    3.8500    1.9500    2.2900    2.6500   51.2500    0.2500    8.3859    8.5000    1.7550    0.2500    1.9500    8.3859   -0.0100   89.8027   67.0800    1.7550 
2907.0000   59.9700   59.9700   25.9000   50.6900 -999.0000    1.9300 -999.0000    2.2900    0.2287    1.0000    0.0941   -0.1800    7.5800    3.6500   12.9200   37.0500   56.9800    8.5000   84.5967   59.9700    8.3201   -0.0100    4.5000    6.9700    1.3100    5.3000    3.4200    1.9300    2.2900    2.7400   50.6900    0.2500    8.3859    8.5000    1.5000    0.2500    1.9300    8.3859   -0.0100   84.5967   59.9700    1.5000 
2907.5000   60.0900   60.0900   23.2600   50.3100  481.0000    1.9100    0.2564    2.2900    0.2336    1.0000    0.0704   -0.1800    6.5500    3.5000   10.0000   25.8200   52.2600    8.5000   85.0981   60.0900    8.3201   -0.0100    4.0400    6.9400    1.2800    5.4300    3.1600    1.9100    2.2900    2.7100   50.3100    0.2500    8.3737    8.5000    1.4100    0.2500    1.9100    8.3737   -0.0100   85.0981   60.0900    1.4100 
2908.0000   59.4500   59.4500   22.9200   49.8800 -999.0000    1.8900 -999.0000    2.2800    0.2380    1.0000    0.0674   -0.1900    5.8800    3.3700    8.3800   20.2800   52.0300    8.5000   92.4262   59.4500    8.3125   -0.0100    4.0500    7.2100    1.4100    5.1200    2.8700    1.8900    2.2800    2.5900   49.8800    0.2500    8.3737    8.5000    1.3200    0.2500    1.8900    8.3737   -0.0100   92.4262   59.4500    1.3200 
2908.5000   59.6800   59.6800   27.4900   49.2500 -999.0000    1.8500 -999.0000    2.2700    0.2334    1.0000    0.1083   -0.1800    5.8800    3.4500    8.3200   19.2800   58.0900    8.5000   93.1558   59.6800    8.3201   -0.0100    5.1900    8.4300    1.8500    4.5600    2.8100    1.8500    2.2700    2.4600   49.2500    0.2500    8.3737    8.5000    1.3000    0.2500    1.8500    8.3737   -0.0100   93.1558   59.6800    1.3000 
2909.0000   57.8300   57.8300   26.6400   48.6300 -999.0000    1.8400 -999.0000    2.2600    0.2427    1.0000    0.1007   -0.2000    6.2800    3.7000    9.1400   20.2200   60.2900    8.5000   94.0814   57.8300    8.2971   -0.0100    5.1200    8.7900    1.6900    5.1900    3.0200    1.8400    2.2600    2.2600   48.6300    0.2600    8.3737    8.5000    1.2800    0.2600    1.8400    8.3737   -0.0100   94.0814   57.8300    1.2800 
2909.5000   54.8900   54.8900   21.3500   48.0600 -999.0000    1.8400 -999.0000    2.2600    0.2560    1.0000    0.0533   -0.1900    6.7500    4.0100   10.0600   21.8000   55.6400    8.5000   95.7117   54.8900    8.3125   -0.0100    4.1200    8.9300    1.3400    6.6700    3.0800    1.8400    2.2600    2.2200   48.0600    0.2700    8.3737    8.5000    1.3400    0.2700    1.8400    8.3737   -0.0100   95.7117   54.8900    1.3400 
2910.0000   50.0900   50.0900   18.3200   47.2500  124.1400    1.8700    0.2081    2.2600    0.2580    1.0000    0.0262   -0.1900    6.7700    4.0900    9.3300   18.5600   44.4000    8.5000   97.2870   50.0900    8.3125   -0.0100    3.5200    8.7800    1.0800    8.1200    3.2500    1.8700    2.2600    2.3300   47.2500    0.2600    8.3981    8.5000    1.4000    0.2600    1.8700    8.3981   -0.0100   97.2870   50.0900    1.4000 
2910.5000   49.8500   49.8500   19.6900   46.6900 -999.0000    1.9200 -999.0000    2.2600    0.2554    1.0000    0.0384   -0.1800    6.1100    3.9200    7.5400   13.0600   30.8300    8.5000   97.3485   49.8500    8.3201   -0.0100    3.8300    9.0700    1.0600    8.5900    3.6200    1.9200    2.2600    2.4100   46.6900    0.2600    8.3981    8.5000    1.5300    0.2600    1.9200    8.3981   -0.0100   97.3485   49.8500    1.5300 
2911.0000   68.5700   68.5700   31.4600   45.8800 -999.0000    2.0200 -999.0000    2.2800    0.2300    1.0000    0.1439   -0.1600    6.0400    4.0100    6.9900   10.9800   20.8800    8.5000   96.9819   68.5700    8.3355   -0.0100    6.0900    8.9600    1.0200    8.7600    5.9600    2.0200    2.2800    2.4000   45.8800    0.2700    8.3859    8.5000    1.6600    0.2700    2.0200    8.3859   -0.0100   96.9819   68.5700    1.6600 
2911.5000  126.7000  126.7000   50.8700   44.4400 -999.0000    2.1700 -999.0000    2.3300    0.1943    1.0000    0.2635   -0.1500    9.0600    5.2000   11.1700   16.8500   27.1300    8.5000   96.0596  126.7000    8.3470   -0.0100    9.6200    8.4700    0.9400    8.9800   10.2000    2.1700    2.3300    2.9300   44.4400    0.2900    8.3859    8.5000    1.6550    0.2900    2.1700    8.3859   -0.0100   96.0596  126.7000    1.6550 
2912.0000  184.0800  184.0800   61.5800   42.5600 -999.0000    2.3500 -999.0000    2.3800    0.1647    1.0000    0.3325   -0.0800   18.0300    8.3800   26.9200   33.9500   43.0500    8.5000   95.2435  184.0800    8.4160   -0.0100   11.6400    8.4700    0.8700    9.7800   13.4500    2.3500    2.3800    4.5300   42.5600    0.3000    8.4226    8.5000    1.6500    0.3000    2.3500    8.4226   -0.0100   95.2435  184.0800    1.6500 
