~VERSION INFORMATION
 VERS.                 2.0:   CWLS LOG ASCII STANDARD - VERSION 2.0
 WRAP.                  NO:   SINGLE LINE PER DEPTH STEP
 CREA.                 9/4/2023 1:15:46 PM
#CREATED USING DSPetro VERSION 10ep.4.05.01 BY C4372838 ON 9/4/2023 1:15:46 PM
~WELL INFORMATION
#MNEM.UNIT       DATA                          DESCRIPTION MNEMONIC
#---------      ---------------------------   --------------------------
 STRT    .FT        2741.0000                 : START DEPTH
 STOP    .FT        3159.5000                 : STOP DEPTH
 STEP    .FT        0.5000                    : STEP VALUE
 NULL    .      -999.0000                     : NULL VALUE
 DATE    .      9/4/2023                      : LAS file Creation Date
 WELL   .      ABANICO-34              : Well Name
 COMP   .      PACIFIC RUBIALES ENERGY : Company
 FLD    .      ABANICO                 : Field
 STATE  .      UNKNOWN                 : State
 COUNT  .      COLOMBIA                : Country
 API    .      ABAN0034                : API Number
 UWI    .      ABAN0034                : Unique Well Identifier (UWI)
 LOC    .      N                       : Location
 EPDAT  .      1017.000                : Elevation of Permanent Datum
 GL     .      1017.000                : GL Elevation
 RWS    .      -999                    : Def_Rw
 WST    .      -999                    : Def_Rwt
 CNTY   .      TOLIMA                  : County
 PROV   .      UNKNOWN                 : Province
 SRVC   .      WEATHERFORD             : Contractor
 GDAT   .      WGS 84                  : Geodatum
 LONG   .      -74.873885111279        : Longitude
 LATI   .      4.22623405562507        : Latitude
 COORDIN.                              : Grid System
 XCOORD .      911584.313002           : X or East-West Coordinate
 YCOORD .      959134.088873           : Y or North-South Coordinate
~CURVE INFORMATION
#MNEM                 UNIT       API CODE   Curve Type Comments
#----------     --------------- ----------  ---------- -----------
 DEPTH         .FT                        : Depth       
 GRGC          .GAPI                      : GammaRay    Gamma Ray
 GRGC          .GAPI                      : GammaRay    Gamma Ray
 SP            .MV                        : SP          Spontaneous Potential
 K_CORE_2023   .                          :             
 NPRS          .V/V                       :             Sandstone Neutron Por.
 PDPE          .B/E                       : PEF         PE
 POR_CORE_2023 .                          :             
 R85O          .OHMM                      :             Array Ind One Res 85
 R60O          .OHMM                      :             Array Ind One Res 60
 R40O          .OHMM                      :             Array Ind One Res 40
 R30O          .OHMM                      :             Array Ind One Res 30
 R20O          .OHMM                      :             Array Ind One Res 20
 DT46          .US/F                      : Sonic       4-6' Compensated Sonic
 DEN           .G/C3                      : Density     Compensated Density
 PHIE          .Dec                       : Phi         
 SWT           .Dec                       : Sw          
 VCLmix        .Dec                       : Vcl         
 BS            .inches                    : BitSize     Bit size
 DTCO          .US/F                      : Sonic       4-6' Compensated Sonic
 GR            .GAPI                      : GammaRay    Gamma Ray
 HDRA          .G/C3                      : Drho        Density Correction
 PEFZ          .B/E                       : PEF         PE
 RHOZ          .G/C3                      : Density     Compensated Density
 SP            .MV                        : SP          Spontaneous Potential
 TNPH          .V/V                       : Neutron     Neutron Posrosity
 BS            .inches                    : BitSize     Bit size
 NPHI          .V/V                       : Neutron     Neutron Posrosity
 PEF           .B/E                       : PEF         PE
 DRHO          .G/C3                      : Drho        Density Correction
 DT            .US/F                      : Sonic       4-6' Compensated Sonic
 GR            .GAPI                      : GammaRay    Gamma Ray
~A  DEPTH    GRGC      GRGC       SP    K_CORE_2~    NPRS      PDPE   POR_CORE~    R85O      R60O      R40O      R30O      R20O      DT46      DEN       PHIE      SWT      VCLmix      BS       DTCO       GR       HDRA      PEFZ      RHOZ       SP       TNPH       BS       NPHI      PEF       DRHO       DT        GR    
# ...
2953.5000   72.4240   72.4240  -25.3330 -999.0000    0.2910    2.1140 -999.0000   82.4140 -999.0000   70.2680   71.3820   73.4100   91.8030    2.2480    0.2109    0.2491    0.1990    8.5000   91.8030   72.4240    0.0670    2.1140    2.2480  -25.3330    0.2910    8.5000    0.2910    2.1140    0.0670   91.8030   72.4240 
2954.0000   79.1340   79.1340  -24.6550 -999.0000    0.2940    2.0830 -999.0000   88.6710 -999.0000   75.4310   76.3150   78.0500   90.9540    2.2360    0.2187    0.2358    0.1920    8.5000   90.9540   79.1340    0.0670    2.0830    2.2360  -24.6550    0.2940    8.5000    0.2940    2.0830    0.0670   90.9540   79.1340 
2954.5000   97.5760   97.5760  -23.6850 -999.0000    0.2940    2.1320 -999.0000   91.6570 -999.0000   77.8760   78.5500   80.0000   90.0980    2.2340    0.2201    0.2326    0.1898    8.5000   90.0980   97.5760    0.0640    2.1320    2.2340  -23.6850    0.2940    8.5000    0.2940    2.1320    0.0640   90.0980   97.5760 
2955.0000  118.6070  118.6070  -22.6230   61.2000    0.2910    2.3040    0.1661   74.5120 -999.0000   63.2940   63.7290   64.7450   88.9760    2.2490    0.2103    0.2709    0.2001    8.5000   88.9760  118.6070    0.0550    2.3040    2.2490  -22.6230    0.2910    8.5000    0.2910    2.3040    0.0550   88.9760  118.6070 
2955.5000  124.7630  124.7630  -22.3030  589.0400    0.2900    2.4160    0.2748   73.1930 -999.0000   62.1680   62.5390   63.4560   88.1470    2.2730    0.1933    0.2897    0.2244    8.5000   88.1470  124.7630    0.0490    2.4160    2.2730  -22.3030    0.2900    8.5000    0.2900    2.4160    0.0490   88.1470  124.7630 
2956.0000  110.6190  110.6190  -23.0340 -999.0000    0.2910    2.3960 -999.0000  100.2470 -999.0000   85.1810   85.7360   87.0610   89.0070    2.2880    0.1822    0.3188    0.2429    8.5000   89.0070  110.6190    0.0530    2.3960    2.2880  -23.0340    0.2910    8.5000    0.2910    2.3960    0.0530   89.0070  110.6190 
2956.5000   87.6650   87.6650  -24.4560 -999.0000    0.2940    2.2410 -999.0000   86.9640 -999.0000   73.9440   74.5240   75.8220   91.1380    2.2820    0.1858    0.3142    0.2424    8.5000   91.1380   87.6650    0.0620    2.2410    2.2820  -24.4560    0.2940    8.5000    0.2940    2.2410    0.0620   91.1380   87.6650 
2957.0000   74.1680   74.1680  -25.6850 -999.0000    0.2940    2.1000 -999.0000   84.5130 -999.0000   71.8930   72.6210   74.1380   93.0940    2.2640    0.1976    0.2907    0.2307    8.5000   93.0940   74.1680    0.0730    2.1000    2.2640  -25.6850    0.2940    8.5000    0.2940    2.1000    0.0730   93.0940   74.1680 
2957.5000   72.7800   72.7800  -26.3230  790.0000    0.2920    2.0750    0.2489   85.5090 -999.0000   72.8040   73.7660   75.6480   93.6610    2.2520    0.2068    0.2655    0.2128    8.5000   93.6610   72.7800    0.0770    2.0750    2.2520  -26.3230    0.2920    8.5000    0.2920    2.0750    0.0770   93.6610   72.7800 
2958.0000   74.4790   74.4790  -26.5870 -999.0000    0.2880    2.0790 -999.0000   89.1940 -999.0000   76.0280   77.2560   79.6060   92.5140    2.2520    0.2079    0.2567    0.2044    8.5000   92.5140   74.4790    0.0770    2.0790    2.2520  -26.5870    0.2880    8.5000    0.2880    2.0790    0.0770   92.5140   74.4790 
2958.5000   75.6810   75.6810  -26.8030 -999.0000    0.2830    2.0860 -999.0000   93.6790 -999.0000   79.9840   81.5420   84.4720   91.0960    2.2530    0.2085    0.2473    0.1950    8.5000   91.0960   75.6810    0.0750    2.0860    2.2530  -26.8030    0.2830    8.5000    0.2830    2.0860    0.0750   91.0960   75.6810 
2959.0000   75.5850   75.5850  -27.1880  229.0000    0.2800    2.0850    0.2353   97.1400 -999.0000   83.0970   84.9650   88.4610   90.2700    2.2500    0.2115    0.2354    0.1853    8.5000   90.2700   75.5850    0.0740    2.0850    2.2500  -27.1880    0.2800    8.5000    0.2800    2.0850    0.0740   90.2700   75.5850 
2959.5000   74.7280   74.7280  -27.4240 -999.0000    0.2810    2.0790 -999.0000   98.1700 -999.0000   84.1480   86.2620   90.2220   89.8620    2.2460    0.2141    0.2309    0.1828    8.5000   89.8620   74.7280    0.0730    2.0790    2.2460  -27.4240    0.2810    8.5000    0.2810    2.0790    0.0730   89.8620   74.7280 
2960.0000   73.6570   73.6570  -27.4220 -999.0000    0.2840    2.0700 -999.0000   99.4190 -999.0000   85.4400   87.7890   92.1930   89.4030    2.2460    0.2133    0.2376    0.1891    8.5000   89.4030   73.6570    0.0730    2.0700    2.2460  -27.4220    0.2840    8.5000    0.2840    2.0700    0.0730   89.4030   73.6570 
2960.5000   72.6610   72.6610  -27.2480 -999.0000    0.2870    2.0690 -999.0000   99.7210 -999.0000   85.9630   88.4420   93.1340   88.8020    2.2510    0.2089    0.2528    0.2011    8.5000   88.8020   72.6610    0.0750    2.0690    2.2510  -27.2480    0.2870    8.5000    0.2870    2.0690    0.0750   88.8020   72.6610 
2961.0000   71.8110   71.8110  -27.1390 -999.0000    0.2890    2.0760 -999.0000   96.3950 -999.0000   83.3250   85.8330   90.5840   88.4590    2.2580    0.2033    0.2693    0.2133    8.5000   88.4590   71.8110    0.0780    2.0760    2.2580  -27.1390    0.2890    8.5000    0.2890    2.0760    0.0780   88.4590   71.8110 
2961.5000   71.8550   71.8550  -27.1090 -999.0000    0.2910    2.0880 -999.0000   94.4920 -999.0000   81.9250   84.4390   89.2130   88.4670    2.2650    0.1977    0.2860    0.2255    8.5000   88.4670   71.8550    0.0810    2.0880    2.2650  -27.1090    0.2910    8.5000    0.2910    2.0880    0.0810   88.4670   71.8550 
2962.0000   73.8680   73.8680  -27.2710 -999.0000    0.2920    2.1020 -999.0000   92.9210 -999.0000   80.7870   83.2670   87.9870   88.6330    2.2660    0.1967    0.2899    0.2287    8.5000   88.6330   73.8680    0.0780    2.1020    2.2660  -27.2710    0.2920    8.5000    0.2920    2.1020    0.0780   88.6330   73.8680 
2962.5000   76.4380   76.4380  -27.4130 -999.0000    0.2920    2.1150 -999.0000   96.1270 -999.0000   83.7800   86.3310   91.1920   88.6890    2.2630    0.1989    0.2846    0.2253    8.5000   88.6890   76.4380    0.0730    2.1150    2.2630  -27.4130    0.2920    8.5000    0.2920    2.1150    0.0730   88.6890   76.4380 
2963.0000   77.9040   77.9040  -27.6960 -999.0000    0.2880    2.1140 -999.0000   96.3090 -999.0000   84.1570   86.6520   91.4100   88.5260    2.2610    0.2014    0.2724    0.2146    8.5000   88.5260   77.9040    0.0680    2.1140    2.2610  -27.6960    0.2880    8.5000    0.2880    2.1140    0.0680   88.5260   77.9040 
2963.5000   77.6150   77.6150  -27.8560 -999.0000    0.2820    2.0970 -999.0000   96.2790 -999.0000   84.3030   86.7320   91.3470   88.3740    2.2580    0.2052    0.2537    0.1986    8.5000   88.3740   77.6150    0.0650    2.0970    2.2580  -27.8560    0.2820    8.5000    0.2820    2.0970    0.0650   88.3740   77.6150 
2964.0000   75.8310   75.8310  -27.8300 -999.0000    0.2810    2.0860 -999.0000   95.0460 -999.0000   83.4090   85.7120   90.0840   88.5030    2.2570    0.2062    0.2497    0.1953    8.5000   88.5030   75.8310    0.0640    2.0860    2.2570  -27.8300    0.2810    8.5000    0.2810    2.0860    0.0640   88.5030   75.8310 
2964.5000   74.2120   74.2120  -27.5000 -999.0000    0.2870    2.0960 -999.0000   94.0170 -999.0000   82.6720   84.8380   88.9370   88.9880    2.2570    0.2046    0.2632    0.2080    8.5000   88.9880   74.2120    0.0650    2.0960    2.2570  -27.5000    0.2870    8.5000    0.2870    2.0960    0.0650   88.9880   74.2120 
2965.0000   72.9130   72.9130  -27.2320 -999.0000    0.2950    2.1150 -999.0000   91.3120 -999.0000   80.4380   82.4370   86.2150   89.6730    2.2580    0.2017    0.2824    0.2259    8.5000   89.6730   72.9130    0.0660    2.1150    2.2580  -27.2320    0.2950    8.5000    0.2950    2.1150    0.0660   89.6730   72.9130 
2965.5000   72.5600   72.5600  -27.1860 -999.0000    0.2980    2.1390 -999.0000   88.6550 -999.0000   78.2370   80.0750   83.5240   90.2180    2.2570    0.2016    0.2871    0.2311    8.5000   90.2180   72.5600    0.0660    2.1390    2.2570  -27.1860    0.2980    8.5000    0.2980    2.1390    0.0660   90.2180   72.5600 
