~VERSION INFORMATION
 VERS.                 2.0:   CWLS LOG ASCII STANDARD - VERSION 2.0
 WRAP.                  NO:   SINGLE LINE PER DEPTH STEP
 CREA.                 9/4/2023 1:15:44 PM
#CREATED USING DSPetro VERSION 10ep.4.05.01 BY C4372838 ON 9/4/2023 1:15:44 PM
~WELL INFORMATION
#MNEM.UNIT       DATA                          DESCRIPTION MNEMONIC
#---------      ---------------------------   --------------------------
 STRT    .FT        2533.0000                 : START DEPTH
 STOP    .FT        3150.0000                 : STOP DEPTH
 STEP    .FT        0.5000                    : STEP VALUE
 NULL    .      -999.0000                     : NULL VALUE
 DATE    .      9/4/2023                      : LAS file Creation Date
 WELL   .      ABANICO-2                    : Well Name
 COMP   .      Kappa Resources Colombia,Ltd : Company
 FLD    .      UNKNOWN                      : Field
 STATE  .      UNKNOWN                      : State
 COUNT  .      Colombia                     : Country
 UWI    .      ABAN0002                     : Unique Well Identifier (UWI)
 LOC    .      UNKNOWN                      : Location
 RWS    .      -999                         : Def_Rw
 WST    .      -999                         : Def_Rwt
 CNTY   .      UNKNOWN                      : County
 PROV   .                                   : Province
 SRVC   .      UNKNOWN                      : Contractor
 GDAT   .      WGS 84                       : Geodatum
 LONG   .      0                            : Longitude
 LATI   .      0                            : Latitude
 COORDIN.                                   : Grid System
 XCOORD .      910597.860948                : X or East-West Coordinate
 YCOORD .      957980.305104                : Y or North-South Coordinate
~CURVE INFORMATION
#MNEM                 UNIT       API CODE   Curve Type Comments
#----------     --------------- ----------  ---------- -----------
 DEPTH         .FT                        : Depth       
 GRGC          .API                       : GammaRay    GR:UNKNOWN:r1:MAIN:v1
 GRGC          .API                       : GammaRay    GR:UNKNOWN:r1:MAIN:v1
 SP            .mV                        : SP          SP:UNKNOWN:r1:MAIN:v1
 K_CORE_2023   .                          :             
 PDPE          .b/elec                    : PEF         PEF:UNKNOWN:r1:MAIN:v1
 POR_CORE_2023 .                          :             
 DEN           .g/cm3                     : Density     RHOB:PETROPHYSIC:rC:NONE:v0 (auto-composite)
 PHIE          .Dec                       : Phi         
 SWT           .Dec                       : Sw          
 VCLmix        .Dec                       : Vcl         
 AHT60         .ohm.m                     : DeepRes     HDRS:UNKNOWN:r1:MAIN:v1
 BS            .inches                    : BitSize     BS:UNKNOWN:r1:MAIN:v1
 DTCO          .uSec/ft                   : Sonic       DT:UNKNOWN:rC:NONE:v0 (auto-composite)
 GR            .API                       : GammaRay    GR:PETROPHYSIC:rC:NONE:v0 (auto-composite)
 HDRA          .g/cm3                     : Drho        DRHO:UNKNOWN:r1:MAIN:v1
 PEFZ          .b/elec                    : PEF         PEF:UNKNOWN:r1:MAIN:v1
 RHOZ          .g/cm3                     : Density     RHOB:PETROPHYSIC:rC:NONE:v0 (auto-composite)
 RXOZ          .ohm.m                     : MicroRes    MSFL:UNKNOWN:r1:MAIN:v1
 SP            .mV                        : SP          SP:UNKNOWN:r1:MAIN:v1
 TNPH          .v/v_decimal               : Neutron     NPHI:UNKNOWN:r1:MAIN:v1
 CALI          .inches                    : Caliper     CALI:PETROPHYSIC:rC:NONE:v0 (auto-composite)
 BS            .inches                    : BitSize     BS:UNKNOWN:r1:MAIN:v1
 HDRS          .ohm.m                     : DeepRes     HDRS:PETROPHYSIC:rC:NONE:v0 (auto-composite)
 HMRS          .ohm.m                     :             HMRS:PETROPHYSIC:rC:NONE:v0 (auto-composite)
 NPHI          .v/v_decimal               : Neutron     NPHI:UNKNOWN:r1:MAIN:v1
 PEF           .b/elec                    : PEF         PEF:UNKNOWN:r1:MAIN:v1
 CALI          .inches                    : Caliper     CALI:UNKNOWN:r1:MAIN:v1
 DRHO          .g/cm3                     : Drho        DRHO:UNKNOWN:r1:MAIN:v1
 DT            .us/ft                     : Sonic       DT:UNKNOWN:r1:MAIN:v1
 GR            .API                       : GammaRay    GR:UNKNOWN:r1:MAIN:v1
 HDRS          .ohm.m                     : DeepRes     HDRS:UNKNOWN:r1:MAIN:v1
 HMRS          .UNKNOWN                   :             HMRS:UNKNOWN:r1:MAIN:v1
~A  DEPTH    GRGC      GRGC       SP    K_CORE_2~    PDPE   POR_CORE~    DEN       PHIE      SWT      VCLmix    AHT60       BS       DTCO       GR       HDRA      PEFZ      RHOZ      RXOZ       SP       TNPH      CALI       BS       HDRS      HMRS      NPHI      PEF       CALI      DRHO       DT        GR       HDRS      HMRS   
# ...
2820.5000   69.5885   69.5885  -67.5733 -999.0000    2.1200 -999.0000    2.2622    0.2306    0.2558    0.0642  142.1022    8.5000  104.5763   58.3744    0.0018    2.1200    2.2622  132.0145  -67.5733    0.2697 -999.0000    8.5000  142.1022  130.1362    0.2697    2.1200    9.8739    0.0018  100.5297   69.5885  142.1022  130.1362 
2821.0000   72.7030   72.7030  -67.0333 -999.0000    2.0717 -999.0000    2.2588    0.2276    0.2683    0.0720  131.1112    8.5000  107.1952   56.0431    0.0002    2.0717    2.2588  128.2894  -67.0333    0.2687 -999.0000    8.5000  131.1112  126.7567    0.2687    2.0717    9.8887    0.0002  104.4016   72.7030  131.1112  126.7567 
2821.5000   74.1497   74.1497  -66.5867 -999.0000    2.0295 -999.0000    2.2526    0.2270    0.2692    0.0785  126.8405    8.5000  108.6236   55.9141   -0.0010    2.0295    2.2526  132.2278  -66.5867    0.2702 -999.0000    8.5000  126.8405  110.5828    0.2702    2.0295    9.8979   -0.0010  107.0000   74.1497  126.8405  110.5828 
2822.0000   71.2011   71.2011  -65.7333 -999.0000    1.9985 -999.0000    2.2485    0.2215    0.2354    0.0908  135.9000    8.5000  110.5784   54.0067    0.0028    1.9985    2.2485  133.5919  -65.7333    0.2651 -999.0000    8.5000  135.9000   94.3257    0.2651    1.9985    9.8914    0.0028  110.7203   71.2011  135.9000   94.3257 
2822.5000   71.5052   71.5052  -64.5200   47.3000    1.9831    0.2500    2.2504    0.2135    0.1517    0.1084  170.5494    8.5000  107.6957   49.2427    0.0088    1.9831    2.2504  127.2757  -64.5200    0.2616 -999.0000    8.5000  170.5494   90.3514    0.2616    1.9831    9.8876    0.0088  112.1328   71.5052  170.5494   90.3514 
2823.0000   71.2840   71.2840  -63.0867 -999.0000    1.9752 -999.0000    2.2539    0.2047    0.1817    0.1292  244.1096    8.5000  103.9518   46.2572    0.0151    1.9752    2.2539  110.3369  -63.0867    0.2579 -999.0000    8.5000  244.1096   94.0537    0.2579    1.9752    9.8952    0.0151  108.5406   71.2840  244.1096   94.0537 
2823.5000   64.8338   64.8338  -61.5867 -999.0000    1.9716 -999.0000    2.2548    0.1980    0.2114    0.1509  374.4055    8.5000  104.9638   46.1006    0.0153    1.9716    2.2548  111.1863  -61.5867    0.2632 -999.0000    8.5000  374.4055   97.3957    0.2632    1.9716    9.9023    0.0153  103.8344   64.8338  374.4055   97.3957 
2824.0000   63.8110   63.8110  -59.1733 -999.0000    1.9576 -999.0000    2.2493    0.1913    0.2545    0.1859  633.5603    8.5000  108.2405   46.8562    0.0078    1.9576    2.2493  125.7945  -59.1733    0.2685 -999.0000    8.5000  633.5603  103.6064    0.2685    1.9576    9.9203    0.0078  106.3516   63.8110  633.5603  103.6064 
2824.5000   62.6499   62.6499  -56.6600 -999.0000    1.9358 -999.0000    2.2373    0.1864    0.2953    0.2223 1143.9294    8.5000  113.6799   49.9062   -0.0025    1.9358    2.2373  113.0804  -56.6600    0.2723 -999.0000    8.5000 1143.9294  113.8536    0.2723    1.9358    9.9487   -0.0025  112.3406   62.6499 1143.9294  113.8536 
2825.0000   59.8303   59.8303  -54.1867 -999.0000    1.9268 -999.0000    2.2283    0.1879    0.2974    0.2265 1606.2534    8.5000  114.2984   54.1633   -0.0099    1.9268    2.2283   96.3891  -54.1867    0.2700 -999.0000    8.5000 1606.2534  124.7955    0.2700    1.9268    9.9597   -0.0099  113.2047   59.8303 1606.2534  124.7955 
2825.5000   62.2814   62.2814  -51.2533 -999.0000    1.9694 -999.0000    2.2275    0.1907    0.2838    0.2151  778.8890    8.5000  113.5883   57.2963   -0.0118    1.9694    2.2275   74.6669  -51.2533    0.2671 -999.0000    8.5000  778.8890  116.0878    0.2671    1.9694    9.9460   -0.0118  111.9719   62.2814  778.8890  116.0878 
2826.0000   63.5069   63.5069  -47.3000 -999.0000    2.0692 -999.0000    2.2416    0.1837    0.3037    0.2282  258.3508    8.5000  112.2441   60.9176   -0.0058    2.0692    2.2416   57.8437  -47.3000    0.2633 -999.0000    8.5000  258.3508   80.8441    0.2633    2.0692    9.9269   -0.0058  112.6687   63.5069  258.3508   80.8441 
2826.5000   62.5394   62.5394  -42.1733 -999.0000    2.2056 -999.0000    2.2718    0.1475    0.4362    0.3253  106.0825    8.5000  108.9440   64.5205    0.0057    2.2056    2.2718   21.4616  -42.1733    0.2754 -999.0000    8.5000  106.0825   49.2553    0.2754    2.2056    9.9378    0.0057  112.9031   62.5394  106.0825   49.2553 
2827.0000   60.4569   60.4569  -36.4733 -999.0000    2.3506 -999.0000    2.3250    0.2670    0.4310    0.0000   60.0796    8.5000  104.7984   72.6293    0.0262    2.3506    2.3250   12.9596  -36.4733    0.2991 -999.0000    8.5000   60.0796   32.9856    0.2991    2.3506    9.9324    0.0262  108.1375   60.4569   60.0796   32.9856 
2827.5000   61.5995   61.5995  -31.6267 -999.0000    2.4673 -999.0000    2.3922    0.1874    0.6497    0.1874   35.3785    8.5000  101.5687   80.6460    0.0496    2.4673    2.3922   24.1947  -31.6267    0.2919 -999.0000    8.5000   35.3785   21.9971    0.2919    2.4673    9.9176    0.0496  105.0531   61.5995   35.3785   21.9971 
2828.0000   64.1151   64.1151  -27.4933 -999.0000    2.5742 -999.0000    2.4585    0.1060    0.9325    0.3636   23.8307    8.5000   97.4742   84.2950    0.0737    2.5742    2.4585   21.7196  -27.4933    0.2785 -999.0000    8.5000   23.8307   15.7283    0.2785    2.5742    9.9466    0.0737  101.9953   64.1151   23.8307   15.7283 
2828.5000   59.9132   59.9132  -24.5200 -999.0000    2.6426 -999.0000    2.5094    0.0001    1.0000    0.5270   18.8870    8.5000   92.1001   86.7645    0.0887    2.6426    2.5094   15.5482  -24.5200    0.2763 -999.0000    8.5000   18.8870   12.9525    0.2763    2.6426    9.9782    0.0887   97.2547   59.9132   18.8870   12.9525 
2829.0000   56.7434   56.7434  -21.7533 -999.0000    2.6945 -999.0000    2.5274    0.0001    1.0000    0.5600   18.2883    8.5000   86.7229   87.9440    0.0901    2.6945    2.5274   12.7834  -21.7533    0.2684 -999.0000    8.5000   18.2883   12.7371    0.2684    2.6945    9.9471    0.0901   93.4141   56.7434   18.2883   12.7371 
2829.5000   57.4068   57.4068  -19.4267 -999.0000    2.7221 -999.0000    2.5267    0.0001    1.0000    0.5423   19.0261    8.5000   88.4383   85.6035    0.0801    2.7221    2.5267   18.0208  -19.4267    0.2640 -999.0000    8.5000   19.0261   13.4754    0.2640    2.7221    9.9078    0.0801   87.8047   57.4068   19.0261   13.4754 
2830.0000   57.3055   57.3055  -17.6933 -999.0000    2.7472 -999.0000    2.5149    0.0001    1.0000    0.5117   18.4837    8.5000   90.2577   82.5903    0.0606    2.7472    2.5149   13.8704  -17.6933    0.2666 -999.0000    8.5000   18.4837   13.7039    0.2666    2.7472    9.9160    0.0606   86.1641   57.3055   18.4837   13.7039 
2830.5000   55.2506   55.2506  -17.2800 -999.0000    2.7945 -999.0000    2.5085    0.0001    1.0000    0.4853   16.9361    8.5000   89.1833   78.6741    0.0430    2.7945    2.5085   12.7474  -17.2800    0.2652 -999.0000    8.5000   16.9361   13.3373    0.2652    2.7945    9.9291    0.0430   88.9891   55.2506   16.9361   13.3373 
2831.0000   60.5582   60.5582  -17.4600 -999.0000    2.8467 -999.0000    2.5070    0.0001    1.0000    0.4758   15.9919    8.5000   87.6436   75.7531    0.0350    2.8467    2.5070   11.7433  -17.4600    0.2639 -999.0000    8.5000   15.9919   13.1409    0.2639    2.8467    9.9127    0.0350   88.6656   60.5582   15.9919   13.1409 
2831.5000   61.9957   61.9957  -17.3933 -999.0000    2.8914 -999.0000    2.5046    0.0001    1.0000    0.4882   15.1862    8.5000   86.0744   74.7118    0.0382    2.8914    2.5046   12.3817  -17.3933    0.2698 -999.0000    8.5000   15.1862   12.7986    0.2698    2.8914    9.8947    0.0382   88.0484   61.9957   15.1862   12.7986 
2832.0000   59.0839   59.0839  -17.8200 -999.0000    2.8945 -999.0000    2.5013    0.0001    1.0000    0.5119   13.9860    8.5000   87.0655   72.2792    0.0511    2.8945    2.5013   11.9968  -17.8200    0.2798 -999.0000    8.5000   13.9860   11.8345    0.2798    2.8945    9.9318    0.0511   85.8406   59.0839   13.9860   11.8345 
2832.5000   60.3279   60.3279  -17.7267 -999.0000    2.8843 -999.0000    2.4980    0.0001    1.0000    0.5374   12.6915    8.5000   89.2059   73.1546    0.0712    2.8843    2.4980   10.0158  -17.7267    0.2903 -999.0000    8.5000   12.6915   10.6951    0.2903    2.8843    9.9957    0.0712   85.1125   60.3279   12.6915   10.6951 
