~VERSION INFORMATION
 VERS.                 2.0:   CWLS LOG ASCII STANDARD - VERSION 2.0
 WRAP.                  NO:   SINGLE LINE PER DEPTH STEP
 CREA.                 9/4/2023 1:15:44 PM
#CREATED USING DSPetro VERSION 10ep.4.05.01 BY C4372838 ON 9/4/2023 1:15:44 PM
~WELL INFORMATION
#MNEM.UNIT       DATA                          DESCRIPTION MNEMONIC
#---------      ---------------------------   --------------------------
 STRT    .FT        2533.0000                 : START DEPTH
 STOP    .FT        3150.0000                 : STOP DEPTH
 STEP    .FT        0.5000                    : STEP VALUE
 NULL    .      -999.0000                     : NULL VALUE
 DATE    .      9/4/2023                      : LAS file Creation Date
 WELL   .      ABANICO-2                    : Well Name
 COMP   .      Kappa Resources Colombia,Ltd : Company
 FLD    .      UNKNOWN                      : Field
 STATE  .      UNKNOWN                      : State
 COUNT  .      Colombia                     : Country
 UWI    .      ABAN0002                     : Unique Well Identifier (UWI)
 LOC    .      UNKNOWN                      : Location
 RWS    .      -999                         : Def_Rw
 WST    .      -999                         : Def_Rwt
 CNTY   .      UNKNOWN                      : County
 PROV   .                                   : Province
 SRVC   .      UNKNOWN                      : Contractor
 GDAT   .      WGS 84                       : Geodatum
 LONG   .      0                            : Longitude
 LATI   .      0                            : Latitude
 COORDIN.                                   : Grid System
 XCOORD .      910597.860948                : X or East-West Coordinate
 YCOORD .      957980.305104                : Y or North-South Coordinate
~CURVE INFORMATION
#MNEM                 UNIT       API CODE   Curve Type Comments
#----------     --------------- ----------  ---------- -----------
 DEPTH         .FT                        : Depth       
 GRGC          .API                       : GammaRay    GR:UNKNOWN:r1:MAIN:v1
 GRGC          .API                       : GammaRay    GR:UNKNOWN:r1:MAIN:v1
 SP            .mV                        : SP          SP:UNKNOWN:r1:MAIN:v1
 K_CORE_2023   .                          :             
 PDPE          .b/elec                    : PEF         PEF:UNKNOWN:r1:MAIN:v1
 POR_CORE_2023 .                          :             
 DEN           .g/cm3                     : Density     RHOB:PETROPHYSIC:rC:NONE:v0 (auto-composite)
 PHIE          .Dec                       : Phi         
 SWT           .Dec                       : Sw          
 VCLmix        .Dec                       : Vcl         
 AHT60         .ohm.m                     : DeepRes     HDRS:UNKNOWN:r1:MAIN:v1
 BS            .inches                    : BitSize     BS:UNKNOWN:r1:MAIN:v1
 DTCO          .uSec/ft                   : Sonic       DT:UNKNOWN:rC:NONE:v0 (auto-composite)
 GR            .API                       : GammaRay    GR:PETROPHYSIC:rC:NONE:v0 (auto-composite)
 HDRA          .g/cm3                     : Drho        DRHO:UNKNOWN:r1:MAIN:v1
 PEFZ          .b/elec                    : PEF         PEF:UNKNOWN:r1:MAIN:v1
 RHOZ          .g/cm3                     : Density     RHOB:PETROPHYSIC:rC:NONE:v0 (auto-composite)
 RXOZ          .ohm.m                     : MicroRes    MSFL:UNKNOWN:r1:MAIN:v1
 SP            .mV                        : SP          SP:UNKNOWN:r1:MAIN:v1
 TNPH          .v/v_decimal               : Neutron     NPHI:UNKNOWN:r1:MAIN:v1
 CALI          .inches                    : Caliper     CALI:PETROPHYSIC:rC:NONE:v0 (auto-composite)
 BS            .inches                    : BitSize     BS:UNKNOWN:r1:MAIN:v1
 HDRS          .ohm.m                     : DeepRes     HDRS:PETROPHYSIC:rC:NONE:v0 (auto-composite)
 HMRS          .ohm.m                     :             HMRS:PETROPHYSIC:rC:NONE:v0 (auto-composite)
 NPHI          .v/v_decimal               : Neutron     NPHI:UNKNOWN:r1:MAIN:v1
 PEF           .b/elec                    : PEF         PEF:UNKNOWN:r1:MAIN:v1
 CALI          .inches                    : Caliper     CALI:UNKNOWN:r1:MAIN:v1
 DRHO          .g/cm3                     : Drho        DRHO:UNKNOWN:r1:MAIN:v1
 DT            .us/ft                     : Sonic       DT:UNKNOWN:r1:MAIN:v1
 GR            .API                       : GammaRay    GR:UNKNOWN:r1:MAIN:v1
 HDRS          .ohm.m                     : DeepRes     HDRS:UNKNOWN:r1:MAIN:v1
 HMRS          .UNKNOWN                   :             HMRS:UNKNOWN:r1:MAIN:v1
~A  DEPTH    GRGC      GRGC       SP    K_CORE_2~    PDPE   POR_CORE~    DEN       PHIE      SWT      VCLmix    AHT60       BS       DTCO       GR       HDRA      PEFZ      RHOZ      RXOZ       SP       TNPH      CALI       BS       HDRS      HMRS      NPHI      PEF       CALI      DRHO       DT        GR       HDRS      HMRS   
# ...
2758.0000   43.5205   43.5205  -61.0067 -999.0000    1.9998 -999.0000    2.2922    0.2063    0.1637    0.1146 1146.8094    8.5000   91.7274   41.5854    0.1898    1.9998    2.2922   48.2126  -61.0067    0.2618 -999.0000    8.5000 1146.8094  381.8853    0.2618    1.9998   10.1629    0.1898   90.5312   43.5205 1146.8094  381.8853 
2758.5000   46.4323   46.4323  -60.7133 -999.0000    1.9859 -999.0000    2.2906    0.2057    0.1697    0.1195 1413.2606    8.5000   91.3652   42.8110    0.1844    1.9859    2.2906   61.6036  -60.7133    0.2617 -999.0000    8.5000 1413.2606  413.6527    0.2617    1.9859   10.1907    0.1844   90.9609   46.4323 1413.2606  413.6527 
2759.0000   47.9711   47.9711  -60.6067 -999.0000    1.9899 -999.0000    2.2893    0.2059    0.1717    0.1212 1506.0474    8.5000   91.1228   44.6907    0.1735    1.9899    2.2893   56.0669  -60.6067    0.2620 -999.0000    8.5000 1506.0474  399.1862    0.2620    1.9899   10.2323    0.1735   91.2422   47.9711 1506.0474  399.1862 
2759.5000   47.5841   47.5841  -60.5000 -999.0000    2.0342 -999.0000    2.2928    0.2051    0.1743    0.1230 1593.2261    8.5000   90.9537   44.1471    0.1699    2.0342    2.2928   55.0829  -60.5000    0.2650 -999.0000    8.5000 1593.2261  368.2144    0.2650    2.0342   10.2115    0.1699   90.1937   47.5841 1593.2261  368.2144 
2760.0000   46.7640   46.7640  -60.2733 -999.0000    2.0961 -999.0000    2.2981    0.2083    0.1763    0.1267 1772.9766    8.5000   91.1008   43.9996    0.1765    2.0961    2.2981   75.2317  -60.2733    0.2752 -999.0000    8.5000 1772.9766  345.5085    0.2752    2.0961   10.1536    0.1765   90.0563   46.7640 1772.9766  345.5085 
2760.5000   47.0773   47.0773  -60.0600 -999.0000    2.1483 -999.0000    2.2979    0.2046    0.1830    0.1302 1816.1057    8.5000   91.0632   46.4784    0.1906    2.1483    2.2979   97.8881  -60.0600    0.2726 -999.0000    8.5000 1816.1057  333.0291    0.2726    2.1483   10.1388    0.1906   90.8109   47.0773 1816.1057  333.0291 
2761.0000   48.1923   48.1923  -60.1400 -999.0000    2.1846 -999.0000    2.2942    0.2031    0.1825    0.1289 1487.6711    8.5000   91.0392   45.1330    0.2072    2.1846    2.2942   91.5047  -60.1400    0.2671 -999.0000    8.5000 1487.6711  322.2956    0.2671    2.1846   10.2088    0.2072   90.5328   48.1923 1487.6711  322.2956 
2761.5000   47.4459   47.4459  -60.0733 -999.0000    2.1797 -999.0000    2.2879    0.2033    0.1836    0.1299 1096.7797    8.5000   91.2936   44.9856    0.2186    2.1797    2.2879   91.5747  -60.0733    0.2612 -999.0000    8.5000 1096.7797  308.9052    0.2612    2.1797   10.3317    0.2186   91.0031   47.4459 1096.7797  308.9052 
2762.0000   47.1326   47.1326  -59.6800 -999.0000    2.1344 -999.0000    2.2855    0.2042    0.1903    0.1364  852.6133    8.5000   91.5127   44.8842    0.2186    2.1344    2.2855   79.7162  -59.6800    0.2636 -999.0000    8.5000  852.6133  295.8548    0.2636    2.1344   10.3388    0.2186   92.4828   47.1326  852.6133  295.8548 
2762.5000   49.9522   49.9522  -58.9600 -999.0000    2.0595 -999.0000    2.2838    0.2020    0.2051    0.1482  775.8156    8.5000   91.0979   45.2344    0.2016    2.0595    2.2838   71.6223  -58.9600    0.2635 -999.0000    8.5000  775.8156  290.4884    0.2635    2.0595   10.2623    0.2016   92.1641   49.9522  775.8156  290.4884 
2763.0000   51.0672   51.0672  -58.0200 -999.0000    1.9879 -999.0000    2.2817    0.1975    0.2255    0.1636  918.3928    8.5000   90.7711   45.6214    0.1735    1.9879    2.2817   70.5401  -58.0200    0.2582 -999.0000    8.5000  918.3928  304.6357    0.2582    1.9879   10.1853    0.1735   90.9734   51.0672  918.3928  304.6357 
2763.5000   49.7587   49.7587  -57.1133 -999.0000    1.9567 -999.0000    2.2779    0.1908    0.2473    0.1785 1115.1768    8.5000   92.1081   46.6074    0.1389    1.9567    2.2779   78.3522  -57.1133    0.2496 -999.0000    8.5000 1115.1768  324.7065    0.2496    1.9567   10.1574    0.1389   90.4234   49.7587 1115.1768  324.7065 
2764.0000   51.3437   51.3437  -56.6133 -999.0000    1.9694 -999.0000    2.2658    0.1954    0.2268    0.1630 1311.6293    8.5000   92.6998   46.6995    0.1127    1.9694    2.2658   93.3480  -56.6133    0.2450 -999.0000    8.5000 1311.6293  350.3496    0.2450    1.9694   10.1383    0.1127   90.8203   51.3437 1311.6293  350.3496 
2764.5000   52.9838   52.9838  -56.3267 -999.0000    1.9934 -999.0000    2.2615    0.1964    0.2435    0.1799 1325.7908    8.5000   92.7490   46.4507    0.1049    1.9934    2.2615   97.4633  -56.3267    0.2558 -999.0000    8.5000 1325.7908  370.6082    0.2558    1.9934   10.1257    0.1049   92.6281   52.9838 1325.7908  370.6082 
2765.0000   53.3248   53.3248  -56.0533 -999.0000    1.9982 -999.0000    2.2597    0.1974    0.2367    0.1742 1122.9469    8.5000   92.8780   46.7732    0.1108    1.9982    2.2597   93.4846  -56.0533    0.2525 -999.0000    8.5000 1122.9469  369.4611    0.2525    1.9982   10.1115    0.1108   93.3141   53.3248 1122.9469  369.4611 
2765.5000   58.7522   58.7522  -55.8067 -999.0000    1.9670 -999.0000    2.2648    0.2027    0.2283    0.1706  855.9096    8.5000   92.8260   45.5477    0.1269    1.9670    2.2648   64.6514  -55.8067    0.2594 -999.0000    8.5000  855.9096  342.3262    0.2594    1.9670   10.1514    0.1269   93.1641   58.7522  855.9096  342.3262 
2766.0000   72.2239   72.2239  -55.6867 -999.0000    1.9343 -999.0000    2.2683    0.2056    0.2285    0.1732  646.0215    8.5000   91.9062   45.7965    0.1394    1.9343    2.2683   41.8484  -55.6867    0.2756 -999.0000    8.5000  646.0215  304.5134    0.2756    1.9343   10.1968    0.1394   92.4156   72.2239  646.0215  304.5134 
2766.5000   84.5622   84.5622  -55.6467 -999.0000    1.9383 -999.0000    2.2619    0.2136    0.2135    0.1649  505.2454    8.5000   91.7176   44.9948    0.1574    1.9383    2.2619   36.1765  -55.6467    0.2883 -999.0000    8.5000  505.2454  272.2528    0.2883    1.9383   10.1858    0.1574   91.2844   84.5622  505.2454  272.2528 
2767.0000   94.6338   94.6338  -55.3600 -999.0000    1.9918 -999.0000    2.2526    0.2209    0.1842    0.1417  479.7243    8.5000   94.8012   42.7465    0.1859    1.9918    2.2526   37.5857  -55.3600    0.2826 -999.0000    8.5000  479.7243  269.1527    0.2826    1.9918   10.1880    0.1859   91.5484   94.6338  479.7243  269.1527 
2767.5000   98.5592   98.5592  -55.2000 -999.0000    2.0774 -999.0000    2.2438    0.2316    0.1492    0.1152  461.6857    8.5000   96.1333   40.1756    0.2246    2.0774    2.2438   42.8057  -55.2000    0.2863 -999.0000    8.5000  461.6857  264.8758    0.2863    2.0774   10.2519    0.2246   94.1813   98.5592  461.6857  264.8758 
2768.0000   94.2283   94.2283  -55.1733 -999.0000    2.1366 -999.0000    2.2477    0.2311    0.1447    0.1109  407.5699    8.5000   95.7234   39.7609    0.2619    2.1366    2.2477   50.4738  -55.1733    0.2861 -999.0000    8.5000  407.5699  254.8095    0.2861    2.1366   10.3453    0.2619   96.0500   94.2283  407.5699  254.8095 
2768.5000   87.9163   87.9163  -54.9933 -999.0000    2.1632 -999.0000    2.2525    0.2242    0.1577    0.1192  364.3613    8.5000   94.1906   40.5626    0.2764    2.1632    2.2525   57.1434  -54.9933    0.2758 -999.0000    8.5000  364.3613  258.0591    0.2758    2.1632   10.3410    0.2764   93.2672   87.9163  364.3613  258.0591 
2769.0000   78.9137   78.9137  -54.8533 -999.0000    2.1589 -999.0000    2.2577    0.2149    0.1947    0.1477  375.4508    8.5000   93.0507   43.3270    0.2672    2.1589    2.2577   75.5367  -54.8533    0.2738 -999.0000    8.5000  375.4508  286.5785    0.2738    2.1589   10.2716    0.2672   89.1859   78.9137  375.4508  286.5785 
2769.5000   71.4867   71.4867  -54.5467 -999.0000    2.1535 -999.0000    2.2550    0.2124    0.2140    0.1644  394.9453    8.5000   94.3987   44.9487    0.2413    2.1535    2.2550   73.5270  -54.5467    0.2769 -999.0000    8.5000  394.9453  310.5277    0.2769    2.1535   10.2596    0.2413   90.9422   71.4867  394.9453  310.5277 
2770.0000   71.2195   71.2195  -53.8067 -999.0000    2.1685 -999.0000    2.2376    0.2150    0.2327    0.1854  432.3475    8.5000   94.8886   46.9852    0.2111    2.1685    2.2376   55.8585  -53.8067    0.2767 -999.0000    8.5000  432.3475  327.4662    0.2767    2.1685   10.2645    0.2111   94.9031   71.2195  432.3475  327.4662 
